# LAS format log file from PETREL
# Project units are specified as depth units
#==================================================================
~Version information
VERS.   2.0:
WRAP.   NO:
#==================================================================
~Well
STRT .m      745.00000000 :
STOP .m      1730.0000000 :
STEP .m     0.12500000 :
NULL .        -999.250000 :
COMP.           : COMPANY
WELL.  5-0158   : WELL
FLD.            : FIELD
LOC.            : LOCATION
SRVC.           : SERVICE COMPANY
DATE.  2020-03-08 09:25:08   : Log Export Date {yyyy-MM-dd HH:mm:ss}
PROV.           : PROVINCE
UWI.      : UNIQUE WELL ID
API.            : API NUMBER
#==================================================================
~Curve
DEPT .m                   : DEPTH
RT .ohm.m                 : RT
SP .                      : SP
Fluids .                  : Fluids
POR .m3/m3                : POR
PERM .mD                  : PERM
Lith .                    : Lith
~Parameter
#==================================================================
~Ascii
# ...
 1560.6250000 24.549499512 -9999.000000 4.0000000000 21.000000000 450.00000000 1.0000000000
 1560.7500000 27.666000366 -9999.000000 4.0000000000 21.000000000 450.00000000 1.0000000000
 1560.8750000 30.782499313 -9999.000000 4.0000000000 21.000000000 450.00000000 1.0000000000
 1561.0000000 33.898998260 -9999.000000 4.0000000000 21.000000000 450.00000000 1.0000000000
 1561.1250000 32.093700409 -9999.000000 4.0000000000 21.000000000 450.00000000 1.0000000000
 1561.2500000 30.288499832 -9999.000000 4.0000000000 21.000000000 450.00000000 1.0000000000
 1561.3750000 28.483200073 -9999.000000 4.0000000000 21.000000000 450.00000000 1.0000000000
 1561.5000000 26.677999496 -9999.000000 4.0000000000 21.000000000 450.00000000 1.0000000000
 1561.6250000 28.201200485 -9999.000000 4.0000000000 21.000000000 450.00000000 1.0000000000
 1561.7500000 29.724500656 -9999.000000 4.0000000000 21.000000000 450.00000000 1.0000000000
 1561.8750000 31.247699738 -9999.000000 4.0000000000 21.000000000 450.00000000 1.0000000000
 1562.0000000 32.770999908 -9999.000000 4.0000000000 21.000000000 450.00000000 1.0000000000
 1562.1250000 29.828800201 -9999.000000 4.0000000000 21.000000000 450.00000000 1.0000000000
 1562.2500000 26.886499405 -9999.000000 4.0000000000 21.000000000 450.00000000 1.0000000000
 1562.3750000 23.944299698 -9999.000000 4.0000000000 21.000000000 450.00000000 1.0000000000
 1562.5000000 21.002000809 -9999.000000 4.0000000000 21.000000000 450.00000000 1.0000000000
 1562.6250000 21.313499451 -9999.000000 4.0000000000 21.000000000 450.00000000 1.0000000000
 1562.7500000 21.625000000 -9999.000000 4.0000000000 21.000000000 450.00000000 1.0000000000
 1562.8750000 21.936500549 -9999.000000 4.0000000000 21.000000000 450.00000000 1.0000000000
 1563.0000000 22.247999191 -9999.000000 4.0000000000 21.000000000 450.00000000 1.0000000000
 1563.1250000 21.759199142 -9999.000000 4.0000000000 21.000000000 450.00000000 1.0000000000
 1563.2500000 21.270500183 -9999.000000 4.0000000000 21.000000000 450.00000000 1.0000000000
 1563.3750000 20.781700134 -9999.000000 4.0000000000 21.000000000 450.00000000 1.0000000000
 1563.5000000 20.292999268 -9999.000000 4.0000000000 21.000000000 450.00000000 1.0000000000
 1563.6250000 18.312500000 -9999.000000 4.0000000000 21.000000000 450.00000000 1.0000000000
 1563.7500000 16.332000732 -9999.000000 4.0000000000 21.000000000 450.00000000 1.0000000000
 1563.8750000 14.351499557 -9999.000000 4.0000000000 21.000000000 450.00000000 1.0000000000
 1564.0000000 12.371000290 -9999.000000 4.0000000000 21.000000000 450.00000000 1.0000000000
 1564.1250000 12.375499725 -9999.000000 4.0000000000 21.000000000 450.00000000 1.0000000000
 1564.2500000 12.380000114 -9999.000000 4.0000000000 21.000000000 450.00000000 1.0000000000
 1564.3750000 12.384499550 -9999.000000 4.0000000000 21.000000000 450.00000000 1.0000000000
 1564.5000000 12.388999939 -9999.000000 4.0000000000 21.000000000 450.00000000 1.0000000000
 1564.6250000 12.891699791 -9999.000000 4.0000000000 21.000000000 450.00000000 1.0000000000
 1564.7500000 13.394499779 -9999.000000 4.0000000000 21.000000000 450.00000000 1.0000000000
 1564.8750000 13.897199631 -9999.000000 4.0000000000 21.000000000 450.00000000 1.0000000000
 1565.0000000 14.399999619 -9999.000000 4.0000000000 21.000000000 450.00000000 1.0000000000
 1565.1250000 16.043699265 -9999.000000  -999.250000 0.1000000015 0.1000000015 0.0000000000
 1565.2500000 17.687500000 -9999.000000  -999.250000 0.1000000015 0.1000000015 0.0000000000
 1565.3750000 19.331300735 -9999.000000  -999.250000 0.1000000015 0.1000000015 0.0000000000
 1565.5000000 20.975000381 -9999.000000  -999.250000 0.1000000015 0.1000000015 0.0000000000
 1565.6250000 21.156000137 -9999.000000  -999.250000 0.1000000015 0.1000000015 0.0000000000
 1565.7500000 21.336999893 -9999.000000  -999.250000 0.1000000015 0.1000000015 0.0000000000
 1565.8750000 21.517999649 -9999.000000  -999.250000 0.1000000015 0.1000000015 0.0000000000
 1566.0000000 21.698999405 -9999.000000  -999.250000 0.1000000015 0.1000000015 0.0000000000
 1566.1250000 21.469999313 -9999.000000 4.0000000000 15.000000000 153.00000000 1.0000000000
 1566.2500000 21.240999222 -9999.000000 4.0000000000 15.000000000 153.00000000 1.0000000000
 1566.3750000 21.011999130 -9999.000000 4.0000000000 15.000000000 153.00000000 1.0000000000
 1566.5000000 20.783000946 -9999.000000 4.0000000000 15.000000000 153.00000000 1.0000000000
 1566.6250000 19.247499466 -9999.000000 4.0000000000 15.000000000 153.00000000 1.0000000000
 1566.7500000 17.711999893 -9999.000000 4.0000000000 15.000000000 153.00000000 1.0000000000
 1566.8750000 16.176500320 -9999.000000 4.0000000000 15.000000000 153.00000000 1.0000000000
 1567.0000000 14.640999794 -9999.000000 4.0000000000 15.000000000 153.00000000 1.0000000000
 1567.1250000 12.852499962 -9999.000000 4.0000000000 15.000000000 153.00000000 1.0000000000
 1567.2500000 11.064000130 -9999.000000 4.0000000000 15.000000000 153.00000000 1.0000000000
 1567.3750000 9.2755002975 -9999.000000 4.0000000000 15.000000000 153.00000000 1.0000000000
 1567.5000000 7.4869999886 -9999.000000 4.0000000000 15.000000000 153.00000000 1.0000000000
 1567.6250000 8.1538000107 -9999.000000 4.0000000000 15.000000000 153.00000000 1.0000000000
 1567.7500000 8.8205003738 -9999.000000 4.0000000000 15.000000000 153.00000000 1.0000000000
 1567.8750000 9.4872999191 -9999.000000 4.0000000000 15.000000000 153.00000000 1.0000000000
 1568.0000000 10.154000282 -9999.000000 4.0000000000 15.000000000 153.00000000 1.0000000000
 1568.1250000 9.6553001404 -9999.000000 4.0000000000 15.000000000 153.00000000 1.0000000000
 1568.2500000 9.1564998627 -9999.000000 4.0000000000 15.000000000 153.00000000 1.0000000000
 1568.3750000 8.6577997208 -9999.000000 4.0000000000 15.000000000 153.00000000 1.0000000000
 1568.5000000 8.1590003967 -9999.000000  -999.250000 0.1000000015 0.1000000015 0.0000000000
 1568.6250000 7.8134999275 -9999.000000  -999.250000 0.1000000015 0.1000000015 0.0000000000
 1568.7500000 7.4679999352 -9999.000000  -999.250000 0.1000000015 0.1000000015 0.0000000000
 1568.8750000 7.1224999428 -9999.000000  -999.250000 0.1000000015 0.1000000015 0.0000000000
 1569.0000000 6.7769999504 -9999.000000  -999.250000 0.1000000015 0.1000000015 0.0000000000
 1569.1250000 6.7012000084 -9999.000000  -999.250000 0.1000000015 0.1000000015 0.0000000000
 1569.2500000 6.6255002022 -9999.000000  -999.250000 0.1000000015 0.1000000015 0.0000000000
 1569.3750000 6.5496997833 -9999.000000  -999.250000 0.1000000015 0.1000000015 0.0000000000
 1569.5000000 6.4739999771 -9999.000000  -999.250000 0.1000000015 0.1000000015 0.0000000000
 1569.6250000 6.6009998322 -9999.000000  -999.250000 0.1000000015 0.1000000015 0.0000000000
 1569.7500000 6.7280001640 -9999.000000  -999.250000 0.1000000015 0.1000000015 0.0000000000
 1569.8750000 6.8550000191 -9999.000000  -999.250000 0.1000000015 0.1000000015 0.0000000000
 1570.0000000 6.9819998741 -9999.000000  -999.250000 0.1000000015 0.1000000015 0.0000000000
 1570.1250000 11.139200211 -9999.000000  -999.250000 0.1000000015 0.1000000015 0.0000000000
 1570.2500000 15.296500206 -9999.000000  -999.250000 0.1000000015 0.1000000015 0.0000000000
 1570.3750000 19.453800201 -9999.000000  -999.250000 0.1000000015 0.1000000015 0.0000000000
 1570.5000000 23.611000061 -9999.000000  -999.250000 0.1000000015 0.1000000015 0.0000000000
 1570.6250000 21.860500336 -9999.000000  -999.250000 0.1000000015 0.1000000015 0.0000000000
 1570.7500000 20.110000610 -9999.000000  -999.250000 0.1000000015 0.1000000015 0.0000000000
 1570.8750000 18.359500885 -9999.000000  -999.250000 0.1000000015 0.1000000015 0.0000000000
 1571.0000000 16.608999252 -9999.000000  -999.250000 0.1000000015 0.1000000015 0.0000000000
 1571.1250000 17.855499268 -9999.000000  -999.250000 0.1000000015 0.1000000015 0.0000000000
 1571.2500000 19.101999283 -9999.000000  -999.250000 0.1000000015 0.1000000015 0.0000000000
 1571.3750000 20.348499298 -9999.000000  -999.250000 0.1000000015 0.1000000015 0.0000000000
