# LAS format log file from PETREL
# Project units are specified as depth units
#==================================================================
~Version information
VERS.   2.0:
WRAP.   NO:
#==================================================================
~Well
STRT .m      730.00000000 :
STOP .m      1729.5000000 :
STEP .m     0.12500000 :
NULL .        -999.250000 :
COMP.           : COMPANY
WELL.  5-0163   : WELL
FLD.            : FIELD
LOC.            : LOCATION
SRVC.           : SERVICE COMPANY
DATE.  2020-03-08 09:25:09   : Log Export Date {yyyy-MM-dd HH:mm:ss}
PROV.           : PROVINCE
UWI.      : UNIQUE WELL ID
API.            : API NUMBER
#==================================================================
~Curve
DEPT .m                   : DEPTH
RT .ohm.m                 : RT
SP .                      : SP
Fluids .                  : Fluids
POR .m3/m3                : POR
PERM .mD                  : PERM
Lith .                    : Lith
~Parameter
#==================================================================
~Ascii
# ...
 1654.3750000 43.916000366 -9999.000000 4.0000000000 17.000000000 179.00000000 1.0000000000
 1654.5000000 46.891998291 -9999.000000 4.0000000000 17.000000000 179.00000000 1.0000000000
 1654.6250000 42.698501587 -9999.000000 4.0000000000 17.000000000 179.00000000 1.0000000000
 1654.7500000 38.505001068 -9999.000000 4.0000000000 17.000000000 179.00000000 1.0000000000
 1654.8750000 34.311500549 -9999.000000 4.0000000000 17.000000000 179.00000000 1.0000000000
 1655.0000000 30.118000031 -9999.000000 4.0000000000 17.000000000 179.00000000 1.0000000000
 1655.1250000 27.961799622 -9999.000000 4.0000000000 17.000000000 179.00000000 1.0000000000
 1655.2500000 25.805500031 -9999.000000 4.0000000000 17.000000000 179.00000000 1.0000000000
 1655.3750000 23.649299622 -9999.000000 4.0000000000 17.000000000 179.00000000 1.0000000000
 1655.5000000 21.493000031 -9999.000000 4.0000000000 17.000000000 179.00000000 1.0000000000
 1655.6250000 20.330699921 -9999.000000 4.0000000000 17.000000000 179.00000000 1.0000000000
 1655.7500000 19.168500900 -9999.000000 4.0000000000 17.000000000 179.00000000 1.0000000000
 1655.8750000 18.006200790 -9999.000000 4.0000000000 17.000000000 179.00000000 1.0000000000
 1656.0000000 16.843999863 -9999.000000  -999.250000 0.1000000015 0.1000000015 0.0000000000
 1656.1250000 15.181200027 -9999.000000  -999.250000 0.1000000015 0.1000000015 0.0000000000
 1656.2500000 13.518500328 -9999.000000  -999.250000 0.1000000015 0.1000000015 0.0000000000
 1656.3750000 11.855699539 -9999.000000  -999.250000 0.1000000015 0.1000000015 0.0000000000
 1656.5000000 10.192999840 -9999.000000 3.0000000000 20.000000000 318.00000000 1.0000000000
 1656.6250000 13.395999908 -9999.000000 3.0000000000 20.000000000 318.00000000 1.0000000000
 1656.7500000 16.599000931 -9999.000000 3.0000000000 20.000000000 318.00000000 1.0000000000
 1656.8750000 19.802000046 -9999.000000 3.0000000000 20.000000000 318.00000000 1.0000000000
 1657.0000000 23.004999161 -9999.000000 3.0000000000 20.000000000 318.00000000 1.0000000000
 1657.1250000 19.721200943 -9999.000000 3.0000000000 20.000000000 318.00000000 1.0000000000
 1657.2500000 16.437500000 -9999.000000  -999.250000 0.1000000015 0.1000000015 0.0000000000
 1657.3750000 13.153699875 -9999.000000  -999.250000 0.1000000015 0.1000000015 0.0000000000
 1657.5000000 9.8699998856 -9999.000000  -999.250000 0.1000000015 0.1000000015 0.0000000000
 1657.6250000 9.9941997528 -9999.000000  -999.250000 0.1000000015 0.1000000015 0.0000000000
 1657.7500000 10.118499756 -9999.000000  -999.250000 0.1000000015 0.1000000015 0.0000000000
 1657.8750000 10.242699623 -9999.000000  -999.250000 0.1000000015 0.1000000015 0.0000000000
 1658.0000000 10.366999626 -9999.000000 4.0000000000 17.000000000 169.00000000 1.0000000000
 1658.1250000 13.015700340 -9999.000000 4.0000000000 17.000000000 169.00000000 1.0000000000
 1658.2500000 15.664500237 -9999.000000 4.0000000000 17.000000000 169.00000000 1.0000000000
 1658.3750000 18.313199997 -9999.000000 4.0000000000 17.000000000 169.00000000 1.0000000000
 1658.5000000 20.961999893 -9999.000000 4.0000000000 17.000000000 169.00000000 1.0000000000
 1658.6250000 23.273300171 -9999.000000 4.0000000000 17.000000000 169.00000000 1.0000000000
 1658.7500000 25.584499359 -9999.000000 4.0000000000 17.000000000 169.00000000 1.0000000000
 1658.8750000 27.895799637 -9999.000000 4.0000000000 17.000000000 169.00000000 1.0000000000
 1659.0000000 30.207000732 -9999.000000 4.0000000000 17.000000000 169.00000000 1.0000000000
 1659.1250000 30.563999176 -9999.000000 4.0000000000 17.000000000 169.00000000 1.0000000000
 1659.2500000 30.920999527 -9999.000000 4.0000000000 17.000000000 169.00000000 1.0000000000
 1659.3750000 31.277999878 -9999.000000 4.0000000000 17.000000000 169.00000000 1.0000000000
 1659.5000000 31.635000229 -9999.000000 4.0000000000 17.000000000 169.00000000 1.0000000000
 1659.6250000 30.140800476 -9999.000000 4.0000000000 17.000000000 169.00000000 1.0000000000
 1659.7500000 28.646499634 -9999.000000 4.0000000000 17.000000000 169.00000000 1.0000000000
 1659.8750000 27.152299881 -9999.000000 4.0000000000 17.000000000 169.00000000 1.0000000000
 1660.0000000 25.658000946 -9999.000000 4.0000000000 17.000000000 169.00000000 1.0000000000
 1660.1250000 24.363300323 -9999.000000 4.0000000000 17.000000000 169.00000000 1.0000000000
 1660.2500000 23.068500519 -9999.000000 4.0000000000 17.000000000 169.00000000 1.0000000000
 1660.3750000 21.773799896 -9999.000000 4.0000000000 17.000000000 169.00000000 1.0000000000
 1660.5000000 20.479000092 -9999.000000 4.0000000000 17.000000000 169.00000000 1.0000000000
 1660.6250000 22.544000626 -9999.000000 4.0000000000 17.000000000 169.00000000 1.0000000000
 1660.7500000 24.608999252 -9999.000000 4.0000000000 17.000000000 169.00000000 1.0000000000
 1660.8750000 26.673999786 -9999.000000 4.0000000000 17.000000000 169.00000000 1.0000000000
 1661.0000000 28.739000320 -9999.000000 4.0000000000 17.000000000 169.00000000 1.0000000000
 1661.1250000 27.035999298 -9999.000000 4.0000000000 17.000000000 169.00000000 1.0000000000
 1661.2500000 25.333000183 -9999.000000 4.0000000000 17.000000000 169.00000000 1.0000000000
 1661.3750000 23.629999161 -9999.000000 4.0000000000 17.000000000 169.00000000 1.0000000000
 1661.5000000 21.927000046 -9999.000000 4.0000000000 17.000000000 169.00000000 1.0000000000
 1661.6250000 22.262800217 -9999.000000 4.0000000000 17.000000000 169.00000000 1.0000000000
 1661.7500000 22.598499298 -9999.000000 4.0000000000 17.000000000 169.00000000 1.0000000000
 1661.8750000 22.934299469 -9999.000000 4.0000000000 17.000000000 169.00000000 1.0000000000
 1662.0000000 23.270000458 -9999.000000 4.0000000000 17.000000000 169.00000000 1.0000000000
 1662.1250000 21.072799683 -9999.000000 4.0000000000 17.000000000 169.00000000 1.0000000000
 1662.2500000 18.875499725 -9999.000000 4.0000000000 17.000000000 169.00000000 1.0000000000
 1662.3750000 16.678300858 -9999.000000 4.0000000000 17.000000000 169.00000000 1.0000000000
 1662.5000000 14.480999947 -9999.000000 4.0000000000 17.000000000 169.00000000 1.0000000000
 1662.6250000 14.412300110 -9999.000000 4.0000000000 17.000000000 169.00000000 1.0000000000
 1662.7500000 14.343500137 -9999.000000 4.0000000000 17.000000000 169.00000000 1.0000000000
 1662.8750000 14.274800301 -9999.000000 4.0000000000 17.000000000 169.00000000 1.0000000000
 1663.0000000 14.206000328 -9999.000000  -999.250000 0.1000000015 0.1000000015 0.0000000000
 1663.1250000 12.744799614 -9999.000000  -999.250000 0.1000000015 0.1000000015 0.0000000000
 1663.2500000 11.283499718 -9999.000000  -999.250000 0.1000000015 0.1000000015 0.0000000000
 1663.3750000 9.8222999573 -9999.000000  -999.250000 0.1000000015 0.1000000015 0.0000000000
 1663.5000000 8.3610000610 -9999.000000  -999.250000 0.1000000015 0.1000000015 0.0000000000
 1663.6250000 10.458299637 -9999.000000  -999.250000 0.1000000015 0.1000000015 0.0000000000
 1663.7500000 12.555500031 -9999.000000 3.0000000000 16.000000000 113.00000000 1.0000000000
 1663.8750000 14.652799606 -9999.000000 3.0000000000 16.000000000 113.00000000 1.0000000000
 1664.0000000 16.750000000 -9999.000000 3.0000000000 16.000000000 113.00000000 1.0000000000
 1664.1250000 18.059799194 -9999.000000 3.0000000000 16.000000000 113.00000000 1.0000000000
 1664.2500000 19.369499207 -9999.000000 3.0000000000 16.000000000 113.00000000 1.0000000000
 1664.3750000 20.679300308 -9999.000000 3.0000000000 16.000000000 113.00000000 1.0000000000
 1664.5000000 21.989000320 -9999.000000 3.0000000000 16.000000000 113.00000000 1.0000000000
 1664.6250000 21.882999420 -9999.000000 3.0000000000 16.000000000 113.00000000 1.0000000000
 1664.7500000 21.777000427 -9999.000000 3.0000000000 16.000000000 113.00000000 1.0000000000
 1664.8750000 21.670999527 -9999.000000 3.0000000000 16.000000000 113.00000000 1.0000000000
 1665.0000000 21.565000534 -9999.000000 3.0000000000 16.000000000 113.00000000 1.0000000000
 1665.1250000 22.676300049 -9999.000000 3.0000000000 16.000000000 113.00000000 1.0000000000
