# LAS format log file from PETREL
# Project units are specified as depth units
#==================================================================
~Version information
VERS.   2.0:
WRAP.   NO:
#==================================================================
~Well
STRT .m      745.00000000 :
STOP .m      1730.0000000 :
STEP .m     0.12500000 :
NULL .        -999.250000 :
COMP.           : COMPANY
WELL.  5-0158   : WELL
FLD.            : FIELD
LOC.            : LOCATION
SRVC.           : SERVICE COMPANY
DATE.  2020-03-08 09:25:08   : Log Export Date {yyyy-MM-dd HH:mm:ss}
PROV.           : PROVINCE
UWI.      : UNIQUE WELL ID
API.            : API NUMBER
#==================================================================
~Curve
DEPT .m                   : DEPTH
RT .ohm.m                 : RT
SP .                      : SP
Fluids .                  : Fluids
POR .m3/m3                : POR
PERM .mD                  : PERM
Lith .                    : Lith
~Parameter
#==================================================================
~Ascii
# ...
 1593.2500000 9.5895004272 -9999.000000 2.0000000000 15.000000000 152.00000000 1.0000000000
 1593.3750000 8.5922002792 -9999.000000 2.0000000000 15.000000000 152.00000000 1.0000000000
 1593.5000000 7.5949997902 -9999.000000 2.0000000000 15.000000000 152.00000000 1.0000000000
 1593.6250000 8.7037000656 -9999.000000 2.0000000000 15.000000000 152.00000000 1.0000000000
 1593.7500000 9.8125000000 -9999.000000 2.0000000000 15.000000000 152.00000000 1.0000000000
 1593.8750000 10.921199799 -9999.000000 2.0000000000 15.000000000 152.00000000 1.0000000000
 1594.0000000 12.029999733 -9999.000000 2.0000000000 15.000000000 152.00000000 1.0000000000
 1594.1250000 13.945199966 -9999.000000 2.0000000000 15.000000000 152.00000000 1.0000000000
 1594.2500000 15.860500336 -9999.000000 2.0000000000 15.000000000 152.00000000 1.0000000000
 1594.3750000 17.775699615 -9999.000000 2.0000000000 15.000000000 152.00000000 1.0000000000
 1594.5000000 19.690999985 -9999.000000 2.0000000000 15.000000000 152.00000000 1.0000000000
 1594.6250000 16.901800156 -9999.000000 2.0000000000 15.000000000 152.00000000 1.0000000000
 1594.7500000 14.112500191 -9999.000000 2.0000000000 15.000000000 152.00000000 1.0000000000
 1594.8750000 11.323300362 -9999.000000 2.0000000000 15.000000000 152.00000000 1.0000000000
 1595.0000000 8.5340003967 -9999.000000 2.0000000000 15.000000000 152.00000000 1.0000000000
 1595.1250000 8.6273002625 -9999.000000 2.0000000000 15.000000000 152.00000000 1.0000000000
 1595.2500000 8.7204999924 -9999.000000 2.0000000000 15.000000000 152.00000000 1.0000000000
 1595.3750000 8.8136997223 -9999.000000 2.0000000000 15.000000000 152.00000000 1.0000000000
 1595.5000000 8.9069995880 -9999.000000 2.0000000000 15.000000000 152.00000000 1.0000000000
 1595.6250000 11.550499916 -9999.000000 2.0000000000 15.000000000 152.00000000 1.0000000000
 1595.7500000 14.194000244 -9999.000000 2.0000000000 15.000000000 152.00000000 1.0000000000
 1595.8750000 16.837499619 -9999.000000 2.0000000000 15.000000000 152.00000000 1.0000000000
 1596.0000000 19.481000900 -9999.000000 2.0000000000 15.000000000 152.00000000 1.0000000000
 1596.1250000 22.197299957 -9999.000000 2.0000000000 15.000000000 152.00000000 1.0000000000
 1596.2500000 24.913499832 -9999.000000 2.0000000000 15.000000000 152.00000000 1.0000000000
 1596.3750000 27.629800797 -9999.000000 2.0000000000 15.000000000 152.00000000 1.0000000000
 1596.5000000 30.346000671 -9999.000000 2.0000000000 15.000000000 152.00000000 1.0000000000
 1596.6250000 27.067300797 -9999.000000 2.0000000000 15.000000000 152.00000000 1.0000000000
 1596.7500000 23.788499832 -9999.000000 2.0000000000 15.000000000 152.00000000 1.0000000000
 1596.8750000 20.509799957 -9999.000000 2.0000000000 15.000000000 152.00000000 1.0000000000
 1597.0000000 17.231000900 -9999.000000 2.0000000000 15.000000000 152.00000000 1.0000000000
 1597.1250000 17.112499237 -9999.000000 2.0000000000 15.000000000 152.00000000 1.0000000000
 1597.2500000 16.993999481 -9999.000000 2.0000000000 15.000000000 152.00000000 1.0000000000
 1597.3750000 16.875499725 -9999.000000 2.0000000000 15.000000000 152.00000000 1.0000000000
 1597.5000000 16.756999969 -9999.000000 2.0000000000 15.000000000 152.00000000 1.0000000000
 1597.6250000 17.031299591 -9999.000000 2.0000000000 15.000000000 152.00000000 1.0000000000
 1597.7500000 17.305500031 -9999.000000 2.0000000000 15.000000000 152.00000000 1.0000000000
 1597.8750000 17.579799652 -9999.000000 2.0000000000 15.000000000 152.00000000 1.0000000000
 1598.0000000 17.854000092 -9999.000000 2.0000000000 15.000000000 152.00000000 1.0000000000
 1598.1250000 17.090000153 -9999.000000 2.0000000000 15.000000000 152.00000000 1.0000000000
 1598.2500000 16.326000214 -9999.000000 2.0000000000 15.000000000 152.00000000 1.0000000000
 1598.3750000 15.562000275 -9999.000000 2.0000000000 15.000000000 152.00000000 1.0000000000
 1598.5000000 14.798000336 -9999.000000 2.0000000000 15.000000000 152.00000000 1.0000000000
 1598.6250000 13.888299942 -9999.000000 2.0000000000 15.000000000 152.00000000 1.0000000000
 1598.7500000 12.978500366 -9999.000000 2.0000000000 15.000000000 152.00000000 1.0000000000
 1598.8750000 12.068799973 -9999.000000 2.0000000000 15.000000000 152.00000000 1.0000000000
 1599.0000000 11.159000397 -9999.000000 2.0000000000 15.000000000 152.00000000 1.0000000000
 1599.1250000 9.9743003845 -9999.000000 2.0000000000 15.000000000 152.00000000 1.0000000000
 1599.2500000 8.7895002365 -9999.000000 2.0000000000 15.000000000 152.00000000 1.0000000000
 1599.3750000 7.6048002243 -9999.000000 2.0000000000 15.000000000 152.00000000 1.0000000000
 1599.5000000 6.4200000763 -9999.000000 2.0000000000 15.000000000 152.00000000 1.0000000000
 1599.6250000 6.0243000984 -9999.000000 2.0000000000 15.000000000 152.00000000 1.0000000000
 1599.7500000 5.6284999847 -9999.000000 2.0000000000 15.000000000 152.00000000 1.0000000000
 1599.8750000 5.2326998711 -9999.000000 2.0000000000 15.000000000 152.00000000 1.0000000000
 1600.0000000 4.8369998932 -9999.000000 2.0000000000 15.000000000 152.00000000 1.0000000000
 1600.1250000 5.0061998367 -9999.000000 2.0000000000 15.000000000 152.00000000 1.0000000000
 1600.2500000 5.1754999161 -9999.000000 2.0000000000 15.000000000 152.00000000 1.0000000000
 1600.3750000 5.3446998596 -9999.000000 2.0000000000 15.000000000 152.00000000 1.0000000000
 1600.5000000 5.5139999390 -9999.000000  -999.250000 0.1000000015 0.1000000015 0.0000000000
 1600.6250000 5.0300002098 -9999.000000  -999.250000 0.1000000015 0.1000000015 0.0000000000
 1600.7500000 4.5460000038 -9999.000000  -999.250000 0.1000000015 0.1000000015 0.0000000000
 1600.8750000 4.0619997978 -9999.000000  -999.250000 0.1000000015 0.1000000015 0.0000000000
 1601.0000000 3.5780000687 -9999.000000  -999.250000 0.1000000015 0.1000000015 0.0000000000
 1601.1250000 3.4760000706 -9999.000000  -999.250000 0.1000000015 0.1000000015 0.0000000000
 1601.2500000 3.3740000725 -9999.000000  -999.250000 0.1000000015 0.1000000015 0.0000000000
 1601.3750000 3.2720000744 -9999.000000  -999.250000 0.1000000015 0.1000000015 0.0000000000
 1601.5000000 3.1700000763 -9999.000000  -999.250000 0.1000000015 0.1000000015 0.0000000000
 1601.6250000 3.3800001144 -9999.000000  -999.250000 0.1000000015 0.1000000015 0.0000000000
 1601.7500000 3.5899999142 -9999.000000  -999.250000 0.1000000015 0.1000000015 0.0000000000
 1601.8750000 3.7999999523 -9999.000000  -999.250000 0.1000000015 0.1000000015 0.0000000000
 1602.0000000 4.0100002289 -9999.000000  -999.250000 0.1000000015 0.1000000015 0.0000000000
 1602.1250000 4.0234999657 -9999.000000  -999.250000 0.1000000015 0.1000000015 0.0000000000
 1602.2500000 4.0370001793 -9999.000000  -999.250000 0.1000000015 0.1000000015 0.0000000000
 1602.3750000 4.0504999161 -9999.000000  -999.250000 0.1000000015 0.1000000015 0.0000000000
 1602.5000000 4.0640001297 -9999.000000  -999.250000 0.1000000015 0.1000000015 0.0000000000
 1602.6250000 3.9814999104 -9999.000000  -999.250000 0.1000000015 0.1000000015 0.0000000000
 1602.7500000 3.8989999294 -9999.000000  -999.250000 0.1000000015 0.1000000015 0.0000000000
 1602.8750000 3.8164999485 -9999.000000  -999.250000 0.1000000015 0.1000000015 0.0000000000
 1603.0000000 3.7339999676 -9999.000000  -999.250000 0.1000000015 0.1000000015 0.0000000000
 1603.1250000 3.7265000343 -9999.000000  -999.250000 0.1000000015 0.1000000015 0.0000000000
 1603.2500000 3.7190001011 -9999.000000  -999.250000 0.1000000015 0.1000000015 0.0000000000
 1603.3750000 3.7114999294 -9999.000000  -999.250000 0.1000000015 0.1000000015 0.0000000000
 1603.5000000 3.7039999962 -9999.000000  -999.250000 0.1000000015 0.1000000015 0.0000000000
 1603.6250000 3.6944999695 -9999.000000  -999.250000 0.1000000015 0.1000000015 0.0000000000
 1603.7500000 3.6849999428 -9999.000000  -999.250000 0.1000000015 0.1000000015 0.0000000000
 1603.8750000 3.6754999161 -9999.000000  -999.250000 0.1000000015 0.1000000015 0.0000000000
 1604.0000000 3.6659998894 -9999.000000  -999.250000 0.1000000015 0.1000000015 0.0000000000
