# LAS format log file from PETREL
# Project units are specified as depth units
#==================================================================
~Version information
VERS.   2.0:
WRAP.   NO:
#==================================================================
~Well
STRT .m      1338.0000000 :
STOP .m      1710.0000000 :
STEP .m     0.12500000 :
NULL .        -999.250000 :
COMP.           : COMPANY
WELL.  5-0162C2   : WELL
FLD.            : FIELD
LOC.            : LOCATION
SRVC.           : SERVICE COMPANY
DATE.  2020-03-08 09:25:09   : Log Export Date {yyyy-MM-dd HH:mm:ss}
PROV.           : PROVINCE
UWI.      : UNIQUE WELL ID
API.            : API NUMBER
#==================================================================
~Curve
DEPT .m                   : DEPTH
RT .ohm.m                 : RT
SP .                      : SP
Fluids .                  : Fluids
POR .m3/m3                : POR
PERM .mD                  : PERM
Lith .                    : Lith
~Parameter
#==================================================================
~Ascii
# ...
 1544.6250000 2.2899999619 -27.89999962  -999.250000  -999.250000  -999.250000  -999.250000
 1544.7500000 2.2799999714 -27.98999977  -999.250000  -999.250000  -999.250000  -999.250000
 1544.8750000 2.2799999714 -28.07999992  -999.250000  -999.250000  -999.250000  -999.250000
 1545.0000000 2.2999999523 -28.18000031  -999.250000  -999.250000  -999.250000  -999.250000
 1545.1250000 2.3900001049 -28.27000046  -999.250000  -999.250000  -999.250000  -999.250000
 1545.2500000 2.5099999905 -28.37000084  -999.250000  -999.250000  -999.250000  -999.250000
 1545.3750000 2.6300001144 -28.46999931  -999.250000  -999.250000  -999.250000  -999.250000
 1545.5000000 2.6700000763 -28.55999947  -999.250000  -999.250000  -999.250000  -999.250000
 1545.6250000 2.6600000858 -28.64999962  -999.250000  -999.250000  -999.250000  -999.250000
 1545.7500000 2.5899999142 -28.75000000  -999.250000  -999.250000  -999.250000  -999.250000
 1545.8750000 2.5000000000 -28.87999916  -999.250000  -999.250000  -999.250000  -999.250000
 1546.0000000 2.4200000763 -29.03000069  -999.250000  -999.250000  -999.250000  -999.250000
 1546.1250000 2.3800001144 -29.21999931  -999.250000  -999.250000  -999.250000  -999.250000
 1546.2500000 2.3900001049 -29.45000076  -999.250000  -999.250000  -999.250000  -999.250000
 1546.3750000 2.4500000477 -29.75000000  -999.250000  -999.250000  -999.250000  -999.250000
 1546.5000000 2.5599999428 -30.11000061  -999.250000  -999.250000  -999.250000  -999.250000
 1546.6250000 2.6700000763 -30.56999969  -999.250000  -999.250000  -999.250000  -999.250000
 1546.7500000 2.7599999905 -31.11000061  -999.250000  -999.250000  -999.250000  -999.250000
 1546.8750000 2.8199999332 -31.78000069  -999.250000  -999.250000  -999.250000  -999.250000
 1547.0000000 2.9400000572 -32.59999847  -999.250000  -999.250000  -999.250000  -999.250000
 1547.1250000 3.0799999237 -33.58000183  -999.250000  -999.250000  -999.250000  -999.250000
 1547.2500000 3.3499999046 -34.72000122  -999.250000  -999.250000  -999.250000  -999.250000
 1547.3750000 3.8199999332 -36.00999832  -999.250000  -999.250000  -999.250000  -999.250000
 1547.5000000 4.5399999619 -37.41999817  -999.250000  -999.250000  -999.250000  -999.250000
 1547.6250000 5.2899999619 -38.91999817  -999.250000  -999.250000  -999.250000  -999.250000
 1547.7500000 5.9099998474 -40.47000122  -999.250000  -999.250000  -999.250000  -999.250000
 1547.8750000 6.4099998474 -42.06000137  -999.250000  -999.250000  -999.250000  -999.250000
 1548.0000000 6.7800002098 -43.74000168  -999.250000  -999.250000  -999.250000  -999.250000
 1548.1250000 7.2300000191 -45.47999954  -999.250000  -999.250000  -999.250000  -999.250000
 1548.2500000 8.3100004196 -47.25999832  -999.250000  -999.250000  -999.250000  -999.250000
 1548.3750000 10.960000038 -49.06000137 4.0000000000 20.000000000 303.00000000 1.0000000000
 1548.5000000 15.479999542 -50.86999893 4.0000000000 20.000000000 303.00000000 1.0000000000
 1548.6250000 22.440000534 -52.65999985 4.0000000000 20.000000000 303.00000000 1.0000000000
 1548.7500000 32.049999237 -54.38999939 4.0000000000 20.000000000 303.00000000 1.0000000000
 1548.8750000 41.979999542 -55.95999908 4.0000000000 20.000000000 303.00000000 1.0000000000
 1549.0000000 48.930000305 -57.33000183 4.0000000000 20.000000000 303.00000000 1.0000000000
 1549.1250000 51.509998322 -58.50000000 4.0000000000 20.000000000 303.00000000 1.0000000000
 1549.2500000 50.950000763 -59.45000076 4.0000000000 20.000000000 303.00000000 1.0000000000
 1549.3750000 48.639999390 -60.20000076 4.0000000000 20.000000000 303.00000000 1.0000000000
 1549.5000000 45.360000610 -60.75000000 4.0000000000 20.000000000 303.00000000 1.0000000000
 1549.6250000 42.590000153 -61.11999893 4.0000000000 20.000000000 303.00000000 1.0000000000
 1549.7500000 42.009998322 -61.31999969 4.0000000000 20.000000000 303.00000000 1.0000000000
 1549.8750000 44.319999695 -61.36000061 4.0000000000 20.000000000 303.00000000 1.0000000000
 1550.0000000 48.979999542 -61.27000046 4.0000000000 20.000000000 303.00000000 1.0000000000
 1550.1250000 53.950000763 -61.06000137 4.0000000000 20.000000000 303.00000000 1.0000000000
 1550.2500000 56.790000916 -60.72000122 4.0000000000 20.000000000 303.00000000 1.0000000000
 1550.3750000 56.580001831 -60.25000000 4.0000000000 20.000000000 303.00000000 1.0000000000
 1550.5000000 54.680000305 -59.65000153 4.0000000000 20.000000000 303.00000000 1.0000000000
 1550.6250000 52.040000916 -58.90000153 4.0000000000 20.000000000 303.00000000 1.0000000000
 1550.7500000 47.180000305 -58.02000046 4.0000000000 20.000000000 303.00000000 1.0000000000
 1550.8750000 38.849998474 -57.00999832 4.0000000000 20.000000000 303.00000000 1.0000000000
 1551.0000000 28.620000839 -55.90999985 4.0000000000 20.000000000 303.00000000 1.0000000000
 1551.1250000 19.799999237 -54.79000092 4.0000000000 20.000000000 303.00000000 1.0000000000
 1551.2500000 14.180000305 -53.70000076 3.0000000000 9.0000000000 31.000000000 1.0000000000
 1551.3750000 11.100000381 -52.72999954 3.0000000000 9.0000000000 31.000000000 1.0000000000
 1551.5000000 9.7200002670 -51.90000153 3.0000000000 9.0000000000 31.000000000 1.0000000000
 1551.6250000 9.5799999237 -51.25000000 3.0000000000 9.0000000000 31.000000000 1.0000000000
 1551.7500000 10.229999542 -50.75000000 3.0000000000 9.0000000000 31.000000000 1.0000000000
 1551.8750000 10.970000267 -50.40000153 3.0000000000 9.0000000000 31.000000000 1.0000000000
 1552.0000000 11.229999542 -50.11999893 3.0000000000 9.0000000000 31.000000000 1.0000000000
 1552.1250000 10.779999733 -49.86999893 3.0000000000 9.0000000000 31.000000000 1.0000000000
 1552.2500000 9.8699998856 -49.61999893 3.0000000000 9.0000000000 31.000000000 1.0000000000
 1552.3750000 9.0900001526 -49.38999939 3.0000000000 9.0000000000 31.000000000 1.0000000000
 1552.5000000 8.9200000763 -49.18000031 3.0000000000 9.0000000000 31.000000000 1.0000000000
 1552.6250000 9.5200004578 -49.00000000 3.0000000000 9.0000000000 31.000000000 1.0000000000
 1552.7500000 10.699999809 -48.88000107 3.0000000000 9.0000000000 31.000000000 1.0000000000
 1552.8750000 12.020000458 -48.83000183 3.0000000000 9.0000000000 31.000000000 1.0000000000
 1553.0000000 12.750000000 -48.86000061 3.0000000000 9.0000000000 31.000000000 1.0000000000
 1553.1250000 12.380000114 -48.95999908 3.0000000000 9.0000000000 31.000000000 1.0000000000
 1553.2500000 11.010000229 -49.13000107 3.0000000000 9.0000000000 31.000000000 1.0000000000
 1553.3750000 9.3800001144 -49.40000153 3.0000000000 9.0000000000 31.000000000 1.0000000000
 1553.5000000 8.1599998474 -49.79999924  -999.250000 0.1000000015 0.1000000015 0.0000000000
 1553.6250000 7.7399997711 -50.34000015  -999.250000 0.1000000015 0.1000000015 0.0000000000
 1553.7500000 8.3000001907 -50.99000168  -999.250000 0.1000000015 0.1000000015 0.0000000000
 1553.8750000 10.029999733 -51.70999908 4.0000000000 16.000000000 178.00000000 1.0000000000
 1554.0000000 13.310000420 -52.47999954 4.0000000000 16.000000000 178.00000000 1.0000000000
 1554.1250000 18.049999237 -53.25000000 4.0000000000 16.000000000 178.00000000 1.0000000000
 1554.2500000 22.719999313 -53.97000122 4.0000000000 16.000000000 178.00000000 1.0000000000
 1554.3750000 25.670000076 -54.58000183 4.0000000000 16.000000000 178.00000000 1.0000000000
 1554.5000000 25.750000000 -55.04000092 4.0000000000 16.000000000 178.00000000 1.0000000000
 1554.6250000 23.940000534 -55.34000015 4.0000000000 16.000000000 178.00000000 1.0000000000
 1554.7500000 21.729999542 -55.52000046 4.0000000000 16.000000000 178.00000000 1.0000000000
 1554.8750000 20.329999924 -55.56000137 4.0000000000 16.000000000 178.00000000 1.0000000000
 1555.0000000 20.079999924 -55.47000122 4.0000000000 16.000000000 178.00000000 1.0000000000
 1555.1250000 21.090000153 -55.22999954 4.0000000000 16.000000000 178.00000000 1.0000000000
 1555.2500000 23.120000839 -54.86999893 4.0000000000 16.000000000 178.00000000 1.0000000000
 1555.3750000 24.770000458 -54.40000153 4.0000000000 16.000000000 178.00000000 1.0000000000
