# LAS format log file from PETREL
# Project units are specified as depth units
#==================================================================
~Version information
VERS.   2.0:
WRAP.   NO:
#==================================================================
~Well
STRT .m      1350.0000000 :
STOP .m      1755.0000000 :
STEP .m     0.12500000 :
NULL .        -999.250000 :
COMP.           : COMPANY
WELL.  5-0165C2   : WELL
FLD.            : FIELD
LOC.            : LOCATION
SRVC.           : SERVICE COMPANY
DATE.  2020-03-08 09:25:09   : Log Export Date {yyyy-MM-dd HH:mm:ss}
PROV.           : PROVINCE
UWI.      : UNIQUE WELL ID
API.            : API NUMBER
#==================================================================
~Curve
DEPT .m                   : DEPTH
RT .ohm.m                 : RT
SP .                      : SP
Fluids .                  : Fluids
POR .m3/m3                : POR
PERM .mD                  : PERM
Lith .                    : Lith
~Parameter
#==================================================================
~Ascii
# ...
 1611.0000000 11.744999886 14.571000099 3.0000000000 13.000000000 109.00000000 1.0000000000
 1611.1250000 7.6609997749 14.682000160 3.0000000000 13.000000000 109.00000000 1.0000000000
 1611.2500000 5.7630000114 14.809000015 3.0000000000 13.000000000 109.00000000 1.0000000000
 1611.3750000 5.2960000038 14.848999977 3.0000000000 13.000000000 109.00000000 1.0000000000
 1611.5000000 5.2620000839 14.942000389 3.0000000000 13.000000000 109.00000000 1.0000000000
 1611.6250000 5.5320000648 14.972000122 3.0000000000 13.000000000 109.00000000 1.0000000000
 1611.7500000 15.149999619 15.060000420 3.0000000000 13.000000000 109.00000000 1.0000000000
 1611.8750000 17.488000870 15.152000427 3.0000000000 13.000000000 109.00000000 1.0000000000
 1612.0000000 17.350000381 15.197999954 3.0000000000 13.000000000 109.00000000 1.0000000000
 1612.1250000 16.670999527 15.218999863 3.0000000000 13.000000000 109.00000000 1.0000000000
 1612.2500000 15.529999733 15.133000374 3.0000000000 13.000000000 109.00000000 1.0000000000
 1612.3750000 11.897000313 15.043000221 3.0000000000 13.000000000 109.00000000 1.0000000000
 1612.5000000 10.708000183 15.012999535 3.0000000000 13.000000000 109.00000000 1.0000000000
 1612.6250000 10.019000053 14.897999763 3.0000000000 13.000000000 109.00000000 1.0000000000
 1612.7500000 9.5979995728 14.805999756 3.0000000000 13.000000000 109.00000000 1.0000000000
 1612.8750000 9.3020000458 14.786000252 3.0000000000 13.000000000 109.00000000 1.0000000000
 1613.0000000 9.1239995956 14.652000427 2.0000000000 22.000000000 2275.0000000 1.0000000000
 1613.1250000 12.734999657 14.486000061 2.0000000000 22.000000000 2275.0000000 1.0000000000
 1613.2500000 13.111000061 14.333000183 2.0000000000 22.000000000 2275.0000000 1.0000000000
 1613.3750000 13.376999855 14.187999725 2.0000000000 22.000000000 2275.0000000 1.0000000000
 1613.5000000 13.633999825 13.961999893 2.0000000000 22.000000000 2275.0000000 1.0000000000
 1613.6250000 13.885999680 13.800000191 2.0000000000 22.000000000 2275.0000000 1.0000000000
 1613.7500000 13.975000381 13.618000031 2.0000000000 22.000000000 2275.0000000 1.0000000000
 1613.8750000 13.557000160 13.369000435 2.0000000000 22.000000000 2275.0000000 1.0000000000
 1614.0000000 13.060999870 12.968000412 2.0000000000 22.000000000 2275.0000000 1.0000000000
 1614.1250000 12.663000107 12.642999649 2.0000000000 22.000000000 2275.0000000 1.0000000000
 1614.2500000 11.779999733 12.277999878 2.0000000000 22.000000000 2275.0000000 1.0000000000
 1614.3750000 10.923000336 11.888999939 2.0000000000 22.000000000 2275.0000000 1.0000000000
 1614.5000000 10.314999580 11.512999535 2.0000000000 22.000000000 2275.0000000 1.0000000000
 1614.6250000 10.184000015 11.187000275 2.0000000000 22.000000000 2275.0000000 1.0000000000
 1614.7500000 10.194999695 10.810999870 2.0000000000 22.000000000 2275.0000000 1.0000000000
 1614.8750000 10.317999840 10.411000252 2.0000000000 22.000000000 2275.0000000 1.0000000000
 1615.0000000 10.067000389 10.104000092 2.0000000000 22.000000000 2275.0000000 1.0000000000
 1615.1250000 9.6520004272 9.7600002289 2.0000000000 22.000000000 2275.0000000 1.0000000000
 1615.2500000 9.2700004578 9.4589996338 2.0000000000 22.000000000 2275.0000000 1.0000000000
 1615.3750000 8.8979997635 9.2349996567 2.0000000000 22.000000000 2275.0000000 1.0000000000
 1615.5000000 8.7829999924 9.1289997101 2.0000000000 22.000000000 2275.0000000 1.0000000000
 1615.6250000 9.2209997177 9.3409996033 2.0000000000 22.000000000 2275.0000000 1.0000000000
 1615.7500000 12.151000023 9.4040002823 2.0000000000 22.000000000 2275.0000000 1.0000000000
 1615.8750000 17.926000595 9.4949998856 2.0000000000 22.000000000 2275.0000000 1.0000000000
 1616.0000000 18.312000275 9.6219997406 2.0000000000 22.000000000 2275.0000000 1.0000000000
 1616.1250000 18.621000290 9.7370004654 2.0000000000 22.000000000 2275.0000000 1.0000000000
 1616.2500000 18.767000198 9.8509998322 2.0000000000 22.000000000 2275.0000000 1.0000000000
 1616.3750000 18.701999664 9.9130001068 2.0000000000 22.000000000 2275.0000000 1.0000000000
 1616.5000000 18.285999298 9.9750003815 2.0000000000 22.000000000 2275.0000000 1.0000000000
 1616.6250000 17.957000732 10.032999992 2.0000000000 22.000000000 2275.0000000 1.0000000000
 1616.7500000 17.697999954 10.090000153 2.0000000000 22.000000000 2275.0000000 1.0000000000
 1616.8750000 17.577999115 10.180000305 2.0000000000 22.000000000 2275.0000000 1.0000000000
 1617.0000000 17.493999481 10.305000305 2.0000000000 22.000000000 2275.0000000 1.0000000000
 1617.1250000 17.444999695 10.484000206  -999.250000 0.1000000015 0.1000000015 0.0000000000
 1617.2500000 17.315000534 10.670000076  -999.250000 0.1000000015 0.1000000015 0.0000000000
 1617.3750000 17.106000900 10.857999802  -999.250000 0.1000000015 0.1000000015 0.0000000000
 1617.5000000 16.955999374 11.093000412  -999.250000 0.1000000015 0.1000000015 0.0000000000
 1617.6250000 16.805999756 11.274999619 4.0000000000 24.000000000 3166.0000000 1.0000000000
 1617.7500000 16.847000122 11.461999893 4.0000000000 24.000000000 3166.0000000 1.0000000000
 1617.8750000 16.888999939 11.623000145 4.0000000000 24.000000000 3166.0000000 1.0000000000
 1618.0000000 16.993999481 11.805000305 4.0000000000 24.000000000 3166.0000000 1.0000000000
 1618.1250000 17.016000748 12.043000221 4.0000000000 24.000000000 3166.0000000 1.0000000000
 1618.2500000 16.781000137 12.309000015 4.0000000000 24.000000000 3166.0000000 1.0000000000
 1618.3750000 16.570999146 12.432999611 4.0000000000 24.000000000 3166.0000000 1.0000000000
 1618.5000000 16.173999786 12.657999992 4.0000000000 24.000000000 3166.0000000 1.0000000000
 1618.6250000 15.571999550 12.819999695 4.0000000000 24.000000000 3166.0000000 1.0000000000
 1618.7500000 15.461000443 12.918000221 4.0000000000 24.000000000 3166.0000000 1.0000000000
 1618.8750000 15.661000252 13.048999786 4.0000000000 24.000000000 3166.0000000 1.0000000000
 1619.0000000 15.829000473 13.057000160 4.0000000000 24.000000000 3166.0000000 1.0000000000
 1619.1250000 15.996999741 13.060000420 4.0000000000 24.000000000 3166.0000000 1.0000000000
 1619.2500000 15.772999763 12.887999535 4.0000000000 24.000000000 3166.0000000 1.0000000000
 1619.3750000 12.538999557 12.843000412 4.0000000000 24.000000000 3166.0000000 1.0000000000
 1619.5000000 10.946000099 12.670000076 4.0000000000 24.000000000 3166.0000000 1.0000000000
 1619.6250000 9.3540000916 12.423000336 4.0000000000 24.000000000 3166.0000000 1.0000000000
 1619.7500000 8.9569997787 12.147999763 4.0000000000 24.000000000 3166.0000000 1.0000000000
 1619.8750000 8.6389999390 11.873000145 4.0000000000 24.000000000 3166.0000000 1.0000000000
 1620.0000000 8.3640003204 11.597000122 4.0000000000 24.000000000 3166.0000000 1.0000000000
 1620.1250000 8.4440002441 11.321000099 4.0000000000 24.000000000 3166.0000000 1.0000000000
 1620.2500000 8.6890001297 11.045000076 4.0000000000 24.000000000 3166.0000000 1.0000000000
 1620.3750000 9.5640001297 10.838000298 4.0000000000 24.000000000 3166.0000000 1.0000000000
 1620.5000000 16.108999252 10.670000076 4.0000000000 24.000000000 3166.0000000 1.0000000000
 1620.6250000 19.045999527 10.522000313 4.0000000000 24.000000000 3166.0000000 1.0000000000
 1620.7500000 24.625999451 10.274000168 4.0000000000 24.000000000 3166.0000000 1.0000000000
 1620.8750000 26.364999771 10.107000351 4.0000000000 24.000000000 3166.0000000 1.0000000000
 1621.0000000 27.184000015 9.9399995804 4.0000000000 24.000000000 3166.0000000 1.0000000000
 1621.1250000 27.395000458 9.8280000687 4.0000000000 24.000000000 3166.0000000 1.0000000000
 1621.2500000 26.951999664 9.7159996033 4.0000000000 24.000000000 3166.0000000 1.0000000000
 1621.3750000 26.486999512 9.8450002670 4.0000000000 24.000000000 3166.0000000 1.0000000000
 1621.5000000 23.999000549 9.9530000687 4.0000000000 24.000000000 3166.0000000 1.0000000000
 1621.6250000 22.537000656 10.142999649 4.0000000000 24.000000000 3166.0000000 1.0000000000
 1621.7500000 21.577999115 10.381999969 4.0000000000 24.000000000 3166.0000000 1.0000000000
