# LAS format log file from PETREL
# Project units are specified as depth units
#==================================================================
~Version information
VERS.   2.0:
WRAP.   NO:
#==================================================================
~Well
STRT .m      1510.0000000 :
STOP .m      1750.0000000 :
STEP .m     0.12500000 :
NULL .        -999.250000 :
COMP.           : COMPANY
WELL.  5-0165C   : WELL
FLD.            : FIELD
LOC.            : LOCATION
SRVC.           : SERVICE COMPANY
DATE.  2020-03-08 09:25:09   : Log Export Date {yyyy-MM-dd HH:mm:ss}
PROV.           : PROVINCE
UWI.      : UNIQUE WELL ID
API.            : API NUMBER
#==================================================================
~Curve
DEPT .m                   : DEPTH
RT .ohm.m                 : RT
SP .                      : SP
Fluids .                  : Fluids
POR .m3/m3                : POR
PERM .mD                  : PERM
Lith .                    : Lith
~Parameter
#==================================================================
~Ascii
# ...
 1705.7500000 16.312000275 18.989999771 4.0000000000 22.000000000 2342.0000000 1.0000000000
 1705.8750000 16.943000793 18.778999329 4.0000000000 22.000000000 2342.0000000 1.0000000000
 1706.0000000 20.660999298 18.507999420 4.0000000000 22.000000000 2342.0000000 1.0000000000
 1706.1250000 23.493000031 18.226999283 4.0000000000 22.000000000 2342.0000000 1.0000000000
 1706.2500000 28.944999695 18.079999924 4.0000000000 22.000000000 2342.0000000 1.0000000000
 1706.3750000 29.754999161 18.062999725 4.0000000000 22.000000000 2342.0000000 1.0000000000
 1706.5000000 30.395000458 18.131000519 4.0000000000 22.000000000 2342.0000000 1.0000000000
 1706.6250000 30.923999786 18.264999390 4.0000000000 22.000000000 2342.0000000 1.0000000000
 1706.7500000 31.295999527 18.295999527 4.0000000000 22.000000000 2342.0000000 1.0000000000
 1706.8750000 31.250000000 18.197000504 4.0000000000 22.000000000 2342.0000000 1.0000000000
 1707.0000000 30.768999100 18.111999512 4.0000000000 22.000000000 2342.0000000 1.0000000000
 1707.1250000 29.829000473 18.069999695 4.0000000000 22.000000000 2342.0000000 1.0000000000
 1707.2500000 27.794000626 18.059999466 4.0000000000 22.000000000 2342.0000000 1.0000000000
 1707.3750000 18.205999374 18.089000702 4.0000000000 22.000000000 2342.0000000 1.0000000000
 1707.5000000 15.447999954 18.127000809 4.0000000000 22.000000000 2342.0000000 1.0000000000
 1707.6250000 17.820999146 18.173999786 4.0000000000 22.000000000 2342.0000000 1.0000000000
 1707.7500000 22.322999954 18.117000580 4.0000000000 22.000000000 2342.0000000 1.0000000000
 1707.8750000 23.916999817 18.055999756 4.0000000000 22.000000000 2342.0000000 1.0000000000
 1708.0000000 24.461999893 17.951000214 4.0000000000 22.000000000 2342.0000000 1.0000000000
 1708.1250000 24.867000580 17.885000229 4.0000000000 22.000000000 2342.0000000 1.0000000000
 1708.2500000 21.172000885 17.822000504 4.0000000000 22.000000000 2342.0000000 1.0000000000
 1708.3750000 21.313999176 17.874000549 4.0000000000 22.000000000 2342.0000000 1.0000000000
 1708.5000000 21.908000946 17.923999786 4.0000000000 22.000000000 2342.0000000 1.0000000000
 1708.6250000 22.346000671 18.020999908 4.0000000000 22.000000000 2342.0000000 1.0000000000
 1708.7500000 22.665000916 18.083999634 4.0000000000 22.000000000 2342.0000000 1.0000000000
 1708.8750000 22.611000061 18.031000137 4.0000000000 22.000000000 2342.0000000 1.0000000000
 1709.0000000 22.333999634 17.874000549 4.0000000000 22.000000000 2342.0000000 1.0000000000
 1709.1250000 21.809000015 17.667999268 4.0000000000 22.000000000 2342.0000000 1.0000000000
 1709.2500000 20.465999603 17.527000427 4.0000000000 22.000000000 2342.0000000 1.0000000000
 1709.3750000 19.969999313 17.299999237 4.0000000000 22.000000000 2342.0000000 1.0000000000
 1709.5000000 19.947999954 17.099000931 4.0000000000 22.000000000 2342.0000000 1.0000000000
 1709.6250000 19.805000305 17.093999863 4.0000000000 22.000000000 2342.0000000 1.0000000000
 1709.7500000 19.253000259 17.174999237 4.0000000000 22.000000000 2342.0000000 1.0000000000
 1709.8750000 17.794000626 17.236000061 4.0000000000 22.000000000 2342.0000000 1.0000000000
 1710.0000000 27.061000824 17.312999725 4.0000000000 22.000000000 2342.0000000 1.0000000000
 1710.1250000 29.868000031 17.393999100 4.0000000000 22.000000000 2342.0000000 1.0000000000
 1710.2500000 31.093000412 17.507999420 4.0000000000 22.000000000 2342.0000000 1.0000000000
 1710.3750000 32.104000092 17.704000473 4.0000000000 22.000000000 2342.0000000 1.0000000000
 1710.5000000 32.673000336 17.899999619 4.0000000000 22.000000000 2342.0000000 1.0000000000
 1710.6250000 33.207000732 18.169000626 4.0000000000 22.000000000 2342.0000000 1.0000000000
 1710.7500000 31.402000427 18.669000626 4.0000000000 22.000000000 2342.0000000 1.0000000000
 1710.8750000 15.244000435 19.198999405 4.0000000000 22.000000000 2342.0000000 1.0000000000
 1711.0000000 12.050000191 19.466999054 4.0000000000 22.000000000 2342.0000000 1.0000000000
 1711.1250000 11.581999779 19.600999832 4.0000000000 22.000000000 2342.0000000 1.0000000000
 1711.2500000 11.760000229 19.611000061 4.0000000000 22.000000000 2342.0000000 1.0000000000
 1711.3750000 12.470000267 19.583999634 4.0000000000 22.000000000 2342.0000000 1.0000000000
 1711.5000000 13.564000130 19.573999405 4.0000000000 22.000000000 2342.0000000 1.0000000000
 1711.6250000 14.253999710 19.603000641 4.0000000000 22.000000000 2342.0000000 1.0000000000
 1711.7500000 14.744000435 19.683000565 4.0000000000 22.000000000 2342.0000000 1.0000000000
 1711.8750000 15.013999939 19.716999054 4.0000000000 22.000000000 2342.0000000 1.0000000000
 1712.0000000 15.250000000 19.767999649 4.0000000000 22.000000000 2342.0000000 1.0000000000
 1712.1250000 15.852000237 19.829000473 4.0000000000 22.000000000 2342.0000000 1.0000000000
 1712.2500000 16.850000381 19.895999908 4.0000000000 22.000000000 2342.0000000 1.0000000000
 1712.3750000 20.181999207 20.013999939 4.0000000000 22.000000000 2342.0000000 1.0000000000
 1712.5000000 26.284000397 20.187999725 4.0000000000 22.000000000 2342.0000000 1.0000000000
 1712.6250000 30.454000473 20.489999771 4.0000000000 22.000000000 2342.0000000 1.0000000000
 1712.7500000 32.230998993 20.972000122 4.0000000000 22.000000000 2342.0000000 1.0000000000
 1712.8750000 33.152000427 21.385000229 4.0000000000 22.000000000 2342.0000000 1.0000000000
 1713.0000000 32.800998688 21.839000702 4.0000000000 22.000000000 2342.0000000 1.0000000000
 1713.1250000 31.208000183 22.254999161 4.0000000000 22.000000000 2342.0000000 1.0000000000
 1713.2500000 16.302000046 22.645000458 4.0000000000 22.000000000 2342.0000000 1.0000000000
 1713.3750000 12.965000153 23.037000656 4.0000000000 22.000000000 2342.0000000 1.0000000000
 1713.5000000 11.975999832 23.516000748 4.0000000000 22.000000000 2342.0000000 1.0000000000
 1713.6250000 11.538000107 24.642999649 4.0000000000 22.000000000 2342.0000000 1.0000000000
 1713.7500000 16.813999176 25.023000717 4.0000000000 22.000000000 2342.0000000 1.0000000000
 1713.8750000 19.121000290 25.158000946 4.0000000000 22.000000000 2342.0000000 1.0000000000
 1714.0000000 20.684000015 25.313999176 4.0000000000 22.000000000 2342.0000000 1.0000000000
 1714.1250000 21.569000244 25.429000854 4.0000000000 22.000000000 2342.0000000 1.0000000000
 1714.2500000 21.877000809 25.565999985 4.0000000000 22.000000000 2342.0000000 1.0000000000
 1714.3750000 20.995000839 25.638999939 4.0000000000 22.000000000 2342.0000000 1.0000000000
 1714.5000000 19.194000244 25.617000580 4.0000000000 22.000000000 2342.0000000 1.0000000000
 1714.6250000 16.482999802 25.524000168 4.0000000000 22.000000000 2342.0000000 1.0000000000
 1714.7500000 15.527000427 25.360000610 4.0000000000 22.000000000 2342.0000000 1.0000000000
 1714.8750000 15.027000427 25.094999313 4.0000000000 22.000000000 2342.0000000 1.0000000000
 1715.0000000 14.524000168 24.877000809 4.0000000000 22.000000000 2342.0000000 1.0000000000
 1715.1250000 13.779999733 24.636999130 4.0000000000 22.000000000 2342.0000000 1.0000000000
 1715.2500000 13.244000435 24.423999786 4.0000000000 22.000000000 2342.0000000 1.0000000000
 1715.3750000 12.890000343 24.183000565 4.0000000000 22.000000000 2342.0000000 1.0000000000
 1715.5000000 12.857999802 23.940000534 4.0000000000 22.000000000 2342.0000000 1.0000000000
 1715.6250000 13.031000137 23.733999252 4.0000000000 22.000000000 2342.0000000 1.0000000000
 1715.7500000 20.676000595 23.548000336 4.0000000000 22.000000000 2342.0000000 1.0000000000
 1715.8750000 22.767000198 23.409000397 4.0000000000 22.000000000 2342.0000000 1.0000000000
 1716.0000000 23.187999725 23.334999084 4.0000000000 22.000000000 2342.0000000 1.0000000000
 1716.1250000 23.073999405 23.361999512 4.0000000000 22.000000000 2342.0000000 1.0000000000
 1716.2500000 22.788000107 23.589000702 4.0000000000 22.000000000 2342.0000000 1.0000000000
 1716.3750000 22.365999222 23.945999146 4.0000000000 22.000000000 2342.0000000 1.0000000000
 1716.5000000 21.684999466 24.386999130 4.0000000000 22.000000000 2342.0000000 1.0000000000
