# LAS format log file from PETREL
# Project units are specified as depth units
#==================================================================
~Version information
VERS.   2.0:
WRAP.   NO:
#==================================================================
~Well
STRT .m      1338.0000000 :
STOP .m      1710.0000000 :
STEP .m     0.12500000 :
NULL .        -999.250000 :
COMP.           : COMPANY
WELL.  5-0162C2   : WELL
FLD.            : FIELD
LOC.            : LOCATION
SRVC.           : SERVICE COMPANY
DATE.  2020-03-08 09:25:09   : Log Export Date {yyyy-MM-dd HH:mm:ss}
PROV.           : PROVINCE
UWI.      : UNIQUE WELL ID
API.            : API NUMBER
#==================================================================
~Curve
DEPT .m                   : DEPTH
RT .ohm.m                 : RT
SP .                      : SP
Fluids .                  : Fluids
POR .m3/m3                : POR
PERM .mD                  : PERM
Lith .                    : Lith
~Parameter
#==================================================================
~Ascii
# ...
 1675.1250000 4.6100001335 -46.45000076  -999.250000 0.1000000015 0.1000000015 0.0000000000
 1675.2500000 4.0700001717 -45.88999939  -999.250000 0.1000000015 0.1000000015 0.0000000000
 1675.3750000 3.9100000858 -45.61000061  -999.250000 0.1000000015 0.1000000015 0.0000000000
 1675.5000000 4.0999999046 -45.58000183  -999.250000 0.1000000015 0.1000000015 0.0000000000
 1675.6250000 4.7300000191 -45.68999863  -999.250000 0.1000000015 0.1000000015 0.0000000000
 1675.7500000 5.8600001335 -45.83000183  -999.250000 0.1000000015 0.1000000015 0.0000000000
 1675.8750000 7.1799998283 -45.97000122  -999.250000 0.1000000015 0.1000000015 0.0000000000
 1676.0000000 7.8699998856 -46.08000183  -999.250000 0.1000000015 0.1000000015 0.0000000000
 1676.1250000 7.5500001907 -46.13999939  -999.250000 0.1000000015 0.1000000015 0.0000000000
 1676.2500000 6.4299998283 -46.11999893  -999.250000 0.1000000015 0.1000000015 0.0000000000
 1676.3750000 5.1799998283 -46.04999924  -999.250000 0.1000000015 0.1000000015 0.0000000000
 1676.5000000 4.2399997711 -46.06000137  -999.250000 0.1000000015 0.1000000015 0.0000000000
 1676.6250000 3.7599999905 -46.25000000  -999.250000 0.1000000015 0.1000000015 0.0000000000
 1676.7500000 3.8099999428 -46.63000107  -999.250000 0.1000000015 0.1000000015 0.0000000000
 1676.8750000 4.4499998093 -47.18999863  -999.250000 0.1000000015 0.1000000015 0.0000000000
 1677.0000000 5.8499999046 -47.90999985  -999.250000 0.1000000015 0.1000000015 0.0000000000
 1677.1250000 8.3100004196 -48.74000168  -999.250000 0.1000000015 0.1000000015 0.0000000000
 1677.2500000 11.609999657 -49.61000061 3.0000000000 17.000000000 193.00000000 1.0000000000
 1677.3750000 14.640000343 -50.38999939 3.0000000000 17.000000000 193.00000000 1.0000000000
 1677.5000000 15.819999695 -51.00999832 3.0000000000 17.000000000 193.00000000 1.0000000000
 1677.6250000 14.649999619 -51.45999908 3.0000000000 17.000000000 193.00000000 1.0000000000
 1677.7500000 11.989999771 -51.79000092 3.0000000000 17.000000000 193.00000000 1.0000000000
 1677.8750000 9.4600000381 -52.08000183 3.0000000000 17.000000000 193.00000000 1.0000000000
 1678.0000000 7.8400001526 -52.34999847  -999.250000 0.1000000015 0.1000000015 0.0000000000
 1678.1250000 7.2399997711 -52.65000153  -999.250000 0.1000000015 0.1000000015 0.0000000000
 1678.2500000 7.4400000572 -53.00999832  -999.250000 0.1000000015 0.1000000015 0.0000000000
 1678.3750000 8.3000001907 -53.49000168  -999.250000 0.1000000015 0.1000000015 0.0000000000
 1678.5000000 9.5299997330 -54.09999847 3.0000000000 19.000000000 261.00000000 1.0000000000
 1678.6250000 10.810000420 -54.75999832 3.0000000000 19.000000000 261.00000000 1.0000000000
 1678.7500000 12.109999657 -55.38999939 3.0000000000 19.000000000 261.00000000 1.0000000000
 1678.8750000 13.359999657 -55.90000153 3.0000000000 19.000000000 261.00000000 1.0000000000
 1679.0000000 14.319999695 -56.25000000 3.0000000000 19.000000000 261.00000000 1.0000000000
 1679.1250000 14.779999733 -56.41999817 3.0000000000 19.000000000 261.00000000 1.0000000000
 1679.2500000 14.989999771 -56.38000107 3.0000000000 19.000000000 261.00000000 1.0000000000
 1679.3750000 15.229999542 -56.13000107 3.0000000000 19.000000000 261.00000000 1.0000000000
 1679.5000000 15.399999619 -55.66999817 3.0000000000 19.000000000 261.00000000 1.0000000000
 1679.6250000 15.109999657 -55.04999924 3.0000000000 19.000000000 261.00000000 1.0000000000
 1679.7500000 14.199999809 -54.29999924 3.0000000000 19.000000000 261.00000000 1.0000000000
 1679.8750000 12.960000038 -53.43000031 3.0000000000 19.000000000 261.00000000 1.0000000000
 1680.0000000 11.699999809 -52.47999954 3.0000000000 19.000000000 261.00000000 1.0000000000
 1680.1250000 10.350000381 -51.47000122 3.0000000000 19.000000000 261.00000000 1.0000000000
 1680.2500000 8.8599996567 -50.45999908  -999.250000 0.1000000015 0.1000000015 0.0000000000
 1680.3750000 7.4299998283 -49.56999969  -999.250000 0.1000000015 0.1000000015 0.0000000000
 1680.5000000 6.3800001144 -48.91999817  -999.250000 0.1000000015 0.1000000015 0.0000000000
 1680.6250000 5.7199997902 -48.59999847  -999.250000 0.1000000015 0.1000000015 0.0000000000
 1680.7500000 5.3899998665 -48.65000153  -999.250000 0.1000000015 0.1000000015 0.0000000000
 1680.8750000 5.5399999619 -49.09999847  -999.250000 0.1000000015 0.1000000015 0.0000000000
 1681.0000000 6.1700000763 -49.93000031  -999.250000 0.1000000015 0.1000000015 0.0000000000
 1681.1250000 7.1599998474 -51.08000183  -999.250000 0.1000000015 0.1000000015 0.0000000000
 1681.2500000 8.5200004578 -52.45000076  -999.250000 0.1000000015 0.1000000015 0.0000000000
 1681.3750000 10.359999657 -53.88999939  -999.250000 0.1000000015 0.1000000015 0.0000000000
 1681.5000000 12.619999886 -55.29999924 3.0000000000 16.000000000 132.00000000 1.0000000000
 1681.6250000 14.920000076 -56.59999847 3.0000000000 16.000000000 132.00000000 1.0000000000
 1681.7500000 16.899999619 -57.75000000 3.0000000000 16.000000000 132.00000000 1.0000000000
 1681.8750000 18.430000305 -58.74000168 3.0000000000 16.000000000 132.00000000 1.0000000000
 1682.0000000 19.479999542 -59.54999924 3.0000000000 16.000000000 132.00000000 1.0000000000
 1682.1250000 20.059999466 -60.20999908 3.0000000000 16.000000000 132.00000000 1.0000000000
 1682.2500000 20.309999466 -60.72000122 3.0000000000 16.000000000 132.00000000 1.0000000000
 1682.3750000 20.379999161 -61.09999847 3.0000000000 16.000000000 132.00000000 1.0000000000
 1682.5000000 20.409999847 -61.38000107 3.0000000000 16.000000000 132.00000000 1.0000000000
 1682.6250000 20.420000076 -61.56000137 3.0000000000 16.000000000 132.00000000 1.0000000000
 1682.7500000 20.409999847 -61.65999985 3.0000000000 16.000000000 132.00000000 1.0000000000
 1682.8750000 20.450000763 -61.68000031 3.0000000000 16.000000000 132.00000000 1.0000000000
 1683.0000000 20.620000839 -61.61000061 3.0000000000 16.000000000 132.00000000 1.0000000000
 1683.1250000 20.930000305 -61.45999908 3.0000000000 16.000000000 132.00000000 1.0000000000
 1683.2500000 21.319999695 -61.22000122 3.0000000000 16.000000000 132.00000000 1.0000000000
 1683.3750000 21.750000000 -60.88000107 3.0000000000 16.000000000 132.00000000 1.0000000000
 1683.5000000 22.059999466 -60.43999863 3.0000000000 16.000000000 132.00000000 1.0000000000
 1683.6250000 22.010000229 -59.86999893 3.0000000000 16.000000000 132.00000000 1.0000000000
 1683.7500000 21.629999161 -59.18000031 3.0000000000 16.000000000 132.00000000 1.0000000000
 1683.8750000 21.290000916 -58.36999893 3.0000000000 16.000000000 132.00000000 1.0000000000
 1684.0000000 21.149999619 -57.40999985 3.0000000000 16.000000000 132.00000000 1.0000000000
 1684.1250000 20.840000153 -56.31999969 3.0000000000 16.000000000 132.00000000 1.0000000000
 1684.2500000 19.670000076 -55.11999893 3.0000000000 16.000000000 132.00000000 1.0000000000
 1684.3750000 17.159999847 -53.86999893 3.0000000000 16.000000000 132.00000000 1.0000000000
 1684.5000000 13.539999962 -52.65999985 3.0000000000 16.000000000 132.00000000 1.0000000000
 1684.6250000 9.8100004196 -51.61999893 3.0000000000 16.000000000 132.00000000 1.0000000000
 1684.7500000 7.0300002098 -50.84000015  -999.250000 0.1000000015 0.1000000015 0.0000000000
 1684.8750000 5.6100001335 -50.43000031  -999.250000 0.1000000015 0.1000000015 0.0000000000
 1685.0000000 5.3099999428 -50.40000153  -999.250000 0.1000000015 0.1000000015 0.0000000000
 1685.1250000 5.8800001144 -50.72999954  -999.250000 0.1000000015 0.1000000015 0.0000000000
 1685.2500000 7.4000000954 -51.36000061  -999.250000 0.1000000015 0.1000000015 0.0000000000
 1685.3750000 9.9499998093 -52.15999985 3.0000000000 18.000000000 357.00000000 1.0000000000
 1685.5000000 13.119999886 -53.00999832 3.0000000000 18.000000000 357.00000000 1.0000000000
 1685.6250000 15.810000420 -53.77000046 3.0000000000 18.000000000 357.00000000 1.0000000000
 1685.7500000 16.930000305 -54.34999847 3.0000000000 18.000000000 357.00000000 1.0000000000
 1685.8750000 16.409999847 -54.74000168 3.0000000000 18.000000000 357.00000000 1.0000000000
