# LAS format log file from PETREL
# Project units are specified as depth units
#==================================================================
~Version information
VERS.   2.0:
WRAP.   NO:
#==================================================================
~Well
STRT .m      1510.0000000 :
STOP .m      1750.0000000 :
STEP .m     0.12500000 :
NULL .        -999.250000 :
COMP.           : COMPANY
WELL.  5-0165C   : WELL
FLD.            : FIELD
LOC.            : LOCATION
SRVC.           : SERVICE COMPANY
DATE.  2020-03-08 09:25:09   : Log Export Date {yyyy-MM-dd HH:mm:ss}
PROV.           : PROVINCE
UWI.      : UNIQUE WELL ID
API.            : API NUMBER
#==================================================================
~Curve
DEPT .m                   : DEPTH
RT .ohm.m                 : RT
SP .                      : SP
Fluids .                  : Fluids
POR .m3/m3                : POR
PERM .mD                  : PERM
Lith .                    : Lith
~Parameter
#==================================================================
~Ascii
# ...
 1575.2500000 10.062999725 24.051000595 4.0000000000 24.000000000 2684.0000000 1.0000000000
 1575.3750000 9.5670003891 23.895000458 4.0000000000 24.000000000 2684.0000000 1.0000000000
 1575.5000000 9.9589996338 23.724000931 3.0000000000 22.000000000 2352.0000000 1.0000000000
 1575.6250000 10.472000122 23.579000473 3.0000000000 22.000000000 2352.0000000 1.0000000000
 1575.7500000 11.244999886 23.454000473 3.0000000000 22.000000000 2352.0000000 1.0000000000
 1575.8750000 17.162000656 23.329000473 3.0000000000 22.000000000 2352.0000000 1.0000000000
 1576.0000000 19.959999084 23.261999130 3.0000000000 22.000000000 2352.0000000 1.0000000000
 1576.1250000 20.429000854 23.160999298 3.0000000000 22.000000000 2352.0000000 1.0000000000
 1576.2500000 20.356000900 23.087999344 3.0000000000 22.000000000 2352.0000000 1.0000000000
 1576.3750000 13.581999779 23.034000397 3.0000000000 22.000000000 2352.0000000 1.0000000000
 1576.5000000 11.668000221 22.972000122 3.0000000000 22.000000000 2352.0000000 1.0000000000
 1576.6250000 12.020000458 22.934999466 3.0000000000 22.000000000 2352.0000000 1.0000000000
 1576.7500000 12.694000244 22.968999863 3.0000000000 22.000000000 2352.0000000 1.0000000000
 1576.8750000 13.862000465 23.017000198 3.0000000000 22.000000000 2352.0000000 1.0000000000
 1577.0000000 16.096000671 23.091999054 3.0000000000 22.000000000 2352.0000000 1.0000000000
 1577.1250000 15.989999771 23.236999512 3.0000000000 22.000000000 2352.0000000 1.0000000000
 1577.2500000 15.446999550 23.562000275 3.0000000000 22.000000000 2352.0000000 1.0000000000
 1577.3750000 11.913999557 23.940999985 3.0000000000 22.000000000 2352.0000000 1.0000000000
 1577.5000000 6.2249999046 24.468999863  -999.250000 0.1000000015 0.1000000015 0.0000000000
 1577.6250000 4.5229997635 24.868000031  -999.250000 0.1000000015 0.1000000015 0.0000000000
 1577.7500000 4.6909999847 25.367000580  -999.250000 0.1000000015 0.1000000015 0.0000000000
 1577.8750000 4.9660000801 25.934000015  -999.250000 0.1000000015 0.1000000015 0.0000000000
 1578.0000000 5.2199997902 26.365999222  -999.250000 0.1000000015 0.1000000015 0.0000000000
 1578.1250000 5.3130002022 26.788000107  -999.250000 0.1000000015 0.1000000015 0.0000000000
 1578.2500000 4.2109999657 27.260000229  -999.250000 0.1000000015 0.1000000015 0.0000000000
 1578.3750000 3.4370000362 27.704000473  -999.250000 0.1000000015 0.1000000015 0.0000000000
 1578.5000000 3.2139999866 28.125000000  -999.250000 0.1000000015 0.1000000015 0.0000000000
 1578.6250000 3.1189999580 28.580999374  -999.250000 0.1000000015 0.1000000015 0.0000000000
 1578.7500000 3.0060000420 28.985000610  -999.250000 0.1000000015 0.1000000015 0.0000000000
 1578.8750000 2.8900001049 29.393999100  -999.250000 0.1000000015 0.1000000015 0.0000000000
 1579.0000000 2.7820000648 29.813999176  -999.250000 0.1000000015 0.1000000015 0.0000000000
 1579.1250000 2.6570000648 30.097000122  -999.250000 0.1000000015 0.1000000015 0.0000000000
 1579.2500000 2.4079999924 30.343000412  -999.250000 0.1000000015 0.1000000015 0.0000000000
 1579.3750000 2.4860000610 30.559000015  -999.250000 0.1000000015 0.1000000015 0.0000000000
 1579.5000000 2.8570001125 30.704000473  -999.250000 0.1000000015 0.1000000015 0.0000000000
 1579.6250000 3.3199999332 30.768999100  -999.250000 0.1000000015 0.1000000015 0.0000000000
 1579.7500000 3.8410000801 30.809999466  -999.250000 0.1000000015 0.1000000015 0.0000000000
 1579.8750000 3.8099999428 30.850999832  -999.250000 0.1000000015 0.1000000015 0.0000000000
 1580.0000000 3.9470000267 30.864000320  -999.250000 0.1000000015 0.1000000015 0.0000000000
 1580.1250000 4.1719999313 30.865999222  -999.250000 0.1000000015 0.1000000015 0.0000000000
 1580.2500000 5.1599998474 30.836000443  -999.250000 0.1000000015 0.1000000015 0.0000000000
 1580.3750000 6.0859999657 30.854000092 0.0000000000 10.000000000 33.000000000 1.0000000000
 1580.5000000 6.9450001717 30.864999771 0.0000000000 10.000000000 33.000000000 1.0000000000
 1580.6250000 7.5329999924 30.819000244 0.0000000000 10.000000000 33.000000000 1.0000000000
 1580.7500000 7.7610001564 30.771999359 0.0000000000 10.000000000 33.000000000 1.0000000000
 1580.8750000 7.8099999428 30.715999603 0.0000000000 10.000000000 33.000000000 1.0000000000
 1581.0000000 7.6890001297 30.666000366 0.0000000000 10.000000000 33.000000000 1.0000000000
 1581.1250000 7.4460000992 30.561000824 0.0000000000 10.000000000 33.000000000 1.0000000000
 1581.2500000 6.9939999580 30.466999054 0.0000000000 10.000000000 33.000000000 1.0000000000
 1581.3750000 6.0910000801 30.371000290 0.0000000000 10.000000000 33.000000000 1.0000000000
 1581.5000000 4.9910001755 30.284999847  -999.250000 0.1000000015 0.1000000015 0.0000000000
 1581.6250000 4.4299998283 30.190000534  -999.250000 0.1000000015 0.1000000015 0.0000000000
 1581.7500000 4.0679998398 30.215000153  -999.250000 0.1000000015 0.1000000015 0.0000000000
 1581.8750000 3.6370000839 30.302999496  -999.250000 0.1000000015 0.1000000015 0.0000000000
 1582.0000000 3.2980000973 30.424999237  -999.250000 0.1000000015 0.1000000015 0.0000000000
 1582.1250000 2.9879999161 30.635999680  -999.250000 0.1000000015 0.1000000015 0.0000000000
 1582.2500000 2.7590000629 30.940999985  -999.250000 0.1000000015 0.1000000015 0.0000000000
 1582.3750000 2.6640000343 31.295000076  -999.250000 0.1000000015 0.1000000015 0.0000000000
 1582.5000000 2.5729999542 31.642000198  -999.250000 0.1000000015 0.1000000015 0.0000000000
 1582.6250000 2.5520000458 31.920999527  -999.250000 0.1000000015 0.1000000015 0.0000000000
 1582.7500000 2.5460000038 32.178001404  -999.250000 0.1000000015 0.1000000015 0.0000000000
 1582.8750000 2.5429999828 32.375000000  -999.250000 0.1000000015 0.1000000015 0.0000000000
 1583.0000000 2.5420000553 32.534999847  -999.250000 0.1000000015 0.1000000015 0.0000000000
 1583.1250000 2.7079999447 32.652999878  -999.250000 0.1000000015 0.1000000015 0.0000000000
 1583.2500000 2.9909999371 32.756000519  -999.250000 0.1000000015 0.1000000015 0.0000000000
 1583.3750000 4.1350002289 32.832000732  -999.250000 0.1000000015 0.1000000015 0.0000000000
 1583.5000000 5.3899998665 32.861000061 0.0000000000 11.000000000 48.000000000 1.0000000000
 1583.6250000 6.4720001221 32.861000061 0.0000000000 11.000000000 48.000000000 1.0000000000
 1583.7500000 7.3740000725 32.498001099 0.0000000000 11.000000000 48.000000000 1.0000000000
 1583.8750000 7.5219998360 32.076999664 0.0000000000 11.000000000 48.000000000 1.0000000000
 1584.0000000 7.3870000839 31.665000916 0.0000000000 11.000000000 48.000000000 1.0000000000
 1584.1250000 5.3010001183 31.243999481 0.0000000000 11.000000000 48.000000000 1.0000000000
 1584.2500000 4.2940001488 30.731000900 0.0000000000 11.000000000 48.000000000 1.0000000000
 1584.3750000 3.7569999695 30.236999512  -999.250000 0.1000000015 0.1000000015 0.0000000000
 1584.5000000 3.4300000668 29.784000397  -999.250000 0.1000000015 0.1000000015 0.0000000000
 1584.6250000 3.5620000362 29.322999954  -999.250000 0.1000000015 0.1000000015 0.0000000000
 1584.7500000 4.1139998436 28.839000702  -999.250000 0.1000000015 0.1000000015 0.0000000000
 1584.8750000 6.3860001564 28.284000397 3.0000000000 15.000000000 283.00000000 1.0000000000
 1585.0000000 8.2049999237 27.850999832 3.0000000000 15.000000000 283.00000000 1.0000000000
 1585.1250000 10.012999535 27.438999176 3.0000000000 15.000000000 283.00000000 1.0000000000
 1585.2500000 11.098999977 27.028999329 3.0000000000 15.000000000 283.00000000 1.0000000000
 1585.3750000 11.800000191 26.618999481 3.0000000000 15.000000000 283.00000000 1.0000000000
 1585.5000000 11.675999641 26.232000351 3.0000000000 15.000000000 283.00000000 1.0000000000
 1585.6250000 11.133999825 25.861000061 3.0000000000 15.000000000 283.00000000 1.0000000000
 1585.7500000 10.406000137 25.462999344 3.0000000000 15.000000000 283.00000000 1.0000000000
 1585.8750000 4.6490001678 25.034999847 3.0000000000 15.000000000 283.00000000 1.0000000000
 1586.0000000 3.6419999599 24.634000778  -999.250000 0.1000000015 0.1000000015 0.0000000000
