# LAS format log file from PETREL
# Project units are specified as depth units
#==================================================================
~Version information
VERS.   2.0:
WRAP.   NO:
#==================================================================
~Well
STRT .m      745.00000000 :
STOP .m      1730.0000000 :
STEP .m     0.12500000 :
NULL .        -999.250000 :
COMP.           : COMPANY
WELL.  5-0158   : WELL
FLD.            : FIELD
LOC.            : LOCATION
SRVC.           : SERVICE COMPANY
DATE.  2020-03-08 09:25:08   : Log Export Date {yyyy-MM-dd HH:mm:ss}
PROV.           : PROVINCE
UWI.      : UNIQUE WELL ID
API.            : API NUMBER
#==================================================================
~Curve
DEPT .m                   : DEPTH
RT .ohm.m                 : RT
SP .                      : SP
Fluids .                  : Fluids
POR .m3/m3                : POR
PERM .mD                  : PERM
Lith .                    : Lith
~Parameter
#==================================================================
~Ascii
# ...
 1549.7500000 34.702999115 -9999.000000 4.0000000000 19.000000000 263.00000000 1.0000000000
 1549.8750000 33.818500519 -9999.000000 4.0000000000 19.000000000 263.00000000 1.0000000000
 1550.0000000 32.933998108 -9999.000000 4.0000000000 19.000000000 263.00000000 1.0000000000
 1550.1250000 32.481201172 -9999.000000 4.0000000000 19.000000000 263.00000000 1.0000000000
 1550.2500000 32.028499603 -9999.000000 4.0000000000 19.000000000 263.00000000 1.0000000000
 1550.3750000 31.575700760 -9999.000000 4.0000000000 19.000000000 263.00000000 1.0000000000
 1550.5000000 31.122999191 -9999.000000 4.0000000000 19.000000000 263.00000000 1.0000000000
 1550.6250000 29.597499847 -9999.000000 4.0000000000 19.000000000 263.00000000 1.0000000000
 1550.7500000 28.072000504 -9999.000000 4.0000000000 19.000000000 263.00000000 1.0000000000
 1550.8750000 26.546499252 -9999.000000 4.0000000000 19.000000000 263.00000000 1.0000000000
 1551.0000000 25.020999908 -9999.000000 4.0000000000 19.000000000 263.00000000 1.0000000000
 1551.1250000 21.288499832 -9999.000000 4.0000000000 19.000000000 263.00000000 1.0000000000
 1551.2500000 17.555999756 -9999.000000 4.0000000000 19.000000000 263.00000000 1.0000000000
 1551.3750000 13.823499680 -9999.000000 4.0000000000 19.000000000 263.00000000 1.0000000000
 1551.5000000 10.090999603 -9999.000000 4.0000000000 19.000000000 263.00000000 1.0000000000
 1551.6250000 9.8446998596 -9999.000000 4.0000000000 19.000000000 263.00000000 1.0000000000
 1551.7500000 9.5985002518 -9999.000000 4.0000000000 19.000000000 263.00000000 1.0000000000
 1551.8750000 9.3521995544 -9999.000000 4.0000000000 19.000000000 263.00000000 1.0000000000
 1552.0000000 9.1059999466 -9999.000000 4.0000000000 19.000000000 263.00000000 1.0000000000
 1552.1250000 14.785200119 -9999.000000 4.0000000000 19.000000000 263.00000000 1.0000000000
 1552.2500000 20.464500427 -9999.000000 4.0000000000 19.000000000 263.00000000 1.0000000000
 1552.3750000 26.143699646 -9999.000000 4.0000000000 19.000000000 263.00000000 1.0000000000
 1552.5000000 31.822999954 -9999.000000 4.0000000000 19.000000000 263.00000000 1.0000000000
 1552.6250000 27.548500061 -9999.000000  -999.250000 0.1000000015 0.1000000015 0.0000000000
 1552.7500000 23.274000168 -9999.000000  -999.250000 0.1000000015 0.1000000015 0.0000000000
 1552.8750000 18.999500275 -9999.000000  -999.250000 0.1000000015 0.1000000015 0.0000000000
 1553.0000000 14.725000381 -9999.000000  -999.250000 0.1000000015 0.1000000015 0.0000000000
 1553.1250000 12.326299667 -9999.000000  -999.250000 0.1000000015 0.1000000015 0.0000000000
 1553.2500000 9.9274997711 -9999.000000  -999.250000 0.1000000015 0.1000000015 0.0000000000
 1553.3750000 7.5288000107 -9999.000000 4.0000000000 14.000000000 119.00000000 1.0000000000
 1553.5000000 5.1300001144 -9999.000000 4.0000000000 14.000000000 119.00000000 1.0000000000
 1553.6250000 7.1328001022 -9999.000000 4.0000000000 14.000000000 119.00000000 1.0000000000
 1553.7500000 9.1354999542 -9999.000000 4.0000000000 14.000000000 119.00000000 1.0000000000
 1553.8750000 11.138199806 -9999.000000 4.0000000000 14.000000000 119.00000000 1.0000000000
 1554.0000000 13.140999794 -9999.000000 4.0000000000 14.000000000 119.00000000 1.0000000000
 1554.1250000 16.650699615 -9999.000000 4.0000000000 14.000000000 119.00000000 1.0000000000
 1554.2500000 20.160499573 -9999.000000 4.0000000000 14.000000000 119.00000000 1.0000000000
 1554.3750000 23.670299530 -9999.000000 4.0000000000 14.000000000 119.00000000 1.0000000000
 1554.5000000 27.180000305 -9999.000000  -999.250000 0.1000000015 0.1000000015 0.0000000000
 1554.6250000 27.315999985 -9999.000000  -999.250000 0.1000000015 0.1000000015 0.0000000000
 1554.7500000 27.451999664 -9999.000000  -999.250000 0.1000000015 0.1000000015 0.0000000000
 1554.8750000 27.587999344 -9999.000000  -999.250000 0.1000000015 0.1000000015 0.0000000000
 1555.0000000 27.724000931 -9999.000000  -999.250000 0.1000000015 0.1000000015 0.0000000000
 1555.1250000 24.559799194 -9999.000000  -999.250000 0.1000000015 0.1000000015 0.0000000000
 1555.2500000 21.395500183 -9999.000000  -999.250000 0.1000000015 0.1000000015 0.0000000000
 1555.3750000 18.231300354 -9999.000000 4.0000000000 22.000000000 490.00000000 1.0000000000
 1555.5000000 15.067000389 -9999.000000 4.0000000000 22.000000000 490.00000000 1.0000000000
 1555.6250000 14.373000145 -9999.000000 4.0000000000 22.000000000 490.00000000 1.0000000000
 1555.7500000 13.678999901 -9999.000000 4.0000000000 22.000000000 490.00000000 1.0000000000
 1555.8750000 12.984999657 -9999.000000 4.0000000000 22.000000000 490.00000000 1.0000000000
 1556.0000000 12.291000366 -9999.000000 4.0000000000 22.000000000 490.00000000 1.0000000000
 1556.1250000 14.501500130 -9999.000000 4.0000000000 22.000000000 490.00000000 1.0000000000
 1556.2500000 16.711999893 -9999.000000 4.0000000000 22.000000000 490.00000000 1.0000000000
 1556.3750000 18.922500610 -9999.000000 4.0000000000 22.000000000 490.00000000 1.0000000000
 1556.5000000 21.132999420 -9999.000000 4.0000000000 22.000000000 490.00000000 1.0000000000
 1556.6250000 24.138700485 -9999.000000 4.0000000000 22.000000000 490.00000000 1.0000000000
 1556.7500000 27.144500732 -9999.000000 4.0000000000 22.000000000 490.00000000 1.0000000000
 1556.8750000 30.150199890 -9999.000000  -999.250000 0.1000000015 0.1000000015 0.0000000000
 1557.0000000 33.155998230 -9999.000000  -999.250000 0.1000000015 0.1000000015 0.0000000000
 1557.1250000 32.605201721 -9999.000000  -999.250000 0.1000000015 0.1000000015 0.0000000000
 1557.2500000 32.054500580 -9999.000000  -999.250000 0.1000000015 0.1000000015 0.0000000000
 1557.3750000 31.503700256 -9999.000000  -999.250000 0.1000000015 0.1000000015 0.0000000000
 1557.5000000 30.952999115 -9999.000000 4.0000000000 21.000000000 450.00000000 1.0000000000
 1557.6250000 29.732700348 -9999.000000 4.0000000000 21.000000000 450.00000000 1.0000000000
 1557.7500000 28.512500763 -9999.000000 4.0000000000 21.000000000 450.00000000 1.0000000000
 1557.8750000 27.292299271 -9999.000000 4.0000000000 21.000000000 450.00000000 1.0000000000
 1558.0000000 26.072000504 -9999.000000 4.0000000000 21.000000000 450.00000000 1.0000000000
 1558.1250000 29.595800400 -9999.000000 4.0000000000 21.000000000 450.00000000 1.0000000000
 1558.2500000 33.119499207 -9999.000000 4.0000000000 21.000000000 450.00000000 1.0000000000
 1558.3750000 36.643199921 -9999.000000 4.0000000000 21.000000000 450.00000000 1.0000000000
 1558.5000000 40.166999817 -9999.000000 4.0000000000 21.000000000 450.00000000 1.0000000000
 1558.6250000 40.626701355 -9999.000000 4.0000000000 21.000000000 450.00000000 1.0000000000
 1558.7500000 41.086498260 -9999.000000 4.0000000000 21.000000000 450.00000000 1.0000000000
 1558.8750000 41.546298981 -9999.000000 4.0000000000 21.000000000 450.00000000 1.0000000000
 1559.0000000 42.006000519 -9999.000000 4.0000000000 21.000000000 450.00000000 1.0000000000
 1559.1250000 38.764801025 -9999.000000 4.0000000000 21.000000000 450.00000000 1.0000000000
 1559.2500000 35.523498535 -9999.000000 4.0000000000 21.000000000 450.00000000 1.0000000000
 1559.3750000 32.282299042 -9999.000000 4.0000000000 21.000000000 450.00000000 1.0000000000
 1559.5000000 29.041000366 -9999.000000 4.0000000000 21.000000000 450.00000000 1.0000000000
 1559.6250000 26.139999390 -9999.000000 4.0000000000 21.000000000 450.00000000 1.0000000000
 1559.7500000 23.239000320 -9999.000000 4.0000000000 21.000000000 450.00000000 1.0000000000
 1559.8750000 20.337999344 -9999.000000 4.0000000000 21.000000000 450.00000000 1.0000000000
 1560.0000000 17.437000275 -9999.000000 4.0000000000 21.000000000 450.00000000 1.0000000000
 1560.1250000 18.436000824 -9999.000000 4.0000000000 21.000000000 450.00000000 1.0000000000
 1560.2500000 19.434999466 -9999.000000 4.0000000000 21.000000000 450.00000000 1.0000000000
 1560.3750000 20.434000015 -9999.000000 4.0000000000 21.000000000 450.00000000 1.0000000000
 1560.5000000 21.433000565 -9999.000000 4.0000000000 21.000000000 450.00000000 1.0000000000
