# LAS format log file from PETREL
# Project units are specified as depth units
#==================================================================
~Version information
VERS.   2.0:
WRAP.   NO:
#==================================================================
~Well
STRT .m      730.00000000 :
STOP .m      1729.5000000 :
STEP .m     0.12500000 :
NULL .        -999.250000 :
COMP.           : COMPANY
WELL.  5-0163   : WELL
FLD.            : FIELD
LOC.            : LOCATION
SRVC.           : SERVICE COMPANY
DATE.  2020-03-08 09:25:09   : Log Export Date {yyyy-MM-dd HH:mm:ss}
PROV.           : PROVINCE
UWI.      : UNIQUE WELL ID
API.            : API NUMBER
#==================================================================
~Curve
DEPT .m                   : DEPTH
RT .ohm.m                 : RT
SP .                      : SP
Fluids .                  : Fluids
POR .m3/m3                : POR
PERM .mD                  : PERM
Lith .                    : Lith
~Parameter
#==================================================================
~Ascii
# ...
 1567.3750000 28.538000107 -9999.000000 4.0000000000 20.000000000 333.00000000 1.0000000000
 1567.5000000 31.950000763 -9999.000000 4.0000000000 20.000000000 333.00000000 1.0000000000
 1567.6250000 29.172300339 -9999.000000 4.0000000000 20.000000000 333.00000000 1.0000000000
 1567.7500000 26.394500732 -9999.000000 4.0000000000 20.000000000 333.00000000 1.0000000000
 1567.8750000 23.616800308 -9999.000000 4.0000000000 20.000000000 333.00000000 1.0000000000
 1568.0000000 20.839000702 -9999.000000 4.0000000000 20.000000000 333.00000000 1.0000000000
 1568.1250000 19.013799667 -9999.000000 4.0000000000 20.000000000 333.00000000 1.0000000000
 1568.2500000 17.188499451 -9999.000000 4.0000000000 20.000000000 333.00000000 1.0000000000
 1568.3750000 15.363300323 -9999.000000 4.0000000000 20.000000000 333.00000000 1.0000000000
 1568.5000000 13.538000107 -9999.000000 4.0000000000 20.000000000 333.00000000 1.0000000000
 1568.6250000 20.191799164 -9999.000000 4.0000000000 20.000000000 333.00000000 1.0000000000
 1568.7500000 26.845500946 -9999.000000 4.0000000000 20.000000000 333.00000000 1.0000000000
 1568.8750000 33.499198914 -9999.000000 4.0000000000 20.000000000 333.00000000 1.0000000000
 1569.0000000 40.152999878 -9999.000000 4.0000000000 20.000000000 333.00000000 1.0000000000
 1569.1250000 44.421501160 -9999.000000 4.0000000000 20.000000000 333.00000000 1.0000000000
 1569.2500000 48.689998627 -9999.000000 4.0000000000 20.000000000 333.00000000 1.0000000000
 1569.3750000 52.958499908 -9999.000000 4.0000000000 20.000000000 333.00000000 1.0000000000
 1569.5000000 57.227001190 -9999.000000 4.0000000000 20.000000000 333.00000000 1.0000000000
 1569.6250000 46.690498352 -9999.000000 4.0000000000 20.000000000 333.00000000 1.0000000000
 1569.7500000 36.153999329 -9999.000000 4.0000000000 20.000000000 333.00000000 1.0000000000
 1569.8750000 25.617500305 -9999.000000 4.0000000000 20.000000000 333.00000000 1.0000000000
 1570.0000000 15.081000328 -9999.000000  -999.250000 0.1000000015 0.1000000015 0.0000000000
 1570.1250000 13.420000076 -9999.000000  -999.250000 0.1000000015 0.1000000015 0.0000000000
 1570.2500000 11.758999825 -9999.000000  -999.250000 0.1000000015 0.1000000015 0.0000000000
 1570.3750000 10.097999573 -9999.000000  -999.250000 0.1000000015 0.1000000015 0.0000000000
 1570.5000000 8.4370002747 -9999.000000 3.0000000000 17.000000000 207.00000000 1.0000000000
 1570.6250000 12.125800133 -9999.000000 3.0000000000 17.000000000 207.00000000 1.0000000000
 1570.7500000 15.814499855 -9999.000000 3.0000000000 17.000000000 207.00000000 1.0000000000
 1570.8750000 19.503200531 -9999.000000 3.0000000000 17.000000000 207.00000000 1.0000000000
 1571.0000000 23.191999435 -9999.000000 3.0000000000 17.000000000 207.00000000 1.0000000000
 1571.1250000 19.086700439 -9999.000000 3.0000000000 17.000000000 207.00000000 1.0000000000
 1571.2500000 14.981499672 -9999.000000 3.0000000000 17.000000000 207.00000000 1.0000000000
 1571.3750000 10.876199722 -9999.000000  -999.250000 0.1000000015 0.1000000015 0.0000000000
 1571.5000000 6.7709999084 -9999.000000  -999.250000 0.1000000015 0.1000000015 0.0000000000
 1571.6250000 6.2395000458 -9999.000000  -999.250000 0.1000000015 0.1000000015 0.0000000000
 1571.7500000 5.7080001831 -9999.000000  -999.250000 0.1000000015 0.1000000015 0.0000000000
 1571.8750000 5.1764998436 -9999.000000  -999.250000 0.1000000015 0.1000000015 0.0000000000
 1572.0000000 4.6449999809 -9999.000000  -999.250000 0.1000000015 0.1000000015 0.0000000000
 1572.1250000 5.8645000458 -9999.000000  -999.250000 0.1000000015 0.1000000015 0.0000000000
 1572.2500000 7.0840001106 -9999.000000  -999.250000 0.1000000015 0.1000000015 0.0000000000
 1572.3750000 8.3035001755 -9999.000000  -999.250000 0.1000000015 0.1000000015 0.0000000000
 1572.5000000 9.5229997635 -9999.000000  -999.250000 0.1000000015 0.1000000015 0.0000000000
 1572.6250000 8.1097002029 -9999.000000  -999.250000 0.1000000015 0.1000000015 0.0000000000
 1572.7500000 6.6964998245 -9999.000000  -999.250000 0.1000000015 0.1000000015 0.0000000000
 1572.8750000 5.2831997871 -9999.000000  -999.250000 0.1000000015 0.1000000015 0.0000000000
 1573.0000000 3.8699998856 -9999.000000  -999.250000 0.1000000015 0.1000000015 0.0000000000
 1573.1250000 4.1259999275 -9999.000000  -999.250000 0.1000000015 0.1000000015 0.0000000000
 1573.2500000 4.3819999695 -9999.000000  -999.250000 0.1000000015 0.1000000015 0.0000000000
 1573.3750000 4.6380000114 -9999.000000  -999.250000 0.1000000015 0.1000000015 0.0000000000
 1573.5000000 4.8940000534 -9999.000000  -999.250000 0.1000000015 0.1000000015 0.0000000000
 1573.6250000 4.4840002060 -9999.000000  -999.250000 0.1000000015 0.1000000015 0.0000000000
 1573.7500000 4.0739998817 -9999.000000  -999.250000 0.1000000015 0.1000000015 0.0000000000
 1573.8750000 3.6640000343 -9999.000000  -999.250000 0.1000000015 0.1000000015 0.0000000000
 1574.0000000 3.2539999485 -9999.000000  -999.250000 0.1000000015 0.1000000015 0.0000000000
 1574.1250000 3.2709999084 -9999.000000  -999.250000 0.1000000015 0.1000000015 0.0000000000
 1574.2500000 3.2880001068 -9999.000000  -999.250000 0.1000000015 0.1000000015 0.0000000000
 1574.3750000 3.3050000668 -9999.000000  -999.250000 0.1000000015 0.1000000015 0.0000000000
 1574.5000000 3.3220000267 -9999.000000  -999.250000 0.1000000015 0.1000000015 0.0000000000
 1574.6250000 3.2400000095 -9999.000000  -999.250000 0.1000000015 0.1000000015 0.0000000000
 1574.7500000 3.1579999924 -9999.000000  -999.250000 0.1000000015 0.1000000015 0.0000000000
 1574.8750000 3.0759999752 -9999.000000  -999.250000 0.1000000015 0.1000000015 0.0000000000
 1575.0000000 2.9939999580 -9999.000000  -999.250000 0.1000000015 0.1000000015 0.0000000000
 1575.1250000 2.8117001057 -9999.000000  -999.250000 0.1000000015 0.1000000015 0.0000000000
 1575.2500000 2.6294999123 -9999.000000  -999.250000 0.1000000015 0.1000000015 0.0000000000
 1575.3750000 2.4472999573 -9999.000000  -999.250000 0.1000000015 0.1000000015 0.0000000000
 1575.5000000 2.2650001049 -9999.000000  -999.250000 0.1000000015 0.1000000015 0.0000000000
 1575.6250000 2.3708000183 -9999.000000  -999.250000 0.1000000015 0.1000000015 0.0000000000
 1575.7500000 2.4765000343 -9999.000000  -999.250000 0.1000000015 0.1000000015 0.0000000000
 1575.8750000 2.5822000504 -9999.000000  -999.250000 0.1000000015 0.1000000015 0.0000000000
 1576.0000000 2.6879999638 -9999.000000  -999.250000 0.1000000015 0.1000000015 0.0000000000
 1576.1250000 3.1991999149 -9999.000000  -999.250000 0.1000000015 0.1000000015 0.0000000000
 1576.2500000 3.7105000019 -9999.000000  -999.250000 0.1000000015 0.1000000015 0.0000000000
 1576.3750000 4.2217001915 -9999.000000  -999.250000 0.1000000015 0.1000000015 0.0000000000
 1576.5000000 4.7329998016 -9999.000000  -999.250000 0.1000000015 0.1000000015 0.0000000000
 1576.6250000 4.3246998787 -9999.000000  -999.250000 0.1000000015 0.1000000015 0.0000000000
 1576.7500000 3.9165000916 -9999.000000  -999.250000 0.1000000015 0.1000000015 0.0000000000
 1576.8750000 3.5081999302 -9999.000000  -999.250000 0.1000000015 0.1000000015 0.0000000000
 1577.0000000 3.0999999046 -9999.000000  -999.250000 0.1000000015 0.1000000015 0.0000000000
 1577.1250000 2.9992001057 -9999.000000  -999.250000 0.1000000015 0.1000000015 0.0000000000
 1577.2500000 2.8984999657 -9999.000000  -999.250000 0.1000000015 0.1000000015 0.0000000000
 1577.3750000 2.7976999283 -9999.000000  -999.250000 0.1000000015 0.1000000015 0.0000000000
 1577.5000000 2.6970000267 -9999.000000  -999.250000 0.1000000015 0.1000000015 0.0000000000
 1577.6250000 3.9472999573 -9999.000000  -999.250000 0.1000000015 0.1000000015 0.0000000000
 1577.7500000 5.1975002289 -9999.000000  -999.250000 0.1000000015 0.1000000015 0.0000000000
 1577.8750000 6.4477000237 -9999.000000  -999.250000 0.1000000015 0.1000000015 0.0000000000
 1578.0000000 7.6979999542 -9999.000000 0.0000000000 7.0000000000 7.0000000000 1.0000000000
 1578.1250000 8.4230003357 -9999.000000 0.0000000000 7.0000000000 7.0000000000 1.0000000000
