# LAS format log file from PETREL
# Project units are specified as depth units
#==================================================================
~Version information
VERS.   2.0:
WRAP.   NO:
#==================================================================
~Well
STRT .m      1480.0000000 :
STOP .m      1820.0000000 :
STEP .m     0.12500000 :
NULL .        -999.250000 :
COMP.           : COMPANY
WELL.  5-0165   : WELL
FLD.            : FIELD
LOC.            : LOCATION
SRVC.           : SERVICE COMPANY
DATE.  2020-03-08 09:25:09   : Log Export Date {yyyy-MM-dd HH:mm:ss}
PROV.           : PROVINCE
UWI.      : UNIQUE WELL ID
API.            : API NUMBER
#==================================================================
~Curve
DEPT .m                   : DEPTH
RT .ohm.m                 : RT
SP .                      : SP
Fluids .                  : Fluids
POR .m3/m3                : POR
PERM .mD                  : PERM
Lith .                    : Lith
~Parameter
#==================================================================
~Ascii
# ...
 1654.0000000 2.2780001163 44.181999207 4.0000000000 13.000000000 95.000000000 1.0000000000
 1654.1250000 2.3169999123 44.301998138 4.0000000000 13.000000000 95.000000000 1.0000000000
 1654.2500000 2.3250000477 44.430000305 4.0000000000 13.000000000 95.000000000 1.0000000000
 1654.3750000 2.3929998875 44.561000824 4.0000000000 13.000000000 95.000000000 1.0000000000
 1654.5000000 2.2400000095 44.688999176 4.0000000000 13.000000000 95.000000000 1.0000000000
 1654.6250000 1.5950000286 44.812999725  -999.250000 0.1000000015 0.1000000015 0.0000000000
 1654.7500000 1.3029999733 44.935001373  -999.250000 0.1000000015 0.1000000015 0.0000000000
 1654.8750000 1.2079999447 45.055999756  -999.250000 0.1000000015 0.1000000015 0.0000000000
 1655.0000000 1.1319999695 45.180000305  -999.250000 0.1000000015 0.1000000015 0.0000000000
 1655.1250000 1.1720000505 45.308998108  -999.250000 0.1000000015 0.1000000015 0.0000000000
 1655.2500000 1.2259999514 45.442001343  -999.250000 0.1000000015 0.1000000015 0.0000000000
 1655.3750000 1.1039999723 45.576000214  -999.250000 0.1000000015 0.1000000015 0.0000000000
 1655.5000000 1.0399999619 45.706001282  -999.250000 0.1000000015 0.1000000015 0.0000000000
 1655.6250000 1.1690000296 45.831001282  -999.250000 0.1000000015 0.1000000015 0.0000000000
 1655.7500000 1.3719999790 45.951000214  -999.250000 0.1000000015 0.1000000015 0.0000000000
 1655.8750000 1.5000000000 46.063999176 4.0000000000 13.000000000 187.00000000 1.0000000000
 1656.0000000 1.5269999504 46.169998169 4.0000000000 13.000000000 187.00000000 1.0000000000
 1656.1250000 1.4470000267 46.263999939 4.0000000000 13.000000000 187.00000000 1.0000000000
 1656.2500000 1.4190000296 46.340999603 4.0000000000 13.000000000 187.00000000 1.0000000000
 1656.3750000 1.4579999447 46.398998260 4.0000000000 13.000000000 187.00000000 1.0000000000
 1656.5000000 1.8229999542 46.437999725 4.0000000000 13.000000000 187.00000000 1.0000000000
 1656.6250000 2.5039999485 46.458000183 4.0000000000 13.000000000 187.00000000 1.0000000000
 1656.7500000 3.2130000591 46.467998505 4.0000000000 13.000000000 187.00000000 1.0000000000
 1656.8750000 3.4200000763 46.471000671 4.0000000000 13.000000000 187.00000000 1.0000000000
 1657.0000000 3.2330000401 46.472999573 4.0000000000 13.000000000 187.00000000 1.0000000000
 1657.1250000 2.9230000973 46.479000092 4.0000000000 13.000000000 187.00000000 1.0000000000
 1657.2500000 2.8359999657 46.497001648 4.0000000000 13.000000000 187.00000000 1.0000000000
 1657.3750000 2.5320000648 46.527999878 4.0000000000 13.000000000 187.00000000 1.0000000000
 1657.5000000 2.3199999332 46.577999115 4.0000000000 13.000000000 187.00000000 1.0000000000
 1657.6250000 2.0980000496 46.645000458 4.0000000000 13.000000000 187.00000000 1.0000000000
 1657.7500000 1.7719999552 46.726001740 4.0000000000 13.000000000 187.00000000 1.0000000000
 1657.8750000 1.5169999599 46.816001892 4.0000000000 13.000000000 187.00000000 1.0000000000
 1658.0000000 1.4259999990 46.907001495  -999.250000 0.1000000015 0.1000000015 0.0000000000
 1658.1250000 1.4579999447 46.993999481  -999.250000 0.1000000015 0.1000000015 0.0000000000
 1658.2500000 1.4429999590 47.069999695  -999.250000 0.1000000015 0.1000000015 0.0000000000
 1658.3750000 1.5160000324 47.132999420  -999.250000 0.1000000015 0.1000000015 0.0000000000
 1658.5000000 1.7079999447 47.179000854  -999.250000 0.1000000015 0.1000000015 0.0000000000
 1658.6250000 1.9409999847 47.209999084 4.0000000000 21.000000000 1887.0000000 1.0000000000
 1658.7500000 2.1989998817 47.228000641 4.0000000000 21.000000000 1887.0000000 1.0000000000
 1658.8750000 2.4730000496 47.236000061 4.0000000000 21.000000000 1887.0000000 1.0000000000
 1659.0000000 2.5060000420 47.236000061 4.0000000000 21.000000000 1887.0000000 1.0000000000
 1659.1250000 2.5850000381 47.228000641 4.0000000000 21.000000000 1887.0000000 1.0000000000
 1659.2500000 2.1540000439 47.208999634 4.0000000000 21.000000000 1887.0000000 1.0000000000
 1659.3750000 1.9290000200 47.174999237 4.0000000000 21.000000000 1887.0000000 1.0000000000
 1659.5000000 1.8930000067 47.120998383 4.0000000000 21.000000000 1887.0000000 1.0000000000
 1659.6250000 2.0739998817 47.042999268 4.0000000000 21.000000000 1887.0000000 1.0000000000
 1659.7500000 2.4760000706 46.942001343 4.0000000000 21.000000000 1887.0000000 1.0000000000
 1659.8750000 3.1089999676 46.819999695 4.0000000000 21.000000000 1887.0000000 1.0000000000
 1660.0000000 3.5160000324 46.683998108 4.0000000000 21.000000000 1887.0000000 1.0000000000
 1660.1250000 3.8180000782 46.535999298 4.0000000000 21.000000000 1887.0000000 1.0000000000
 1660.2500000 3.9949998856 46.380001068 4.0000000000 21.000000000 1887.0000000 1.0000000000
 1660.3750000 3.9059998989 46.217998505 4.0000000000 21.000000000 1887.0000000 1.0000000000
 1660.5000000 3.5160000324 46.050998688 4.0000000000 21.000000000 1887.0000000 1.0000000000
 1660.6250000 3.4049999714 45.877998352 4.0000000000 21.000000000 1887.0000000 1.0000000000
 1660.7500000 3.4539999962 45.702999115 4.0000000000 21.000000000 1887.0000000 1.0000000000
 1660.8750000 3.7300000191 45.527999878 4.0000000000 21.000000000 1887.0000000 1.0000000000
 1661.0000000 3.8989999294 45.354999542 4.0000000000 21.000000000 1887.0000000 1.0000000000
 1661.1250000 4.0450000763 45.187999725 4.0000000000 21.000000000 1887.0000000 1.0000000000
 1661.2500000 4.1279997826 45.026000977 4.0000000000 21.000000000 1887.0000000 1.0000000000
 1661.3750000 4.1310000420 44.869998932 4.0000000000 21.000000000 1887.0000000 1.0000000000
 1661.5000000 4.0279998779 44.719001770 4.0000000000 21.000000000 1887.0000000 1.0000000000
 1661.6250000 4.0640001297 44.574001312 4.0000000000 21.000000000 1887.0000000 1.0000000000
 1661.7500000 4.2010002136 44.437999725 4.0000000000 21.000000000 1887.0000000 1.0000000000
 1661.8750000 4.3680000305 44.314998627 4.0000000000 21.000000000 1887.0000000 1.0000000000
 1662.0000000 4.5469999313 44.208000183 4.0000000000 21.000000000 1887.0000000 1.0000000000
 1662.1250000 4.6119999886 44.120998383 4.0000000000 21.000000000 1887.0000000 1.0000000000
 1662.2500000 4.7280001640 44.055000305 4.0000000000 21.000000000 1887.0000000 1.0000000000
 1662.3750000 4.9450001717 44.012001038 4.0000000000 21.000000000 1887.0000000 1.0000000000
 1662.5000000 5.1799998283 43.993000031 4.0000000000 21.000000000 1887.0000000 1.0000000000
 1662.6250000 5.3779997826 44.000999451 4.0000000000 21.000000000 1887.0000000 1.0000000000
 1662.7500000 5.5469999313 44.036998749 4.0000000000 21.000000000 1887.0000000 1.0000000000
 1662.8750000 5.4730000496 44.099998474 4.0000000000 21.000000000 1887.0000000 1.0000000000
 1663.0000000 5.3169999123 44.187000275 4.0000000000 21.000000000 1887.0000000 1.0000000000
 1663.1250000 5.2270002365 44.296001434 4.0000000000 21.000000000 1887.0000000 1.0000000000
 1663.2500000 5.1250000000 44.423999786 4.0000000000 21.000000000 1887.0000000 1.0000000000
 1663.3750000 5.0199999809 44.566001892 4.0000000000 21.000000000 1887.0000000 1.0000000000
 1663.5000000 4.9369997978 44.715999603 4.0000000000 21.000000000 1887.0000000 1.0000000000
 1663.6250000 4.9990000725 44.867000580 4.0000000000 21.000000000 1887.0000000 1.0000000000
 1663.7500000 5.0250000954 45.014999390 4.0000000000 21.000000000 1887.0000000 1.0000000000
 1663.8750000 4.7610001564 45.151000977 4.0000000000 21.000000000 1887.0000000 1.0000000000
 1664.0000000 4.1950001717 45.272998810 4.0000000000 21.000000000 1887.0000000 1.0000000000
 1664.1250000 3.5220000744 45.375999451 4.0000000000 21.000000000 1887.0000000 1.0000000000
 1664.2500000 3.2170000076 45.456001282 4.0000000000 21.000000000 1887.0000000 1.0000000000
 1664.3750000 3.1500000954 45.506999969 4.0000000000 21.000000000 1887.0000000 1.0000000000
 1664.5000000 3.3090000153 45.523998260 4.0000000000 21.000000000 1887.0000000 1.0000000000
 1664.6250000 3.5920000076 45.506000519 4.0000000000 21.000000000 1887.0000000 1.0000000000
 1664.7500000 3.8469998837 45.451000214 4.0000000000 21.000000000 1887.0000000 1.0000000000
