# LAS format log file from PETREL
# Project units are specified as depth units
#==================================================================
~Version information
VERS.   2.0:
WRAP.   NO:
#==================================================================
~Well
STRT .m      1450.0000000 :
STOP .m      1760.0000000 :
STEP .m     0.12500000 :
NULL .        -999.250000 :
COMP.           : COMPANY
WELL.  5-0172C   : WELL
FLD.            : FIELD
LOC.            : LOCATION
SRVC.           : SERVICE COMPANY
DATE.  2020-03-08 09:25:09   : Log Export Date {yyyy-MM-dd HH:mm:ss}
PROV.           : PROVINCE
UWI.      : UNIQUE WELL ID
API.            : API NUMBER
#==================================================================
~Curve
DEPT .m                   : DEPTH
RT .ohm.m                 : RT
SP .                      : SP
Fluids .                  : Fluids
POR .m3/m3                : POR
PERM .mD                  : PERM
Lith .                    : Lith
~Parameter
#==================================================================
~Ascii
# ...
 1700.1250000 54.298000336 9.5819997787 4.0000000000 23.000000000 3152.0000000 1.0000000000
 1700.2500000 54.125999451 9.7270002365 4.0000000000 23.000000000 3152.0000000 1.0000000000
 1700.3750000 54.058998108 9.8420000076 4.0000000000 23.000000000 3152.0000000 1.0000000000
 1700.5000000 54.092998505 9.9359998703 4.0000000000 23.000000000 3152.0000000 1.0000000000
 1700.6250000 54.216999054 10.032999992 4.0000000000 23.000000000 3152.0000000 1.0000000000
 1700.7500000 54.316001892 10.185999870 4.0000000000 23.000000000 3152.0000000 1.0000000000
 1700.8750000 54.422000885 10.409999847 4.0000000000 23.000000000 3152.0000000 1.0000000000
 1701.0000000 54.528999329 10.631999969 4.0000000000 23.000000000 3152.0000000 1.0000000000
 1701.1250000 54.620998383 10.897999763 4.0000000000 23.000000000 3152.0000000 1.0000000000
 1701.2500000 54.763999939 11.145999908 4.0000000000 23.000000000 3152.0000000 1.0000000000
 1701.3750000 54.907001495 11.543999672 4.0000000000 23.000000000 3152.0000000 1.0000000000
 1701.5000000 55.646999359 12.095999718 4.0000000000 23.000000000 3152.0000000 1.0000000000
 1701.6250000 59.280998230 12.607999802 4.0000000000 23.000000000 3152.0000000 1.0000000000
 1701.7500000 60.347999573 13.321999550 4.0000000000 23.000000000 3152.0000000 1.0000000000
 1701.8750000 60.650001526 13.727999687 4.0000000000 23.000000000 3152.0000000 1.0000000000
 1702.0000000 60.840000153 14.151000023 4.0000000000 23.000000000 3152.0000000 1.0000000000
 1702.1250000 60.939998627 14.470000267 4.0000000000 23.000000000 3152.0000000 1.0000000000
 1702.2500000 60.901000977 14.829999924 4.0000000000 23.000000000 3152.0000000 1.0000000000
 1702.3750000 60.662998199 15.118000031 4.0000000000 23.000000000 3152.0000000 1.0000000000
 1702.5000000 60.297000885 15.404999733 4.0000000000 23.000000000 3152.0000000 1.0000000000
 1702.6250000 59.733001709 15.696999550 4.0000000000 23.000000000 3152.0000000 1.0000000000
 1702.7500000 59.307998657 15.987999916 4.0000000000 23.000000000 3152.0000000 1.0000000000
 1702.8750000 58.442001343 16.278999329 4.0000000000 23.000000000 3152.0000000 1.0000000000
 1703.0000000 57.673999786 16.642000198 4.0000000000 23.000000000 3152.0000000 1.0000000000
 1703.1250000 56.941001892 17.194000244 4.0000000000 23.000000000 3152.0000000 1.0000000000
 1703.2500000 56.360000610 17.753999710 4.0000000000 23.000000000 3152.0000000 1.0000000000
 1703.3750000 56.004001617 18.273000717  -999.250000 0.1000000015 0.1000000015 0.0000000000
 1703.5000000 55.743999481 18.643999100  -999.250000 0.1000000015 0.1000000015 0.0000000000
 1703.6250000 55.542999268 19.010000229  -999.250000 0.1000000015 0.1000000015 0.0000000000
 1703.7500000 55.346000671 19.465000153  -999.250000 0.1000000015 0.1000000015 0.0000000000
 1703.8750000 55.108001709 19.902000427  -999.250000 0.1000000015 0.1000000015 0.0000000000
 1704.0000000 54.842998505 20.249000549  -999.250000 0.1000000015 0.1000000015 0.0000000000
 1704.1250000 54.562999725 20.652999878  -999.250000 0.1000000015 0.1000000015 0.0000000000
 1704.2500000 54.207000732 21.076999664  -999.250000 0.1000000015 0.1000000015 0.0000000000
 1704.3750000 53.909999847 21.423000336  -999.250000 0.1000000015 0.1000000015 0.0000000000
 1704.5000000 53.512001038 21.965999603  -999.250000 0.1000000015 0.1000000015 0.0000000000
 1704.6250000 53.118000031 22.721000671  -999.250000 0.1000000015 0.1000000015 0.0000000000
 1704.7500000 52.727001190 23.261999130  -999.250000 0.1000000015 0.1000000015 0.0000000000
 1704.8750000 52.335998535 23.530000687  -999.250000 0.1000000015 0.1000000015 0.0000000000
 1705.0000000 51.719001770 23.798000336 3.0000000000 14.000000000 168.00000000 1.0000000000
 1705.1250000 51.006000519 24.215999603 3.0000000000 14.000000000 168.00000000 1.0000000000
 1705.2500000 50.298999786 24.606000900 3.0000000000 14.000000000 168.00000000 1.0000000000
 1705.3750000 49.568000793 24.981000900 3.0000000000 14.000000000 168.00000000 1.0000000000
 1705.5000000 48.563999176 25.261999130 3.0000000000 14.000000000 168.00000000 1.0000000000
 1705.6250000 47.742000580 25.500999451 3.0000000000 14.000000000 168.00000000 1.0000000000
 1705.7500000 46.926998138 25.662000656 3.0000000000 14.000000000 168.00000000 1.0000000000
 1705.8750000 45.889999390 25.906999588 3.0000000000 14.000000000 168.00000000 1.0000000000
 1706.0000000 44.911998749 26.238000870 3.0000000000 14.000000000 168.00000000 1.0000000000
 1706.1250000 43.966999054 26.451999664 3.0000000000 14.000000000 168.00000000 1.0000000000
 1706.2500000 43.270999908 26.666000366 3.0000000000 14.000000000 168.00000000 1.0000000000
 1706.3750000 42.925998688 26.826999664 3.0000000000 14.000000000 168.00000000 1.0000000000
 1706.5000000 42.546001434 27.010000229 3.0000000000 14.000000000 168.00000000 1.0000000000
 1706.6250000 42.348999023 27.212999344 3.0000000000 14.000000000 168.00000000 1.0000000000
 1706.7500000 42.153999329 27.309000015 3.0000000000 14.000000000 168.00000000 1.0000000000
 1706.8750000 41.959999084 27.312999725 3.0000000000 14.000000000 168.00000000 1.0000000000
 1707.0000000 41.926998138 27.243999481  -999.250000 0.1000000015 0.1000000015 0.0000000000
 1707.1250000 41.916000366 27.170000076  -999.250000 0.1000000015 0.1000000015 0.0000000000
 1707.2500000 41.909999847 27.073999405  -999.250000 0.1000000015 0.1000000015 0.0000000000
 1707.3750000 41.950000763 26.945999146  -999.250000 0.1000000015 0.1000000015 0.0000000000
 1707.5000000 42.016998291 26.868000031  -999.250000 0.1000000015 0.1000000015 0.0000000000
 1707.6250000 42.120998383 26.750000000  -999.250000 0.1000000015 0.1000000015 0.0000000000
 1707.7500000 42.264999390 26.638999939  -999.250000 0.1000000015 0.1000000015 0.0000000000
 1707.8750000 42.391998291 26.500000000  -999.250000 0.1000000015 0.1000000015 0.0000000000
 1708.0000000 42.500000000 26.351999283  -999.250000 0.1000000015 0.1000000015 0.0000000000
 1708.1250000 42.597000122 26.156999588  -999.250000 0.1000000015 0.1000000015 0.0000000000
 1708.2500000 42.627998352 25.937000275  -999.250000 0.1000000015 0.1000000015 0.0000000000
 1708.3750000 42.733001709 25.702999115  -999.250000 0.1000000015 0.1000000015 0.0000000000
 1708.5000000 42.827999115 25.448999405  -999.250000 0.1000000015 0.1000000015 0.0000000000
 1708.6250000 42.842998505 25.194999695  -999.250000 0.1000000015 0.1000000015 0.0000000000
 1708.7500000 42.903999329 24.839000702  -999.250000 0.1000000015 0.1000000015 0.0000000000
 1708.8750000 42.918998718 24.591999054  -999.250000 0.1000000015 0.1000000015 0.0000000000
 1709.0000000 42.810001373 24.448999405  -999.250000 0.1000000015 0.1000000015 0.0000000000
 1709.1250000 42.701999664 24.340999603  -999.250000 0.1000000015 0.1000000015 0.0000000000
 1709.2500000 42.333999634 24.301000595  -999.250000 0.1000000015 0.1000000015 0.0000000000
 1709.3750000 42.006999969 24.291999817  -999.250000 0.1000000015 0.1000000015 0.0000000000
 1709.5000000 41.640998840 24.323999405  -999.250000 0.1000000015 0.1000000015 0.0000000000
 1709.6250000 41.467998505 24.333999634  -999.250000 0.1000000015 0.1000000015 0.0000000000
 1709.7500000 41.282001495 24.364999771  -999.250000 0.1000000015 0.1000000015 0.0000000000
 1709.8750000 41.018001556 24.396999359  -999.250000 0.1000000015 0.1000000015 0.0000000000
 1710.0000000 41.006000519 24.481000900  -999.250000 0.1000000015 0.1000000015 0.0000000000
 1710.1250000 40.999000549 24.565999985  -999.250000 0.1000000015 0.1000000015 0.0000000000
 1710.2500000 40.950000763 24.704999924  -999.250000 0.1000000015 0.1000000015 0.0000000000
 1710.3750000 40.874000549 24.945999146  -999.250000 0.1000000015 0.1000000015 0.0000000000
 1710.5000000 40.727001190 25.280000687  -999.250000 0.1000000015 0.1000000015 0.0000000000
 1710.6250000 3.9809999466 25.572999954  -999.250000 0.1000000015 0.1000000015 0.0000000000
 1710.7500000 3.9779999256 25.865999222  -999.250000 0.1000000015 0.1000000015 0.0000000000
 1710.8750000 3.8770000935 26.158000946  -999.250000 0.1000000015 0.1000000015 0.0000000000
