# LAS format log file from PETREL
# Project units are specified as depth units
#==================================================================
~Version information
VERS.   2.0:
WRAP.   NO:
#==================================================================
~Well
STRT .m      730.00000000 :
STOP .m      1729.5000000 :
STEP .m     0.12500000 :
NULL .        -999.250000 :
COMP.           : COMPANY
WELL.  5-0163   : WELL
FLD.            : FIELD
LOC.            : LOCATION
SRVC.           : SERVICE COMPANY
DATE.  2020-03-08 09:25:09   : Log Export Date {yyyy-MM-dd HH:mm:ss}
PROV.           : PROVINCE
UWI.      : UNIQUE WELL ID
API.            : API NUMBER
#==================================================================
~Curve
DEPT .m                   : DEPTH
RT .ohm.m                 : RT
SP .                      : SP
Fluids .                  : Fluids
POR .m3/m3                : POR
PERM .mD                  : PERM
Lith .                    : Lith
~Parameter
#==================================================================
~Ascii
# ...
 1665.2500000 23.787500381 -9999.000000 3.0000000000 16.000000000 113.00000000 1.0000000000
 1665.3750000 24.898799896 -9999.000000 3.0000000000 16.000000000 113.00000000 1.0000000000
 1665.5000000 26.010000229 -9999.000000 3.0000000000 16.000000000 113.00000000 1.0000000000
 1665.6250000 25.570499420 -9999.000000 3.0000000000 16.000000000 113.00000000 1.0000000000
 1665.7500000 25.131000519 -9999.000000 3.0000000000 16.000000000 113.00000000 1.0000000000
 1665.8750000 24.691499710 -9999.000000 3.0000000000 16.000000000 113.00000000 1.0000000000
 1666.0000000 24.252000809 -9999.000000 3.0000000000 16.000000000 113.00000000 1.0000000000
 1666.1250000 22.828800201 -9999.000000 3.0000000000 16.000000000 113.00000000 1.0000000000
 1666.2500000 21.405500412 -9999.000000 3.0000000000 16.000000000 113.00000000 1.0000000000
 1666.3750000 19.982299805 -9999.000000 3.0000000000 16.000000000 113.00000000 1.0000000000
 1666.5000000 18.559000015 -9999.000000 3.0000000000 16.000000000 113.00000000 1.0000000000
 1666.6250000 17.171499252 -9999.000000 3.0000000000 16.000000000 113.00000000 1.0000000000
 1666.7500000 15.784000397 -9999.000000 3.0000000000 16.000000000 113.00000000 1.0000000000
 1666.8750000 14.396499634 -9999.000000 3.0000000000 16.000000000 113.00000000 1.0000000000
 1667.0000000 13.008999825 -9999.000000  -999.250000 0.1000000015 0.1000000015 0.0000000000
 1667.1250000 11.300999641 -9999.000000  -999.250000 0.1000000015 0.1000000015 0.0000000000
 1667.2500000 9.5930004120 -9999.000000  -999.250000 0.1000000015 0.1000000015 0.0000000000
 1667.3750000 7.8850002289 -9999.000000  -999.250000 0.1000000015 0.1000000015 0.0000000000
 1667.5000000 6.1770000458 -9999.000000  -999.250000 0.1000000015 0.1000000015 0.0000000000
 1667.6250000 6.2979998589 -9999.000000  -999.250000 0.1000000015 0.1000000015 0.0000000000
 1667.7500000 6.4190001488 -9999.000000  -999.250000 0.1000000015 0.1000000015 0.0000000000
 1667.8750000 6.5399999619 -9999.000000  -999.250000 0.1000000015 0.1000000015 0.0000000000
 1668.0000000 6.6609997749 -9999.000000  -999.250000 0.1000000015 0.1000000015 0.0000000000
 1668.1250000 6.5057001114 -9999.000000  -999.250000 0.1000000015 0.1000000015 0.0000000000
 1668.2500000 6.3505001068 -9999.000000  -999.250000 0.1000000015 0.1000000015 0.0000000000
 1668.3750000 6.1951999664 -9999.000000  -999.250000 0.1000000015 0.1000000015 0.0000000000
 1668.5000000 6.0399999619 -9999.000000  -999.250000 0.1000000015 0.1000000015 0.0000000000
 1668.6250000 5.3639998436 -9999.000000  -999.250000 0.1000000015 0.1000000015 0.0000000000
 1668.7500000 4.6880002022 -9999.000000  -999.250000 0.1000000015 0.1000000015 0.0000000000
 1668.8750000 4.0120000839 -9999.000000  -999.250000 0.1000000015 0.1000000015 0.0000000000
 1669.0000000 3.3359999657 -9999.000000  -999.250000 0.1000000015 0.1000000015 0.0000000000
 1669.1250000 3.3894999027 -9999.000000  -999.250000 0.1000000015 0.1000000015 0.0000000000
 1669.2500000 3.4430000782 -9999.000000  -999.250000 0.1000000015 0.1000000015 0.0000000000
 1669.3750000 3.4965000153 -9999.000000  -999.250000 0.1000000015 0.1000000015 0.0000000000
 1669.5000000 3.5499999523 -9999.000000  -999.250000 0.1000000015 0.1000000015 0.0000000000
 1669.6250000 3.4507000446 -9999.000000  -999.250000 0.1000000015 0.1000000015 0.0000000000
 1669.7500000 3.3515000343 -9999.000000  -999.250000 0.1000000015 0.1000000015 0.0000000000
 1669.8750000 3.2523000240 -9999.000000  -999.250000 0.1000000015 0.1000000015 0.0000000000
 1670.0000000 3.1530001163 -9999.000000  -999.250000 0.1000000015 0.1000000015 0.0000000000
 1670.1250000 3.5613000393 -9999.000000  -999.250000 0.1000000015 0.1000000015 0.0000000000
 1670.2500000 3.9695000648 -9999.000000  -999.250000 0.1000000015 0.1000000015 0.0000000000
 1670.3750000 4.3776998520 -9999.000000  -999.250000 0.1000000015 0.1000000015 0.0000000000
 1670.5000000 4.7859997749 -9999.000000  -999.250000 0.1000000015 0.1000000015 0.0000000000
 1670.6250000 4.8227000237 -9999.000000  -999.250000 0.1000000015 0.1000000015 0.0000000000
 1670.7500000 4.8594999313 -9999.000000  -999.250000 0.1000000015 0.1000000015 0.0000000000
 1670.8750000 4.8962998390 -9999.000000  -999.250000 0.1000000015 0.1000000015 0.0000000000
 1671.0000000 4.9330000877 -9999.000000  -999.250000 0.1000000015 0.1000000015 0.0000000000
 1671.1250000 4.7785000801 -9999.000000  -999.250000 0.1000000015 0.1000000015 0.0000000000
 1671.2500000 4.6240000725 -9999.000000  -999.250000 0.1000000015 0.1000000015 0.0000000000
 1671.3750000 4.4695000648 -9999.000000  -999.250000 0.1000000015 0.1000000015 0.0000000000
 1671.5000000 4.3150000572 -9999.000000  -999.250000 0.1000000015 0.1000000015 0.0000000000
 1671.6250000 4.7439999580 -9999.000000  -999.250000 0.1000000015 0.1000000015 0.0000000000
 1671.7500000 5.1729998589 -9999.000000  -999.250000 0.1000000015 0.1000000015 0.0000000000
 1671.8750000 5.6020002365 -9999.000000  -999.250000 0.1000000015 0.1000000015 0.0000000000
 1672.0000000 6.0310001373 -9999.000000  -999.250000 0.1000000015 0.1000000015 0.0000000000
 1672.1250000 5.8248000145 -9999.000000  -999.250000 0.1000000015 0.1000000015 0.0000000000
 1672.2500000 5.6185002327 -9999.000000  -999.250000 0.1000000015 0.1000000015 0.0000000000
 1672.3750000 5.4121999741 -9999.000000  -999.250000 0.1000000015 0.1000000015 0.0000000000
 1672.5000000 5.2059998512 -9999.000000  -999.250000 0.1000000015 0.1000000015 0.0000000000
 1672.6250000 5.5390000343 -9999.000000  -999.250000 0.1000000015 0.1000000015 0.0000000000
 1672.7500000 5.8720002174 -9999.000000  -999.250000 0.1000000015 0.1000000015 0.0000000000
 1672.8750000 6.2049999237 -9999.000000  -999.250000 0.1000000015 0.1000000015 0.0000000000
 1673.0000000 6.5380001068 -9999.000000  -999.250000 0.1000000015 0.1000000015 0.0000000000
 1673.1250000 6.1767997742 -9999.000000  -999.250000 0.1000000015 0.1000000015 0.0000000000
 1673.2500000 5.8154997826 -9999.000000  -999.250000 0.1000000015 0.1000000015 0.0000000000
 1673.3750000 5.4541997910 -9999.000000  -999.250000 0.1000000015 0.1000000015 0.0000000000
 1673.5000000 5.0929999352 -9999.000000  -999.250000 0.1000000015 0.1000000015 0.0000000000
 1673.6250000 6.1167001724 -9999.000000  -999.250000 0.1000000015 0.1000000015 0.0000000000
 1673.7500000 7.1405000687 -9999.000000 3.0000000000 5.0000000000 4.0000000000 1.0000000000
 1673.8750000 8.1641998291 -9999.000000 3.0000000000 5.0000000000 4.0000000000 1.0000000000
 1674.0000000 9.1879997253 -9999.000000 3.0000000000 5.0000000000 4.0000000000 1.0000000000
 1674.1250000 8.7017002106 -9999.000000 3.0000000000 5.0000000000 4.0000000000 1.0000000000
 1674.2500000 8.2154998779 -9999.000000 3.0000000000 5.0000000000 4.0000000000 1.0000000000
 1674.3750000 7.7291998863 -9999.000000 3.0000000000 5.0000000000 4.0000000000 1.0000000000
 1674.5000000 7.2430000305 -9999.000000 3.0000000000 5.0000000000 4.0000000000 1.0000000000
 1674.6250000 6.8309998512 -9999.000000 3.0000000000 5.0000000000 4.0000000000 1.0000000000
 1674.7500000 6.4190001488 -9999.000000 3.0000000000 5.0000000000 4.0000000000 1.0000000000
 1674.8750000 6.0069999695 -9999.000000 3.0000000000 5.0000000000 4.0000000000 1.0000000000
 1675.0000000 5.5949997902 -9999.000000 3.0000000000 5.0000000000 4.0000000000 1.0000000000
 1675.1250000 6.4026999474 -9999.000000 3.0000000000 5.0000000000 4.0000000000 1.0000000000
 1675.2500000 7.2104997635 -9999.000000 3.0000000000 5.0000000000 4.0000000000 1.0000000000
 1675.3750000 8.0183000565 -9999.000000 3.0000000000 5.0000000000 4.0000000000 1.0000000000
 1675.5000000 8.8260002136 -9999.000000 3.0000000000 5.0000000000 4.0000000000 1.0000000000
 1675.6250000 8.6892995834 -9999.000000 3.0000000000 5.0000000000 4.0000000000 1.0000000000
 1675.7500000 8.5524997711 -9999.000000 3.0000000000 5.0000000000 4.0000000000 1.0000000000
 1675.8750000 8.4158000946 -9999.000000 3.0000000000 5.0000000000 4.0000000000 1.0000000000
 1676.0000000 8.2790002823 -9999.000000 3.0000000000 5.0000000000 4.0000000000 1.0000000000
