# LAS format log file from PETREL
# Project units are specified as depth units
#==================================================================
~Version information
VERS.   2.0:
WRAP.   NO:
#==================================================================
~Well
STRT .m      1450.0000000 :
STOP .m      1760.0000000 :
STEP .m     0.12500000 :
NULL .        -999.250000 :
COMP.           : COMPANY
WELL.  5-0172C   : WELL
FLD.            : FIELD
LOC.            : LOCATION
SRVC.           : SERVICE COMPANY
DATE.  2020-03-08 09:25:09   : Log Export Date {yyyy-MM-dd HH:mm:ss}
PROV.           : PROVINCE
UWI.      : UNIQUE WELL ID
API.            : API NUMBER
#==================================================================
~Curve
DEPT .m                   : DEPTH
RT .ohm.m                 : RT
SP .                      : SP
Fluids .                  : Fluids
POR .m3/m3                : POR
PERM .mD                  : PERM
Lith .                    : Lith
~Parameter
#==================================================================
~Ascii
# ...
 1711.0000000 3.7760000229 26.483999252  -999.250000 0.1000000015 0.1000000015 0.0000000000
 1711.1250000 3.5840001106 26.864999771 0.0000000000 7.0000000000 5.0000000000 1.0000000000
 1711.2500000 3.3910000324 27.235000610 0.0000000000 7.0000000000 5.0000000000 1.0000000000
 1711.3750000 3.3719999790 27.547000885 0.0000000000 7.0000000000 5.0000000000 1.0000000000
 1711.5000000 3.4330000877 27.923999786 0.0000000000 7.0000000000 5.0000000000 1.0000000000
 1711.6250000 3.5699999332 28.291000366 0.0000000000 7.0000000000 5.0000000000 1.0000000000
 1711.7500000 3.7379999161 28.607999802 0.0000000000 7.0000000000 5.0000000000 1.0000000000
 1711.8750000 4.0050001144 28.905000687 0.0000000000 7.0000000000 5.0000000000 1.0000000000
 1712.0000000 4.3670001030 29.017999649 0.0000000000 7.0000000000 5.0000000000 1.0000000000
 1712.1250000 4.6770000458 29.155000687 0.0000000000 7.0000000000 5.0000000000 1.0000000000
 1712.2500000 4.8080000877 29.218999863 0.0000000000 7.0000000000 5.0000000000 1.0000000000
 1712.3750000 4.9330000877 29.281999588  -999.250000 0.1000000015 0.1000000015 0.0000000000
 1712.5000000 4.9840002060 29.291999817  -999.250000 0.1000000015 0.1000000015 0.0000000000
 1712.6250000 4.9559998512 29.340000153  -999.250000 0.1000000015 0.1000000015 0.0000000000
 1712.7500000 4.5729999542 29.347999573  -999.250000 0.1000000015 0.1000000015 0.0000000000
 1712.8750000 4.0310001373 29.346000671  -999.250000 0.1000000015 0.1000000015 0.0000000000
 1713.0000000 3.2490000725 29.399999619  -999.250000 0.1000000015 0.1000000015 0.0000000000
 1713.1250000 2.4679999352 29.400999069  -999.250000 0.1000000015 0.1000000015 0.0000000000
 1713.2500000 2.2809998989 29.398000717  -999.250000 0.1000000015 0.1000000015 0.0000000000
 1713.3750000 2.2720000744 29.395999908  -999.250000 0.1000000015 0.1000000015 0.0000000000
 1713.5000000 2.2929999828 29.392999649  -999.250000 0.1000000015 0.1000000015 0.0000000000
 1713.6250000 2.3250000477 29.389999390  -999.250000 0.1000000015 0.1000000015 0.0000000000
 1713.7500000 2.3559999466 29.386999130  -999.250000 0.1000000015 0.1000000015 0.0000000000
 1713.8750000 2.4969999790 29.384000778  -999.250000 0.1000000015 0.1000000015 0.0000000000
 1714.0000000 3.2609999180 29.381000519  -999.250000 0.1000000015 0.1000000015 0.0000000000
 1714.1250000 3.8099999428 29.378000259  -999.250000 0.1000000015 0.1000000015 0.0000000000
 1714.2500000 4.2470002174 29.375000000  -999.250000 0.1000000015 0.1000000015 0.0000000000
 1714.3750000 4.5939998627 29.371999741  -999.250000 0.1000000015 0.1000000015 0.0000000000
 1714.5000000 4.8639998436 29.319000244  -999.250000 0.1000000015 0.1000000015 0.0000000000
 1714.6250000 5.0120000839 29.305000305  -999.250000 0.1000000015 0.1000000015 0.0000000000
 1714.7500000 4.9499998093 29.302000046  -999.250000 0.1000000015 0.1000000015 0.0000000000
 1714.8750000 4.7410001755 29.298999786  -999.250000 0.1000000015 0.1000000015 0.0000000000
 1715.0000000 4.4930000305 29.259000778  -999.250000 0.1000000015 0.1000000015 0.0000000000
 1715.1250000 4.1599998474 29.239000320 0.0000000000 10.000000000 37.000000000 1.0000000000
 1715.2500000 3.8780000210 29.229999542 0.0000000000 10.000000000 37.000000000 1.0000000000
 1715.3750000 3.8129999638 29.225999832 0.0000000000 10.000000000 37.000000000 1.0000000000
 1715.5000000 3.7469999790 29.222000122 0.0000000000 10.000000000 37.000000000 1.0000000000
 1715.6250000 3.8259999752 29.218999863 0.0000000000 10.000000000 37.000000000 1.0000000000
 1715.7500000 3.8940000534 29.215999603 0.0000000000 10.000000000 37.000000000 1.0000000000
 1715.8750000 4.2930002213 29.212999344 0.0000000000 10.000000000 37.000000000 1.0000000000
 1716.0000000 4.7659997940 29.209999084 0.0000000000 10.000000000 37.000000000 1.0000000000
 1716.1250000 5.1139998436 29.207000732 0.0000000000 10.000000000 37.000000000 1.0000000000
 1716.2500000 5.3740000725 29.204000473 0.0000000000 10.000000000 37.000000000 1.0000000000
 1716.3750000 5.4739999771 29.201000214 0.0000000000 10.000000000 37.000000000 1.0000000000
 1716.5000000 5.5739998817 29.197999954  -999.250000 0.1000000015 0.1000000015 0.0000000000
 1716.6250000 5.4320001602 29.194999695  -999.250000 0.1000000015 0.1000000015 0.0000000000
 1716.7500000 5.2909998894 29.191999435  -999.250000 0.1000000015 0.1000000015 0.0000000000
 1716.8750000 4.9419999123 29.190000534  -999.250000 0.1000000015 0.1000000015 0.0000000000
 1717.0000000 4.4889998436 29.187000275  -999.250000 0.1000000015 0.1000000015 0.0000000000
 1717.1250000 3.9790000916 29.184000015  -999.250000 0.1000000015 0.1000000015 0.0000000000
 1717.2500000 3.2369999886 29.221000671  -999.250000 0.1000000015 0.1000000015 0.0000000000
 1717.3750000 2.9920001030 29.233999252  -999.250000 0.1000000015 0.1000000015 0.0000000000
 1717.5000000 2.8699998856 29.235000610  -999.250000 0.1000000015 0.1000000015 0.0000000000
 1717.6250000 2.8150000572 29.323999405  -999.250000 0.1000000015 0.1000000015 0.0000000000
 1717.7500000 2.7950000763 29.349000931  -999.250000 0.1000000015 0.1000000015 0.0000000000
 1717.8750000 2.8580000401 29.437999725  -999.250000 0.1000000015 0.1000000015 0.0000000000
 1718.0000000 2.9579999447 29.516000748  -999.250000 0.1000000015 0.1000000015 0.0000000000
 1718.1250000 3.0720000267 29.525999069  -999.250000 0.1000000015 0.1000000015 0.0000000000
 1718.2500000 3.1909999847 29.527000427  -999.250000 0.1000000015 0.1000000015 0.0000000000
 1718.3750000 3.4330000877 29.524999619  -999.250000 0.1000000015 0.1000000015 0.0000000000
 1718.5000000 3.7630000114 29.523000717 3.0000000000 11.000000000 67.000000000 1.0000000000
 1718.6250000 4.6770000458 29.520000458 3.0000000000 11.000000000 67.000000000 1.0000000000
 1718.7500000 5.3470001221 29.488000870 3.0000000000 11.000000000 67.000000000 1.0000000000
 1718.8750000 5.7090001106 29.454999924 3.0000000000 11.000000000 67.000000000 1.0000000000
 1719.0000000 6.0700001717 29.422000885 3.0000000000 11.000000000 67.000000000 1.0000000000
 1719.1250000 6.2270002365 29.388000488 3.0000000000 11.000000000 67.000000000 1.0000000000
 1719.2500000 6.2680001259 29.382999420 3.0000000000 11.000000000 67.000000000 1.0000000000
 1719.3750000 6.0890002251 29.472000122 3.0000000000 11.000000000 67.000000000 1.0000000000
 1719.5000000 5.7030000687 29.587999344 3.0000000000 11.000000000 67.000000000 1.0000000000
 1719.6250000 5.3499999046 29.681999207 3.0000000000 11.000000000 67.000000000 1.0000000000
 1719.7500000 3.9839999676 29.763999939 3.0000000000 11.000000000 67.000000000 1.0000000000
 1719.8750000 3.5969998837 29.820999146 3.0000000000 11.000000000 67.000000000 1.0000000000
 1720.0000000 3.4419999123 29.886999130  -999.250000 0.1000000015 0.1000000015 0.0000000000
 1720.1250000 3.4119999409 29.975000381  -999.250000 0.1000000015 0.1000000015 0.0000000000
 1720.2500000 3.4660000801 30.055999756  -999.250000 0.1000000015 0.1000000015 0.0000000000
 1720.3750000 3.6240000725 30.148000717  -999.250000 0.1000000015 0.1000000015 0.0000000000
 1720.5000000 3.9070000648 30.267999649  -999.250000 0.1000000015 0.1000000015 0.0000000000
 1720.6250000 4.3200001717 30.340000153  -999.250000 0.1000000015 0.1000000015 0.0000000000
 1720.7500000 4.7719998360 30.412000656  -999.250000 0.1000000015 0.1000000015 0.0000000000
 1720.8750000 5.1259999275 30.441999435  -999.250000 0.1000000015 0.1000000015 0.0000000000
 1721.0000000 5.4200000763 30.485000610  -999.250000 0.1000000015 0.1000000015 0.0000000000
 1721.1250000 5.6500000954 30.499000549  -999.250000 0.1000000015 0.1000000015 0.0000000000
 1721.2500000 5.9109997749 30.503000259  -999.250000 0.1000000015 0.1000000015 0.0000000000
 1721.3750000 6.1079998016 30.506999969  -999.250000 0.1000000015 0.1000000015 0.0000000000
 1721.5000000 6.2969999313 30.503999710  -999.250000 0.1000000015 0.1000000015 0.0000000000
 1721.6250000 7.2930002213 30.469999313  -999.250000 0.1000000015 0.1000000015 0.0000000000
 1721.7500000 8.4949998856 30.413999557  -999.250000 0.1000000015 0.1000000015 0.0000000000
