# LAS format log file from PETREL
# Project units are specified as depth units
#==================================================================
~Version information
VERS.   2.0:
WRAP.   NO:
#==================================================================
~Well
STRT .m      1420.0000000 :
STOP .m      1734.8750000 :
STEP .m     0.12500000 :
NULL .        -999.250000 :
COMP.           : COMPANY
WELL.  5-0161C   : WELL
FLD.            : FIELD
LOC.            : LOCATION
SRVC.           : SERVICE COMPANY
DATE.  2020-03-08 09:25:09   : Log Export Date {yyyy-MM-dd HH:mm:ss}
PROV.           : PROVINCE
UWI.      : UNIQUE WELL ID
API.            : API NUMBER
#==================================================================
~Curve
DEPT .m                   : DEPTH
RT .ohm.m                 : RT
SP .                      : SP
Fluids .                  : Fluids
POR .m3/m3                : POR
PERM .mD                  : PERM
Lith .                    : Lith
~Parameter
#==================================================================
~Ascii
# ...
 1648.3750000 43.404998779 -76.05000305 4.0000000000 22.000000000 2428.0000000 1.0000000000
 1648.5000000 44.813999176 -76.20099640 4.0000000000 22.000000000 2428.0000000 1.0000000000
 1648.6250000 45.838001251 -76.41600037 4.0000000000 22.000000000 2428.0000000 1.0000000000
 1648.7500000 47.025001526 -76.70500183 4.0000000000 22.000000000 2428.0000000 1.0000000000
 1648.8750000 48.715999603 -77.00399780 4.0000000000 22.000000000 2428.0000000 1.0000000000
 1649.0000000 50.933998108 -77.15200043 4.0000000000 22.000000000 2428.0000000 1.0000000000
 1649.1250000 52.494998932 -77.05699921 4.0000000000 22.000000000 2428.0000000 1.0000000000
 1649.2500000 53.619998932 -76.70700073 4.0000000000 22.000000000 2428.0000000 1.0000000000
 1649.3750000 54.527999878 -76.29000092 4.0000000000 22.000000000 2428.0000000 1.0000000000
 1649.5000000 55.118999481 -76.00299835 4.0000000000 22.000000000 2428.0000000 1.0000000000
 1649.6250000 55.520999908 -76.01999664 4.0000000000 22.000000000 2428.0000000 1.0000000000
 1649.7500000 56.159000397 -76.29799652 4.0000000000 22.000000000 2428.0000000 1.0000000000
 1649.8750000 56.911998749 -76.57199860 4.0000000000 22.000000000 2428.0000000 1.0000000000
 1650.0000000 57.395999908 -76.68099976 4.0000000000 22.000000000 2428.0000000 1.0000000000
 1650.1250000 57.962001801 -76.55100250 4.0000000000 22.000000000 2428.0000000 1.0000000000
 1650.2500000 59.020000458 -76.38500214 4.0000000000 22.000000000 2428.0000000 1.0000000000
 1650.3750000 61.377998352 -76.35800171 4.0000000000 22.000000000 2428.0000000 1.0000000000
 1650.5000000 64.875000000 -76.55000305 4.0000000000 22.000000000 2428.0000000 1.0000000000
 1650.6250000 68.194000244 -76.86599731 4.0000000000 22.000000000 2428.0000000 1.0000000000
 1650.7500000 70.386001587 -77.16999817 4.0000000000 22.000000000 2428.0000000 1.0000000000
 1650.8750000 70.915000916 -77.43499756 4.0000000000 22.000000000 2428.0000000 1.0000000000
 1651.0000000 67.830001831 -77.57199860 4.0000000000 22.000000000 2428.0000000 1.0000000000
 1651.1250000 61.090999603 -77.51799774 4.0000000000 22.000000000 2428.0000000 1.0000000000
 1651.2500000 53.383998871 -77.21099854 4.0000000000 22.000000000 2428.0000000 1.0000000000
 1651.3750000 45.870998383 -76.78900146 4.0000000000 22.000000000 2428.0000000 1.0000000000
 1651.5000000 40.798999786 -76.36100006 4.0000000000 22.000000000 2428.0000000 1.0000000000
 1651.6250000 39.910999298 -75.95099640 4.0000000000 22.000000000 2428.0000000 1.0000000000
 1651.7500000 40.090000153 -75.50700378 4.0000000000 22.000000000 2428.0000000 1.0000000000
 1651.8750000 39.783000946 -75.06600189 4.0000000000 22.000000000 2428.0000000 1.0000000000
 1652.0000000 38.172000885 -74.74600220 4.0000000000 22.000000000 2428.0000000 1.0000000000
 1652.1250000 35.736000061 -74.60600281 4.0000000000 22.000000000 2428.0000000 1.0000000000
 1652.2500000 34.233001709 -74.57900238 4.0000000000 22.000000000 2428.0000000 1.0000000000
 1652.3750000 33.965999603 -74.44300079 4.0000000000 22.000000000 2428.0000000 1.0000000000
 1652.5000000 34.942001343 -74.09400177 4.0000000000 22.000000000 2428.0000000 1.0000000000
 1652.6250000 36.686000824 -73.63099670 4.0000000000 22.000000000 2428.0000000 1.0000000000
 1652.7500000 37.386001587 -73.45800018 4.0000000000 22.000000000 2428.0000000 1.0000000000
 1652.8750000 36.651000977 -73.87699890 4.0000000000 22.000000000 2428.0000000 1.0000000000
 1653.0000000 35.223999023 -74.73200226 4.0000000000 22.000000000 2428.0000000 1.0000000000
 1653.1250000 32.916000366 -75.56199646 4.0000000000 22.000000000 2428.0000000 1.0000000000
 1653.2500000 31.000000000 -75.86299896 4.0000000000 22.000000000 2428.0000000 1.0000000000
 1653.3750000 30.322000504 -75.53399658 4.0000000000 22.000000000 2428.0000000 1.0000000000
 1653.5000000 30.128000259 -74.77999878 4.0000000000 22.000000000 2428.0000000 1.0000000000
 1653.6250000 30.062000275 -74.02600098 4.0000000000 22.000000000 2428.0000000 1.0000000000
 1653.7500000 30.455999374 -73.63999939 4.0000000000 22.000000000 2428.0000000 1.0000000000
 1653.8750000 31.402000427 -73.82399750 4.0000000000 22.000000000 2428.0000000 1.0000000000
 1654.0000000 32.384998322 -74.43900299 4.0000000000 22.000000000 2428.0000000 1.0000000000
 1654.1250000 33.451999664 -75.04900360 4.0000000000 22.000000000 2428.0000000 1.0000000000
 1654.2500000 34.916999817 -75.23400116 4.0000000000 22.000000000 2428.0000000 1.0000000000
 1654.3750000 36.321998596 -74.86299896 4.0000000000 22.000000000 2428.0000000 1.0000000000
 1654.5000000 37.594001770 -74.26100159 4.0000000000 22.000000000 2428.0000000 1.0000000000
 1654.6250000 39.875000000 -73.93800354 4.0000000000 22.000000000 2428.0000000 1.0000000000
 1654.7500000 43.173999786 -74.30599976 4.0000000000 22.000000000 2428.0000000 1.0000000000
 1654.8750000 46.755001068 -75.26499939 4.0000000000 22.000000000 2428.0000000 1.0000000000
 1655.0000000 49.541999817 -76.40499878 4.0000000000 22.000000000 2428.0000000 1.0000000000
 1655.1250000 52.181999207 -77.33999634 4.0000000000 22.000000000 2428.0000000 1.0000000000
 1655.2500000 53.249000549 -77.89199829 4.0000000000 22.000000000 2428.0000000 1.0000000000
 1655.3750000 53.102001190 -78.14299774 4.0000000000 22.000000000 2428.0000000 1.0000000000
 1655.5000000 51.994998932 -78.18800354 4.0000000000 22.000000000 2428.0000000 1.0000000000
 1655.6250000 51.446998596 -78.18900299 4.0000000000 22.000000000 2428.0000000 1.0000000000
 1655.7500000 51.794998169 -78.10299683 4.0000000000 22.000000000 2428.0000000 1.0000000000
 1655.8750000 52.423000336 -77.89900208 4.0000000000 22.000000000 2428.0000000 1.0000000000
 1656.0000000 53.570999146 -77.64399719 4.0000000000 22.000000000 2428.0000000 1.0000000000
 1656.1250000 54.520000458 -77.36000061 4.0000000000 22.000000000 2428.0000000 1.0000000000
 1656.2500000 55.181999207 -77.03700256 4.0000000000 22.000000000 2428.0000000 1.0000000000
 1656.3750000 56.682998657 -76.58499908 4.0000000000 22.000000000 2428.0000000 1.0000000000
 1656.5000000 60.933998108 -76.10700226 4.0000000000 22.000000000 2428.0000000 1.0000000000
 1656.6250000 65.571998596 -75.62300110 4.0000000000 22.000000000 2428.0000000 1.0000000000
 1656.7500000 70.206001282 -75.30999756 4.0000000000 22.000000000 2428.0000000 1.0000000000
 1656.8750000 72.549003601 -75.05000305 4.0000000000 22.000000000 2428.0000000 1.0000000000
 1657.0000000 70.239997864 -74.77899933 4.0000000000 22.000000000 2428.0000000 1.0000000000
 1657.1250000 65.790000916 -74.35099792 4.0000000000 22.000000000 2428.0000000 1.0000000000
 1657.2500000 62.902999878 -73.90799713 4.0000000000 22.000000000 2428.0000000 1.0000000000
 1657.3750000 60.564998627 -73.55100250 4.0000000000 22.000000000 2428.0000000 1.0000000000
 1657.5000000 59.222999573 -73.23500061 4.0000000000 22.000000000 2428.0000000 1.0000000000
 1657.6250000 56.672000885 -72.84799957 4.0000000000 22.000000000 2428.0000000 1.0000000000
 1657.7500000 53.397998810 -72.30200195 4.0000000000 22.000000000 2428.0000000 1.0000000000
 1657.8750000 49.991001129 -71.60500336 4.0000000000 22.000000000 2428.0000000 1.0000000000
 1658.0000000 46.464000702 -70.78500366 4.0000000000 22.000000000 2428.0000000 1.0000000000
 1658.1250000 43.848999023 -69.96499634 4.0000000000 22.000000000 2428.0000000 1.0000000000
 1658.2500000 41.925998688 -69.33699799 4.0000000000 22.000000000 2428.0000000 1.0000000000
 1658.3750000 40.730998993 -69.06199646 4.0000000000 22.000000000 2428.0000000 1.0000000000
 1658.5000000 40.513999939 -69.37599945 4.0000000000 22.000000000 2428.0000000 1.0000000000
 1658.6250000 41.256999969 -70.33499908 4.0000000000 22.000000000 2428.0000000 1.0000000000
 1658.7500000 43.054000854 -71.77799988 4.0000000000 22.000000000 2428.0000000 1.0000000000
 1658.8750000 45.255001068 -73.24700165 4.0000000000 22.000000000 2428.0000000 1.0000000000
 1659.0000000 46.768001556 -74.52999878 4.0000000000 22.000000000 2428.0000000 1.0000000000
 1659.1250000 46.590000153 -75.63999939 4.0000000000 22.000000000 2428.0000000 1.0000000000
