# LAS format log file from PETREL
# Project units are specified as depth units
#==================================================================
~Version information
VERS.   2.0:
WRAP.   NO:
#==================================================================
~Well
STRT .m      1510.0000000 :
STOP .m      1750.0000000 :
STEP .m     0.12500000 :
NULL .        -999.250000 :
COMP.           : COMPANY
WELL.  5-0165C   : WELL
FLD.            : FIELD
LOC.            : LOCATION
SRVC.           : SERVICE COMPANY
DATE.  2020-03-08 09:25:09   : Log Export Date {yyyy-MM-dd HH:mm:ss}
PROV.           : PROVINCE
UWI.      : UNIQUE WELL ID
API.            : API NUMBER
#==================================================================
~Curve
DEPT .m                   : DEPTH
RT .ohm.m                 : RT
SP .                      : SP
Fluids .                  : Fluids
POR .m3/m3                : POR
PERM .mD                  : PERM
Lith .                    : Lith
~Parameter
#==================================================================
~Ascii
# ...
 1694.8750000 20.341999054 18.025999069 4.0000000000 22.000000000 2342.0000000 1.0000000000
 1695.0000000 22.131000519 18.093000412 4.0000000000 22.000000000 2342.0000000 1.0000000000
 1695.1250000 23.073999405 18.146999359 4.0000000000 22.000000000 2342.0000000 1.0000000000
 1695.2500000 23.357000351 18.010000229 4.0000000000 22.000000000 2342.0000000 1.0000000000
 1695.3750000 22.881000519 17.805999756 4.0000000000 22.000000000 2342.0000000 1.0000000000
 1695.5000000 22.253999710 17.649999619 4.0000000000 22.000000000 2342.0000000 1.0000000000
 1695.6250000 27.264999390 17.278999329 4.0000000000 22.000000000 2342.0000000 1.0000000000
 1695.7500000 31.284999847 17.135000229 4.0000000000 22.000000000 2342.0000000 1.0000000000
 1695.8750000 32.895000458 17.063999176 4.0000000000 22.000000000 2342.0000000 1.0000000000
 1696.0000000 33.425998688 17.006999969 4.0000000000 22.000000000 2342.0000000 1.0000000000
 1696.1250000 33.241001129 16.995000839 4.0000000000 22.000000000 2342.0000000 1.0000000000
 1696.2500000 29.781999588 17.024999619 4.0000000000 22.000000000 2342.0000000 1.0000000000
 1696.3750000 28.347999573 17.028999329 4.0000000000 22.000000000 2342.0000000 1.0000000000
 1696.5000000 28.827999115 17.000999451 4.0000000000 22.000000000 2342.0000000 1.0000000000
 1696.6250000 30.374000549 16.992000580 4.0000000000 22.000000000 2342.0000000 1.0000000000
 1696.7500000 31.346000671 16.990999222 4.0000000000 22.000000000 2342.0000000 1.0000000000
 1696.8750000 31.837999344 17.027000427 4.0000000000 22.000000000 2342.0000000 1.0000000000
 1697.0000000 31.260999680 17.030000687 4.0000000000 22.000000000 2342.0000000 1.0000000000
 1697.1250000 30.076999664 17.062999725 4.0000000000 22.000000000 2342.0000000 1.0000000000
 1697.2500000 19.822999954 17.101999283 4.0000000000 22.000000000 2342.0000000 1.0000000000
 1697.3750000 17.392999649 17.167999268 4.0000000000 22.000000000 2342.0000000 1.0000000000
 1697.5000000 17.180000305 17.245000839 4.0000000000 22.000000000 2342.0000000 1.0000000000
 1697.6250000 17.127000809 17.267000198 4.0000000000 22.000000000 2342.0000000 1.0000000000
 1697.7500000 17.069000244 17.268999100 4.0000000000 22.000000000 2342.0000000 1.0000000000
 1697.8750000 17.062000275 17.301000595 4.0000000000 22.000000000 2342.0000000 1.0000000000
 1698.0000000 23.851999283 17.392999649 4.0000000000 22.000000000 2342.0000000 1.0000000000
 1698.1250000 27.023000717 17.489000320 4.0000000000 22.000000000 2342.0000000 1.0000000000
 1698.2500000 28.207000732 17.627000809 4.0000000000 22.000000000 2342.0000000 1.0000000000
 1698.3750000 28.813999176 17.870000839 4.0000000000 22.000000000 2342.0000000 1.0000000000
 1698.5000000 29.122999191 18.256999969 4.0000000000 22.000000000 2342.0000000 1.0000000000
 1698.6250000 24.246000290 18.548000336 4.0000000000 22.000000000 2342.0000000 1.0000000000
 1698.7500000 22.840000153 18.746000290 4.0000000000 22.000000000 2342.0000000 1.0000000000
 1698.8750000 22.336999893 18.972999573 4.0000000000 22.000000000 2342.0000000 1.0000000000
 1699.0000000 25.177000046 19.150999069 4.0000000000 22.000000000 2342.0000000 1.0000000000
 1699.1250000 25.742000580 19.316999435 4.0000000000 22.000000000 2342.0000000 1.0000000000
 1699.2500000 26.211000443 19.430999756 4.0000000000 22.000000000 2342.0000000 1.0000000000
 1699.3750000 26.944000244 19.396999359 4.0000000000 22.000000000 2342.0000000 1.0000000000
 1699.5000000 27.399999619 19.351999283 4.0000000000 22.000000000 2342.0000000 1.0000000000
 1699.6250000 27.146999359 19.156000137 4.0000000000 22.000000000 2342.0000000 1.0000000000
 1699.7500000 26.510999680 18.922000885 4.0000000000 22.000000000 2342.0000000 1.0000000000
 1699.8750000 35.094001770 18.600000381 4.0000000000 22.000000000 2342.0000000 1.0000000000
 1700.0000000 38.027999878 18.507999420 4.0000000000 22.000000000 2342.0000000 1.0000000000
 1700.1250000 40.215000153 18.402999878 4.0000000000 22.000000000 2342.0000000 1.0000000000
 1700.2500000 39.726001740 18.391000748 4.0000000000 22.000000000 2342.0000000 1.0000000000
 1700.3750000 38.935001373 18.450000763 4.0000000000 22.000000000 2342.0000000 1.0000000000
 1700.5000000 32.048999786 18.655000687 4.0000000000 22.000000000 2342.0000000 1.0000000000
 1700.6250000 21.305000305 18.853000641 4.0000000000 22.000000000 2342.0000000 1.0000000000
 1700.7500000 19.250999451 19.134000778 4.0000000000 22.000000000 2342.0000000 1.0000000000
 1700.8750000 18.912000656 19.447999954 4.0000000000 22.000000000 2342.0000000 1.0000000000
 1701.0000000 18.742000580 19.642999649 4.0000000000 22.000000000 2342.0000000 1.0000000000
 1701.1250000 25.284999847 19.627000809 4.0000000000 22.000000000 2342.0000000 1.0000000000
 1701.2500000 26.934000015 19.437000275 4.0000000000 22.000000000 2342.0000000 1.0000000000
 1701.3750000 27.868999481 19.267000198 4.0000000000 22.000000000 2342.0000000 1.0000000000
 1701.5000000 28.711999893 19.038999557 4.0000000000 22.000000000 2342.0000000 1.0000000000
 1701.6250000 29.584999084 18.826999664 4.0000000000 22.000000000 2342.0000000 1.0000000000
 1701.7500000 30.528999329 18.509000778 4.0000000000 22.000000000 2342.0000000 1.0000000000
 1701.8750000 31.246999741 17.836000443 4.0000000000 22.000000000 2342.0000000 1.0000000000
 1702.0000000 31.878999710 17.257999420 4.0000000000 22.000000000 2342.0000000 1.0000000000
 1702.1250000 32.285999298 16.791999817 4.0000000000 22.000000000 2342.0000000 1.0000000000
 1702.2500000 30.693000793 16.558000565 4.0000000000 22.000000000 2342.0000000 1.0000000000
 1702.3750000 24.646999359 16.349000931 4.0000000000 22.000000000 2342.0000000 1.0000000000
 1702.5000000 23.493999481 16.315000534 4.0000000000 22.000000000 2342.0000000 1.0000000000
 1702.6250000 22.916999817 16.372999191 4.0000000000 22.000000000 2342.0000000 1.0000000000
 1702.7500000 24.594999313 16.451000214 4.0000000000 22.000000000 2342.0000000 1.0000000000
 1702.8750000 26.128999710 16.597000122 4.0000000000 22.000000000 2342.0000000 1.0000000000
 1703.0000000 25.524000168 16.802000046 4.0000000000 22.000000000 2342.0000000 1.0000000000
 1703.1250000 21.000000000 17.010999680 4.0000000000 22.000000000 2342.0000000 1.0000000000
 1703.2500000 20.336000443 17.315000534 4.0000000000 22.000000000 2342.0000000 1.0000000000
 1703.3750000 20.097000122 17.600000381 4.0000000000 22.000000000 2342.0000000 1.0000000000
 1703.5000000 20.841999054 17.976999283 4.0000000000 22.000000000 2342.0000000 1.0000000000
 1703.6250000 22.965999603 18.224000931 4.0000000000 22.000000000 2342.0000000 1.0000000000
 1703.7500000 23.681999207 18.399000168 4.0000000000 22.000000000 2342.0000000 1.0000000000
 1703.8750000 23.603000641 18.538000107 4.0000000000 22.000000000 2342.0000000 1.0000000000
 1704.0000000 22.857999802 18.693000793 4.0000000000 22.000000000 2342.0000000 1.0000000000
 1704.1250000 21.818000793 18.850999832 4.0000000000 22.000000000 2342.0000000 1.0000000000
 1704.2500000 18.198999405 18.958999634 4.0000000000 22.000000000 2342.0000000 1.0000000000
 1704.3750000 16.489999771 19.079999924 4.0000000000 22.000000000 2342.0000000 1.0000000000
 1704.5000000 14.508999825 19.166999817 4.0000000000 22.000000000 2342.0000000 1.0000000000
 1704.6250000 13.958000183 19.301000595 4.0000000000 22.000000000 2342.0000000 1.0000000000
 1704.7500000 22.090999603 19.384000778 4.0000000000 22.000000000 2342.0000000 1.0000000000
 1704.8750000 24.698999405 19.465999603 4.0000000000 22.000000000 2342.0000000 1.0000000000
 1705.0000000 25.406000137 19.572999954 4.0000000000 22.000000000 2342.0000000 1.0000000000
 1705.1250000 25.156000137 19.711999893 4.0000000000 22.000000000 2342.0000000 1.0000000000
 1705.2500000 24.687000275 19.777999878 4.0000000000 22.000000000 2342.0000000 1.0000000000
 1705.3750000 24.120000839 19.641000748 4.0000000000 22.000000000 2342.0000000 1.0000000000
 1705.5000000 23.382999420 19.406999588 4.0000000000 22.000000000 2342.0000000 1.0000000000
 1705.6250000 18.028999329 19.201000214 4.0000000000 22.000000000 2342.0000000 1.0000000000
