# LAS format log file from PETREL
# Project units are specified as depth units
#==================================================================
~Version information
VERS.   2.0:
WRAP.   NO:
#==================================================================
~Well
STRT .m      1450.0000000 :
STOP .m      1760.0000000 :
STEP .m     0.12500000 :
NULL .        -999.250000 :
COMP.           : COMPANY
WELL.  5-0172C   : WELL
FLD.            : FIELD
LOC.            : LOCATION
SRVC.           : SERVICE COMPANY
DATE.  2020-03-08 09:25:09   : Log Export Date {yyyy-MM-dd HH:mm:ss}
PROV.           : PROVINCE
UWI.      : UNIQUE WELL ID
API.            : API NUMBER
#==================================================================
~Curve
DEPT .m                   : DEPTH
RT .ohm.m                 : RT
SP .                      : SP
Fluids .                  : Fluids
POR .m3/m3                : POR
PERM .mD                  : PERM
Lith .                    : Lith
~Parameter
#==================================================================
~Ascii
# ...
 1689.2500000 52.939998627 10.664999962 4.0000000000 23.000000000 3152.0000000 1.0000000000
 1689.3750000 52.783000946 10.795000076 4.0000000000 23.000000000 3152.0000000 1.0000000000
 1689.5000000 52.504001617 10.897999763 4.0000000000 23.000000000 3152.0000000 1.0000000000
 1689.6250000 52.217998505 11.029000282 4.0000000000 23.000000000 3152.0000000 1.0000000000
 1689.7500000 51.929000854 11.170999527 4.0000000000 23.000000000 3152.0000000 1.0000000000
 1689.8750000 51.567001343 11.272999763 4.0000000000 23.000000000 3152.0000000 1.0000000000
 1690.0000000 51.215999603 11.371999741 4.0000000000 23.000000000 3152.0000000 1.0000000000
 1690.1250000 50.865001678 11.541000366 4.0000000000 23.000000000 3152.0000000 1.0000000000
 1690.2500000 50.523998260 11.656999588 4.0000000000 23.000000000 3152.0000000 1.0000000000
 1690.3750000 50.280998230 11.793000221 4.0000000000 23.000000000 3152.0000000 1.0000000000
 1690.5000000 50.062000275 11.935000420 4.0000000000 23.000000000 3152.0000000 1.0000000000
 1690.6250000 49.856998444 12.048999786 4.0000000000 23.000000000 3152.0000000 1.0000000000
 1690.7500000 49.756999969 12.180999756 4.0000000000 23.000000000 3152.0000000 1.0000000000
 1690.8750000 49.658000946 12.314000130 4.0000000000 23.000000000 3152.0000000 1.0000000000
 1691.0000000 49.560001373 12.458000183 4.0000000000 23.000000000 3152.0000000 1.0000000000
 1691.1250000 49.387001038 12.604999542 4.0000000000 23.000000000 3152.0000000 1.0000000000
 1691.2500000 49.319999695 12.711000443 4.0000000000 23.000000000 3152.0000000 1.0000000000
 1691.3750000 49.153999329 12.845999718 4.0000000000 23.000000000 3152.0000000 1.0000000000
 1691.5000000 49.023998260 12.987999916 4.0000000000 23.000000000 3152.0000000 1.0000000000
 1691.6250000 48.768001556 13.133000374 4.0000000000 23.000000000 3152.0000000 1.0000000000
 1691.7500000 48.574001312 13.279000282 4.0000000000 23.000000000 3152.0000000 1.0000000000
 1691.8750000 48.293998718 13.425999641 4.0000000000 23.000000000 3152.0000000 1.0000000000
 1692.0000000 48.067001343 13.607999802 4.0000000000 23.000000000 3152.0000000 1.0000000000
 1692.1250000 47.811000824 13.810999870 4.0000000000 23.000000000 3152.0000000 1.0000000000
 1692.2500000 47.536998749 13.975000381 4.0000000000 23.000000000 3152.0000000 1.0000000000
 1692.3750000 47.310001373 14.168000221 4.0000000000 23.000000000 3152.0000000 1.0000000000
 1692.5000000 47.305999756 14.376000404 4.0000000000 23.000000000 3152.0000000 1.0000000000
 1692.6250000 47.303001404 14.592000008 4.0000000000 23.000000000 3152.0000000 1.0000000000
 1692.7500000 47.361999512 14.755999565 4.0000000000 23.000000000 3152.0000000 1.0000000000
 1692.8750000 47.519001007 14.932000160 4.0000000000 23.000000000 3152.0000000 1.0000000000
 1693.0000000 47.638999939 15.107999802 4.0000000000 23.000000000 3152.0000000 1.0000000000
 1693.1250000 47.804000854 15.319999695 4.0000000000 23.000000000 3152.0000000 1.0000000000
 1693.2500000 47.983001709 15.539999962 4.0000000000 23.000000000 3152.0000000 1.0000000000
 1693.3750000 48.256999969 15.718999863 4.0000000000 23.000000000 3152.0000000 1.0000000000
 1693.5000000 48.506999969 15.876000404 4.0000000000 23.000000000 3152.0000000 1.0000000000
 1693.6250000 48.810001373 15.987999916 4.0000000000 23.000000000 3152.0000000 1.0000000000
 1693.7500000 49.240001678 16.090999603 4.0000000000 23.000000000 3152.0000000 1.0000000000
 1693.8750000 49.777999878 16.215999603 4.0000000000 23.000000000 3152.0000000 1.0000000000
 1694.0000000 50.310001373 16.311000824 4.0000000000 23.000000000 3152.0000000 1.0000000000
 1694.1250000 50.978000641 16.408000946 4.0000000000 23.000000000 3152.0000000 1.0000000000
 1694.2500000 51.558998108 16.492000580 4.0000000000 23.000000000 3152.0000000 1.0000000000
 1694.3750000 51.986999512 16.520999908 4.0000000000 23.000000000 3152.0000000 1.0000000000
 1694.5000000 52.222999573 16.524999619 4.0000000000 23.000000000 3152.0000000 1.0000000000
 1694.6250000 52.404998779 16.476999283 4.0000000000 23.000000000 3152.0000000 1.0000000000
 1694.7500000 52.585998535 16.382999420 4.0000000000 23.000000000 3152.0000000 1.0000000000
 1694.8750000 52.680999756 16.298000336 4.0000000000 23.000000000 3152.0000000 1.0000000000
 1695.0000000 52.772998810 16.195999146 4.0000000000 23.000000000 3152.0000000 1.0000000000
 1695.1250000 52.883998871 16.059999466 4.0000000000 23.000000000 3152.0000000 1.0000000000
 1695.2500000 52.984001160 15.906000137 4.0000000000 23.000000000 3152.0000000 1.0000000000
 1695.3750000 53.127998352 15.748999596 4.0000000000 23.000000000 3152.0000000 1.0000000000
 1695.5000000 53.209999084 15.532999992 4.0000000000 23.000000000 3152.0000000 1.0000000000
 1695.6250000 53.346000671 15.369999886 4.0000000000 23.000000000 3152.0000000 1.0000000000
 1695.7500000 53.562999725 15.090999603 4.0000000000 23.000000000 3152.0000000 1.0000000000
 1695.8750000 53.817001343 14.482999802 4.0000000000 23.000000000 3152.0000000 1.0000000000
 1696.0000000 53.953998566 13.892999649 4.0000000000 23.000000000 3152.0000000 1.0000000000
 1696.1250000 54.236999512 13.312999725 4.0000000000 23.000000000 3152.0000000 1.0000000000
 1696.2500000 54.708000183 12.982999802 4.0000000000 23.000000000 3152.0000000 1.0000000000
 1696.3750000 55.070999146 12.652000427 4.0000000000 23.000000000 3152.0000000 1.0000000000
 1696.5000000 55.394001007 12.265999794 4.0000000000 23.000000000 3152.0000000 1.0000000000
 1696.6250000 55.716999054 11.907999992 4.0000000000 23.000000000 3152.0000000 1.0000000000
 1696.7500000 56.155998230 11.569999695 4.0000000000 23.000000000 3152.0000000 1.0000000000
 1696.8750000 56.550998688 11.192000389 4.0000000000 23.000000000 3152.0000000 1.0000000000
 1697.0000000 56.923000336 10.947999954 4.0000000000 23.000000000 3152.0000000 1.0000000000
 1697.1250000 57.194999695 10.656000137 4.0000000000 23.000000000 3152.0000000 1.0000000000
 1697.2500000 57.465999603 10.342000008 4.0000000000 23.000000000 3152.0000000 1.0000000000
 1697.3750000 57.680000305 10.180999756 4.0000000000 23.000000000 3152.0000000 1.0000000000
 1697.5000000 57.805000305 10.055999756 4.0000000000 23.000000000 3152.0000000 1.0000000000
 1697.6250000 57.924999237 9.9139995575 4.0000000000 23.000000000 3152.0000000 1.0000000000
 1697.7500000 57.960998535 9.8070001602 4.0000000000 23.000000000 3152.0000000 1.0000000000
 1697.8750000 57.965000153 9.7010002136 4.0000000000 23.000000000 3152.0000000 1.0000000000
 1698.0000000 57.733001709 9.6099996567 4.0000000000 23.000000000 3152.0000000 1.0000000000
 1698.1250000 57.430999756 9.5459995270 4.0000000000 23.000000000 3152.0000000 1.0000000000
 1698.2500000 57.133998871 9.4729995728 4.0000000000 23.000000000 3152.0000000 1.0000000000
 1698.3750000 56.951999664 9.4139995575 4.0000000000 23.000000000 3152.0000000 1.0000000000
 1698.5000000 56.714000702 9.3859996796 4.0000000000 23.000000000 3152.0000000 1.0000000000
 1698.6250000 56.502998352 9.3769998550 4.0000000000 23.000000000 3152.0000000 1.0000000000
 1698.7500000 56.305000305 9.3710002899 4.0000000000 23.000000000 3152.0000000 1.0000000000
 1698.8750000 56.110000610 9.3669996262 4.0000000000 23.000000000 3152.0000000 1.0000000000
 1699.0000000 55.847999573 9.3640003204 4.0000000000 23.000000000 3152.0000000 1.0000000000
 1699.1250000 55.687000275 9.3599996567 4.0000000000 23.000000000 3152.0000000 1.0000000000
 1699.2500000 55.526000977 9.3249998093 4.0000000000 23.000000000 3152.0000000 1.0000000000
 1699.3750000 55.333999634 9.3050003052 4.0000000000 23.000000000 3152.0000000 1.0000000000
 1699.5000000 55.143001556 9.3339996338 4.0000000000 23.000000000 3152.0000000 1.0000000000
 1699.6250000 54.986000061 9.3760004044 4.0000000000 23.000000000 3152.0000000 1.0000000000
 1699.7500000 54.828998566 9.4329996109 4.0000000000 23.000000000 3152.0000000 1.0000000000
 1699.8750000 54.638000488 9.4840002060 4.0000000000 23.000000000 3152.0000000 1.0000000000
 1700.0000000 54.445999146 9.5329999924 4.0000000000 23.000000000 3152.0000000 1.0000000000
