# LAS format log file from PETREL
# Project units are specified as depth units
#==================================================================
~Version information
VERS.   2.0:
WRAP.   NO:
#==================================================================
~Well
STRT .m      1450.0000000 :
STOP .m      1760.0000000 :
STEP .m     0.12500000 :
NULL .        -999.250000 :
COMP.           : COMPANY
WELL.  5-0172C   : WELL
FLD.            : FIELD
LOC.            : LOCATION
SRVC.           : SERVICE COMPANY
DATE.  2020-03-08 09:25:09   : Log Export Date {yyyy-MM-dd HH:mm:ss}
PROV.           : PROVINCE
UWI.      : UNIQUE WELL ID
API.            : API NUMBER
#==================================================================
~Curve
DEPT .m                   : DEPTH
RT .ohm.m                 : RT
SP .                      : SP
Fluids .                  : Fluids
POR .m3/m3                : POR
PERM .mD                  : PERM
Lith .                    : Lith
~Parameter
#==================================================================
~Ascii
# ...
 1591.3750000 13.234000206 8.8420000076 4.0000000000 27.000000000 7378.0000000 1.0000000000
 1591.5000000 12.723999977 8.9300003052 4.0000000000 27.000000000 7378.0000000 1.0000000000
 1591.6250000 12.315999985 9.0520000458 4.0000000000 27.000000000 7378.0000000 1.0000000000
 1591.7500000 12.020000458 9.2849998474 4.0000000000 27.000000000 7378.0000000 1.0000000000
 1591.8750000 11.873000145 9.4540004730 4.0000000000 27.000000000 7378.0000000 1.0000000000
 1592.0000000 11.803999901 9.5450000763 4.0000000000 27.000000000 7378.0000000 1.0000000000
 1592.1250000 11.782999992 9.6370000839 4.0000000000 27.000000000 7378.0000000 1.0000000000
 1592.2500000 11.770999908 9.6429996490 4.0000000000 27.000000000 7378.0000000 1.0000000000
 1592.3750000 11.765000343 9.6440000534 4.0000000000 27.000000000 7378.0000000 1.0000000000
 1592.5000000 11.890000343 9.6420001984 4.0000000000 27.000000000 7378.0000000 1.0000000000
 1592.6250000 11.975999832 9.6009998322 4.0000000000 27.000000000 7378.0000000 1.0000000000
 1592.7500000 12.083999634 9.5860004425 4.0000000000 27.000000000 7378.0000000 1.0000000000
 1592.8750000 12.293000221 9.5389995575 4.0000000000 27.000000000 7378.0000000 1.0000000000
 1593.0000000 12.380000114 9.4729995728 4.0000000000 27.000000000 7378.0000000 1.0000000000
 1593.1250000 12.534999847 9.3769998550 4.0000000000 27.000000000 7378.0000000 1.0000000000
 1593.2500000 12.765000343 9.2469997406 4.0000000000 27.000000000 7378.0000000 1.0000000000
 1593.3750000 12.970000267 8.9930000305 4.0000000000 27.000000000 7378.0000000 1.0000000000
 1593.5000000 13.145000458 8.7159996033 4.0000000000 27.000000000 7378.0000000 1.0000000000
 1593.6250000 13.350000381 8.4580001831 4.0000000000 27.000000000 7378.0000000 1.0000000000
 1593.7500000 13.572999954 8.2679996490 4.0000000000 27.000000000 7378.0000000 1.0000000000
 1593.8750000 13.838000298 8.0939998627 4.0000000000 27.000000000 7378.0000000 1.0000000000
 1594.0000000 14.159999847 7.9759998322 4.0000000000 27.000000000 7378.0000000 1.0000000000
 1594.1250000 14.545000076 7.9079999924 4.0000000000 27.000000000 7378.0000000 1.0000000000
 1594.2500000 15.038999557 7.8319997787 4.0000000000 27.000000000 7378.0000000 1.0000000000
 1594.3750000 15.392999649 7.7729997635 4.0000000000 27.000000000 7378.0000000 1.0000000000
 1594.5000000 15.862000465 7.7020001411 4.0000000000 27.000000000 7378.0000000 1.0000000000
 1594.6250000 16.325000763 7.6040000916 4.0000000000 27.000000000 7378.0000000 1.0000000000
 1594.7500000 17.034999847 7.5159997940 4.0000000000 27.000000000 7378.0000000 1.0000000000
 1594.8750000 18.125999451 7.4539999962 4.0000000000 27.000000000 7378.0000000 1.0000000000
 1595.0000000 19.100999832 7.3819999695 4.0000000000 27.000000000 7378.0000000 1.0000000000
 1595.1250000 20.361999512 7.3569998741 4.0000000000 27.000000000 7378.0000000 1.0000000000
 1595.2500000 21.809000015 7.3509998322 4.0000000000 27.000000000 7378.0000000 1.0000000000
 1595.3750000 24.670999527 7.3090000153 4.0000000000 27.000000000 7378.0000000 1.0000000000
 1595.5000000 27.533000946 7.2890000343 4.0000000000 27.000000000 7378.0000000 1.0000000000
 1595.6250000 29.797000885 7.2800002098 4.0000000000 27.000000000 7378.0000000 1.0000000000
 1595.7500000 31.212999344 7.2760000229 4.0000000000 27.000000000 7378.0000000 1.0000000000
 1595.8750000 32.629001617 7.3220000267 4.0000000000 27.000000000 7378.0000000 1.0000000000
 1596.0000000 33.506999969 7.3689999580 4.0000000000 27.000000000 7378.0000000 1.0000000000
 1596.1250000 34.210998535 7.4320001602 4.0000000000 27.000000000 7378.0000000 1.0000000000
 1596.2500000 34.681999207 7.4429998398 4.0000000000 27.000000000 7378.0000000 1.0000000000
 1596.3750000 35.034000397 7.5139999390 4.0000000000 27.000000000 7378.0000000 1.0000000000
 1596.5000000 35.387001038 7.5859999657 4.0000000000 27.000000000 7378.0000000 1.0000000000
 1596.6250000 35.710998535 7.6589999199 4.0000000000 27.000000000 7378.0000000 1.0000000000
 1596.7500000 36.048999786 7.6739997864 4.0000000000 27.000000000 7378.0000000 1.0000000000
 1596.8750000 36.394001007 7.6779999733 4.0000000000 27.000000000 7378.0000000 1.0000000000
 1597.0000000 36.708000183 7.7069997787 4.0000000000 27.000000000 7378.0000000 1.0000000000
 1597.1250000 37.007999420 7.7369999886 4.0000000000 27.000000000 7378.0000000 1.0000000000
 1597.2500000 37.257999420 7.7350001335 4.0000000000 27.000000000 7378.0000000 1.0000000000
 1597.3750000 37.109001160 7.7329998016 4.0000000000 27.000000000 7378.0000000 1.0000000000
 1597.5000000 36.585998535 7.7779998779 4.0000000000 27.000000000 7378.0000000 1.0000000000
 1597.6250000 36.091999054 7.8429999352 4.0000000000 27.000000000 7378.0000000 1.0000000000
 1597.7500000 35.657001495 7.9149999619 4.0000000000 27.000000000 7378.0000000 1.0000000000
 1597.8750000 35.303001404 7.9409999847 4.0000000000 27.000000000 7378.0000000 1.0000000000
 1598.0000000 35.041000366 7.9510002136 4.0000000000 27.000000000 7378.0000000 1.0000000000
 1598.1250000 34.839000702 7.9600000381 4.0000000000 27.000000000 7378.0000000 1.0000000000
 1598.2500000 34.640998840 7.9590001106 4.0000000000 27.000000000 7378.0000000 1.0000000000
 1598.3750000 34.483001709 7.9949998856 4.0000000000 27.000000000 7378.0000000 1.0000000000
 1598.5000000 34.255001068 8.0050001144 4.0000000000 27.000000000 7378.0000000 1.0000000000
 1598.6250000 34.076999664 8.0089998245 4.0000000000 27.000000000 7378.0000000 1.0000000000
 1598.7500000 33.645999908 7.9749999046 4.0000000000 27.000000000 7378.0000000 1.0000000000
 1598.8750000 33.076999664 7.9559998512 4.0000000000 27.000000000 7378.0000000 1.0000000000
 1599.0000000 30.503999710 7.9039998055 4.0000000000 27.000000000 7378.0000000 1.0000000000
 1599.1250000 28.864999771 7.8829998970 4.0000000000 27.000000000 7378.0000000 1.0000000000
 1599.2500000 28.187999725 7.8759999275 4.0000000000 27.000000000 7378.0000000 1.0000000000
 1599.3750000 27.850999832 7.8720002174 4.0000000000 27.000000000 7378.0000000 1.0000000000
 1599.5000000 27.809999466 7.8130002022 4.0000000000 27.000000000 7378.0000000 1.0000000000
 1599.6250000 27.805999756 7.6979999542 4.0000000000 27.000000000 7378.0000000 1.0000000000
 1599.7500000 27.834999084 7.5879998207 4.0000000000 27.000000000 7378.0000000 1.0000000000
 1599.8750000 27.881999969 7.4190001488 4.0000000000 27.000000000 7378.0000000 1.0000000000
 1600.0000000 27.979999542 7.2890000343 4.0000000000 27.000000000 7378.0000000 1.0000000000
 1600.1250000 28.166000366 7.1830000877 4.0000000000 27.000000000 7378.0000000 1.0000000000
 1600.2500000 28.309000015 7.0910000801 4.0000000000 27.000000000 7378.0000000 1.0000000000
 1600.3750000 28.523000717 7.0060000420 4.0000000000 27.000000000 7378.0000000 1.0000000000
 1600.5000000 29.284000397 6.9460000992 4.0000000000 27.000000000 7378.0000000 1.0000000000
 1600.6250000 30.000000000 6.8730001450 4.0000000000 27.000000000 7378.0000000 1.0000000000
 1600.7500000 30.690999985 6.7950000763 4.0000000000 27.000000000 7378.0000000 1.0000000000
 1600.8750000 31.849000931 6.7389998436 4.0000000000 27.000000000 7378.0000000 1.0000000000
 1601.0000000 32.615001678 6.7210001945 4.0000000000 27.000000000 7378.0000000 1.0000000000
 1601.1250000 33.381999969 6.6810002327 4.0000000000 27.000000000 7378.0000000 1.0000000000
 1601.2500000 33.283000946 6.6640000343 4.0000000000 27.000000000 7378.0000000 1.0000000000
 1601.3750000 32.652000427 6.6539998055 4.0000000000 27.000000000 7378.0000000 1.0000000000
 1601.5000000 31.934000015 6.6079998016 4.0000000000 27.000000000 7378.0000000 1.0000000000
 1601.6250000 30.597000122 6.5869998932 4.0000000000 27.000000000 7378.0000000 1.0000000000
 1601.7500000 29.281000137 6.5799999237 4.0000000000 27.000000000 7378.0000000 1.0000000000
 1601.8750000 27.964000702 6.5310001373 4.0000000000 27.000000000 7378.0000000 1.0000000000
 1602.0000000 27.847999573 6.5130000114 4.0000000000 27.000000000 7378.0000000 1.0000000000
 1602.1250000 27.854000092 6.5069999695 4.0000000000 27.000000000 7378.0000000 1.0000000000
