# LAS format log file from PETREL
# Project units are specified as depth units
#==================================================================
~Version information
VERS.   2.0:
WRAP.   NO:
#==================================================================
~Well
STRT .m      1510.0000000 :
STOP .m      1750.0000000 :
STEP .m     0.12500000 :
NULL .        -999.250000 :
COMP.           : COMPANY
WELL.  5-0165C   : WELL
FLD.            : FIELD
LOC.            : LOCATION
SRVC.           : SERVICE COMPANY
DATE.  2020-03-08 09:25:09   : Log Export Date {yyyy-MM-dd HH:mm:ss}
PROV.           : PROVINCE
UWI.      : UNIQUE WELL ID
API.            : API NUMBER
#==================================================================
~Curve
DEPT .m                   : DEPTH
RT .ohm.m                 : RT
SP .                      : SP
Fluids .                  : Fluids
POR .m3/m3                : POR
PERM .mD                  : PERM
Lith .                    : Lith
~Parameter
#==================================================================
~Ascii
# ...
 1640.5000000 10.779000282 21.624000549 4.0000000000 23.000000000 3013.0000000 1.0000000000
 1640.6250000 11.215999603 21.437999725 4.0000000000 23.000000000 3013.0000000 1.0000000000
 1640.7500000 13.274999619 21.224000931 4.0000000000 23.000000000 3013.0000000 1.0000000000
 1640.8750000 13.939999580 20.910999298 4.0000000000 23.000000000 3013.0000000 1.0000000000
 1641.0000000 14.100000381 20.511999130 4.0000000000 23.000000000 3013.0000000 1.0000000000
 1641.1250000 14.060999870 20.080999374 4.0000000000 23.000000000 3013.0000000 1.0000000000
 1641.2500000 14.029999733 19.052000046 4.0000000000 23.000000000 3013.0000000 1.0000000000
 1641.3750000 14.243000031 18.062000275 4.0000000000 23.000000000 3013.0000000 1.0000000000
 1641.5000000 14.758999825 17.472000122 4.0000000000 23.000000000 3013.0000000 1.0000000000
 1641.6250000 16.059999466 17.076000214 4.0000000000 23.000000000 3013.0000000 1.0000000000
 1641.7500000 16.701000214 16.722999573 4.0000000000 23.000000000 3013.0000000 1.0000000000
 1641.8750000 17.158000946 16.708000183 4.0000000000 23.000000000 3013.0000000 1.0000000000
 1642.0000000 17.339000702 16.597000122 4.0000000000 23.000000000 3013.0000000 1.0000000000
 1642.1250000 17.402000427 16.584999084 4.0000000000 23.000000000 3013.0000000 1.0000000000
 1642.2500000 15.347000122 16.777999878 4.0000000000 23.000000000 3013.0000000 1.0000000000
 1642.3750000 13.593000412 17.086999893 4.0000000000 23.000000000 3013.0000000 1.0000000000
 1642.5000000 12.630999565 17.724000931 4.0000000000 23.000000000 3013.0000000 1.0000000000
 1642.6250000 12.081000328 18.524999619 4.0000000000 23.000000000 3013.0000000 1.0000000000
 1642.7500000 11.439999580 19.239000320 4.0000000000 23.000000000 3013.0000000 1.0000000000
 1642.8750000 8.9370002747 19.861999512 4.0000000000 23.000000000 3013.0000000 1.0000000000
 1643.0000000 7.8340001106 20.492000580 4.0000000000 23.000000000 3013.0000000 1.0000000000
 1643.1250000 7.2979998589 20.981000900 4.0000000000 23.000000000 3013.0000000 1.0000000000
 1643.2500000 13.050999641 21.374000549 4.0000000000 23.000000000 3013.0000000 1.0000000000
 1643.3750000 14.782999992 21.731000900 4.0000000000 23.000000000 3013.0000000 1.0000000000
 1643.5000000 15.475999832 21.976999283 4.0000000000 23.000000000 3013.0000000 1.0000000000
 1643.6250000 13.088999748 22.193000793 4.0000000000 23.000000000 3013.0000000 1.0000000000
 1643.7500000 12.437000275 22.403999329 4.0000000000 23.000000000 3013.0000000 1.0000000000
 1643.8750000 12.225000381 22.563999176 4.0000000000 23.000000000 3013.0000000 1.0000000000
 1644.0000000 11.769000053 22.660999298 4.0000000000 23.000000000 3013.0000000 1.0000000000
 1644.1250000 10.939999580 22.759000778 4.0000000000 23.000000000 3013.0000000 1.0000000000
 1644.2500000 11.039999962 22.877000809 4.0000000000 23.000000000 3013.0000000 1.0000000000
 1644.3750000 13.602000237 22.979000092 4.0000000000 23.000000000 3013.0000000 1.0000000000
 1644.5000000 14.161000252 23.048999786 4.0000000000 23.000000000 3013.0000000 1.0000000000
 1644.6250000 12.475999832 23.059000015 4.0000000000 23.000000000 3013.0000000 1.0000000000
 1644.7500000 10.961999893 22.965999603 4.0000000000 23.000000000 3013.0000000 1.0000000000
 1644.8750000 9.6960000992 22.805999756 4.0000000000 23.000000000 3013.0000000 1.0000000000
 1645.0000000 8.2670001984 22.621999741 4.0000000000 23.000000000 3013.0000000 1.0000000000
 1645.1250000 7.3090000153 22.388999939 4.0000000000 23.000000000 3013.0000000 1.0000000000
 1645.2500000 6.9780001640 21.905000687 4.0000000000 23.000000000 3013.0000000 1.0000000000
 1645.3750000 7.2849998474 20.579000473 4.0000000000 23.000000000 3013.0000000 1.0000000000
 1645.5000000 7.7529997826 19.490999222 4.0000000000 23.000000000 3013.0000000 1.0000000000
 1645.6250000 11.232000351 18.417999268 4.0000000000 23.000000000 3013.0000000 1.0000000000
 1645.7500000 11.987999916 17.709999084 4.0000000000 23.000000000 3013.0000000 1.0000000000
 1645.8750000 12.531000137 17.165000916 4.0000000000 23.000000000 3013.0000000 1.0000000000
 1646.0000000 13.133000374 16.704000473 4.0000000000 23.000000000 3013.0000000 1.0000000000
 1646.1250000 13.647000313 16.306999207 4.0000000000 23.000000000 3013.0000000 1.0000000000
 1646.2500000 12.770000458 15.930999756 4.0000000000 23.000000000 3013.0000000 1.0000000000
 1646.3750000 10.965000153 15.829000473 4.0000000000 23.000000000 3013.0000000 1.0000000000
 1646.5000000 9.8760004044 15.821000099 4.0000000000 23.000000000 3013.0000000 1.0000000000
 1646.6250000 8.9770002365 15.779999733 4.0000000000 23.000000000 3013.0000000 1.0000000000
 1646.7500000 8.8549995422 15.843999863 4.0000000000 23.000000000 3013.0000000 1.0000000000
 1646.8750000 8.9820003510 16.159000397 4.0000000000 23.000000000 3013.0000000 1.0000000000
 1647.0000000 13.656999588 16.381000519 4.0000000000 23.000000000 3013.0000000 1.0000000000
 1647.1250000 15.949999809 16.541999817 4.0000000000 23.000000000 3013.0000000 1.0000000000
 1647.2500000 16.392999649 16.677000046 4.0000000000 23.000000000 3013.0000000 1.0000000000
 1647.3750000 16.281999588 16.804000854 4.0000000000 23.000000000 3013.0000000 1.0000000000
 1647.5000000 15.130000114 16.955999374 4.0000000000 23.000000000 3013.0000000 1.0000000000
 1647.6250000 10.116999626 17.052000046 4.0000000000 23.000000000 3013.0000000 1.0000000000
 1647.7500000 8.7760000229 17.211999893 4.0000000000 23.000000000 3013.0000000 1.0000000000
 1647.8750000 7.9320001602 17.375999451 4.0000000000 23.000000000 3013.0000000 1.0000000000
 1648.0000000 7.1690001488 17.551000595 4.0000000000 23.000000000 3013.0000000 1.0000000000
 1648.1250000 6.5640001297 17.733999252 4.0000000000 23.000000000 3013.0000000 1.0000000000
 1648.2500000 6.3850002289 17.893999100 4.0000000000 23.000000000 3013.0000000 1.0000000000
 1648.3750000 6.4320001602 18.024999619 4.0000000000 23.000000000 3013.0000000 1.0000000000
 1648.5000000 6.6550002098 18.222000122 4.0000000000 23.000000000 3013.0000000 1.0000000000
 1648.6250000 6.9250001907 18.409999847 4.0000000000 23.000000000 3013.0000000 1.0000000000
 1648.7500000 7.2600002289 18.447999954 4.0000000000 23.000000000 3013.0000000 1.0000000000
 1648.8750000 7.8689999580 18.483999252 4.0000000000 23.000000000 3013.0000000 1.0000000000
 1649.0000000 10.760000229 18.493000031 4.0000000000 23.000000000 3013.0000000 1.0000000000
 1649.1250000 11.539999962 18.458000183 4.0000000000 23.000000000 3013.0000000 1.0000000000
 1649.2500000 12.571999550 18.194999695 4.0000000000 23.000000000 3013.0000000 1.0000000000
 1649.3750000 13.104999542 17.906999588 4.0000000000 23.000000000 3013.0000000 1.0000000000
 1649.5000000 13.413999557 17.462999344 4.0000000000 23.000000000 3013.0000000 1.0000000000
 1649.6250000 13.677000046 16.902999878 4.0000000000 23.000000000 3013.0000000 1.0000000000
 1649.7500000 13.906000137 16.278999329 4.0000000000 23.000000000 3013.0000000 1.0000000000
 1649.8750000 14.328000069 15.597999573 4.0000000000 23.000000000 3013.0000000 1.0000000000
 1650.0000000 14.583999634 14.911000252 4.0000000000 23.000000000 3013.0000000 1.0000000000
 1650.1250000 14.593000412 13.720999718 4.0000000000 23.000000000 3013.0000000 1.0000000000
 1650.2500000 14.437000275 12.859999657 4.0000000000 23.000000000 3013.0000000 1.0000000000
 1650.3750000 14.295000076 12.272000313 4.0000000000 23.000000000 3013.0000000 1.0000000000
 1650.5000000 14.236000061 12.012000084 4.0000000000 23.000000000 3013.0000000 1.0000000000
 1650.6250000 14.246999741 11.798000336 4.0000000000 23.000000000 3013.0000000 1.0000000000
 1650.7500000 14.319999695 11.694999695 4.0000000000 23.000000000 3013.0000000 1.0000000000
 1650.8750000 14.503000259 11.579999924 4.0000000000 23.000000000 3013.0000000 1.0000000000
 1651.0000000 16.235000610 11.572999954 4.0000000000 23.000000000 3013.0000000 1.0000000000
 1651.1250000 17.041999817 11.661000252 4.0000000000 23.000000000 3013.0000000 1.0000000000
 1651.2500000 17.361999512 11.770999908 4.0000000000 23.000000000 3013.0000000 1.0000000000
