# LAS format log file from PETREL
# Project units are specified as depth units
#==================================================================
~Version information
VERS.   2.0:
WRAP.   NO:
#==================================================================
~Well
STRT .m      1450.0000000 :
STOP .m      1594.0000000 :
STEP .m     0.12500000 :
NULL .        -999.250000 :
COMP.           : COMPANY
WELL.  5-0161   : WELL
FLD.            : FIELD
LOC.            : LOCATION
SRVC.           : SERVICE COMPANY
DATE.  2020-03-08 09:25:09   : Log Export Date {yyyy-MM-dd HH:mm:ss}
PROV.           : PROVINCE
UWI.      : UNIQUE WELL ID
API.            : API NUMBER
#==================================================================
~Curve
DEPT .m                   : DEPTH
RT .ohm.m                 : RT
SP .                      : SP
Fluids .                  : Fluids
POR .m3/m3                : POR
PERM .mD                  : PERM
Lith .                    : Lith
~Parameter
#==================================================================
~Ascii
# ...
 1569.6250000 25.329999924 21.969999313 4.0000000000 19.000000000 1366.0000000 1.0000000000
 1569.7500000 23.520000458 21.780000687 4.0000000000 19.000000000 1366.0000000 1.0000000000
 1569.8750000 21.680000305 21.569999695 4.0000000000 19.000000000 1366.0000000 1.0000000000
 1570.0000000 16.979999542 21.479999542 4.0000000000 19.000000000 1366.0000000 1.0000000000
 1570.1250000 11.750000000 21.420000076 4.0000000000 19.000000000 1366.0000000 1.0000000000
 1570.2500000 21.760000229 21.360000610 4.0000000000 19.000000000 1366.0000000 1.0000000000
 1570.3750000 22.319999695 21.299999237 4.0000000000 19.000000000 1366.0000000 1.0000000000
 1570.5000000 21.500000000 21.260000229 4.0000000000 19.000000000 1366.0000000 1.0000000000
 1570.6250000 21.520000458 21.250000000 4.0000000000 19.000000000 1366.0000000 1.0000000000
 1570.7500000 20.340000153 21.239999771 4.0000000000 19.000000000 1366.0000000 1.0000000000
 1570.8750000 19.500000000 21.229999542 4.0000000000 19.000000000 1366.0000000 1.0000000000
 1571.0000000 21.569999695 21.229999542 4.0000000000 19.000000000 1366.0000000 1.0000000000
 1571.1250000 33.979999542 21.229999542 4.0000000000 19.000000000 1366.0000000 1.0000000000
 1571.2500000 36.830001831 21.239999771 4.0000000000 19.000000000 1366.0000000 1.0000000000
 1571.3750000 39.479999542 21.280000687 4.0000000000 19.000000000 1366.0000000 1.0000000000
 1571.5000000 43.080001831 21.459999084 4.0000000000 19.000000000 1366.0000000 1.0000000000
 1571.6250000 47.340000153 21.649999619 4.0000000000 19.000000000 1366.0000000 1.0000000000
 1571.7500000 54.930000305 21.879999161 4.0000000000 19.000000000 1366.0000000 1.0000000000
 1571.8750000 41.959999084 22.170000076 4.0000000000 19.000000000 1366.0000000 1.0000000000
 1572.0000000 31.790000916 22.469999313 4.0000000000 19.000000000 1366.0000000 1.0000000000
 1572.1250000 26.489999771 22.770000458 4.0000000000 19.000000000 1366.0000000 1.0000000000
 1572.2500000 14.659999847 22.940000534 4.0000000000 19.000000000 1366.0000000 1.0000000000
 1572.3750000 13.109999657 23.010000229 4.0000000000 19.000000000 1366.0000000 1.0000000000
 1572.5000000 14.720000267 23.079999924 4.0000000000 19.000000000 1366.0000000 1.0000000000
 1572.6250000 17.870000839 23.170000076 4.0000000000 19.000000000 1366.0000000 1.0000000000
 1572.7500000 21.180000305 23.299999237 4.0000000000 19.000000000 1366.0000000 1.0000000000
 1572.8750000 17.520000458 23.530000687 4.0000000000 19.000000000 1366.0000000 1.0000000000
 1573.0000000 14.069999695 23.750000000 4.0000000000 19.000000000 1366.0000000 1.0000000000
 1573.1250000 10.479999542 23.729999542 4.0000000000 19.000000000 1366.0000000 1.0000000000
 1573.2500000 6.3400001526 23.549999237 4.0000000000 19.000000000 1366.0000000 1.0000000000
 1573.3750000 5.5799999237 23.370000839 4.0000000000 19.000000000 1366.0000000 1.0000000000
 1573.5000000 6.7500000000 23.200000763 4.0000000000 19.000000000 1366.0000000 1.0000000000
 1573.6250000 12.220000267 23.040000916 4.0000000000 19.000000000 1366.0000000 1.0000000000
 1573.7500000 19.850000381 22.889999390 4.0000000000 19.000000000 1366.0000000 1.0000000000
 1573.8750000 25.020000458 22.760000229 4.0000000000 19.000000000 1366.0000000 1.0000000000
 1574.0000000 33.189998627 22.639999390 4.0000000000 19.000000000 1366.0000000 1.0000000000
 1574.1250000 39.259998322 22.579999924 4.0000000000 19.000000000 1366.0000000 1.0000000000
 1574.2500000 44.319999695 22.559999466 4.0000000000 19.000000000 1366.0000000 1.0000000000
 1574.3750000 31.569999695 22.600000381 4.0000000000 19.000000000 1366.0000000 1.0000000000
 1574.5000000 21.950000763 22.700000763 4.0000000000 19.000000000 1366.0000000 1.0000000000
 1574.6250000 19.969999313 22.819999695 4.0000000000 19.000000000 1366.0000000 1.0000000000
 1574.7500000 22.899999619 22.969999313 4.0000000000 19.000000000 1366.0000000 1.0000000000
 1574.8750000 29.020000458 23.120000839 4.0000000000 19.000000000 1366.0000000 1.0000000000
 1575.0000000 29.440000534 23.270000458 4.0000000000 19.000000000 1366.0000000 1.0000000000
 1575.1250000 23.479999542 23.389999390 4.0000000000 19.000000000 1366.0000000 1.0000000000
 1575.2500000 15.250000000 23.520000458 4.0000000000 19.000000000 1366.0000000 1.0000000000
 1575.3750000 12.520000458 23.540000916 4.0000000000 19.000000000 1366.0000000 1.0000000000
 1575.5000000 10.229999542 23.450000763 4.0000000000 19.000000000 1366.0000000 1.0000000000
 1575.6250000 9.4399995804 23.329999924 4.0000000000 19.000000000 1366.0000000 1.0000000000
 1575.7500000 8.7799997330 23.139999390 4.0000000000 19.000000000 1366.0000000 1.0000000000
 1575.8750000 8.1599998474 22.950000763 4.0000000000 19.000000000 1366.0000000 1.0000000000
 1576.0000000 8.5600004196 22.750000000 4.0000000000 19.000000000 1366.0000000 1.0000000000
 1576.1250000 9.7200002670 22.530000687 4.0000000000 19.000000000 1366.0000000 1.0000000000
 1576.2500000 12.300000191 22.309999466 4.0000000000 19.000000000 1366.0000000 1.0000000000
 1576.3750000 20.639999390 22.149999619 4.0000000000 19.000000000 1366.0000000 1.0000000000
 1576.5000000 22.770000458 22.020000458 4.0000000000 19.000000000 1366.0000000 1.0000000000
 1576.6250000 18.399999619 21.940000534 4.0000000000 19.000000000 1366.0000000 1.0000000000
 1576.7500000 17.909999847 21.899999619 4.0000000000 19.000000000 1366.0000000 1.0000000000
 1576.8750000 21.709999084 21.870000839 4.0000000000 19.000000000 1366.0000000 1.0000000000
 1577.0000000 27.340000153 21.840000153 4.0000000000 19.000000000 1366.0000000 1.0000000000
 1577.1250000 34.049999237 21.799999237 4.0000000000 19.000000000 1366.0000000 1.0000000000
 1577.2500000 18.030000687 21.690000534 4.0000000000 19.000000000 1366.0000000 1.0000000000
 1577.3750000 16.350000381 21.590000153 4.0000000000 19.000000000 1366.0000000 1.0000000000
 1577.5000000 16.500000000 21.409999847 4.0000000000 19.000000000 1366.0000000 1.0000000000
 1577.6250000 22.409999847 21.209999084 4.0000000000 19.000000000 1366.0000000 1.0000000000
 1577.7500000 33.549999237 20.989999771 4.0000000000 19.000000000 1366.0000000 1.0000000000
 1577.8750000 38.349998474 20.829999924 4.0000000000 19.000000000 1366.0000000 1.0000000000
 1578.0000000 53.069999695 20.860000610 4.0000000000 19.000000000 1366.0000000 1.0000000000
 1578.1250000 50.840000153 20.959999084 4.0000000000 19.000000000 1366.0000000 1.0000000000
 1578.2500000 48.189998627 21.069999695 4.0000000000 19.000000000 1366.0000000 1.0000000000
 1578.3750000 40.340000153 21.309999466 4.0000000000 19.000000000 1366.0000000 1.0000000000
 1578.5000000 42.470001221 21.540000916 4.0000000000 19.000000000 1366.0000000 1.0000000000
 1578.6250000 51.189998627 21.729999542 4.0000000000 19.000000000 1366.0000000 1.0000000000
 1578.7500000 49.000000000 21.899999619 4.0000000000 19.000000000 1366.0000000 1.0000000000
 1578.8750000 45.069999695 22.069999695 4.0000000000 19.000000000 1366.0000000 1.0000000000
 1579.0000000 41.819999695 22.190000534 4.0000000000 19.000000000 1366.0000000 1.0000000000
 1579.1250000 18.780000687 22.299999237 4.0000000000 19.000000000 1366.0000000 1.0000000000
 1579.2500000 20.690000534 22.409999847 4.0000000000 19.000000000 1366.0000000 1.0000000000
 1579.3750000 21.590000153 22.459999084 4.0000000000 19.000000000 1366.0000000 1.0000000000
 1579.5000000 27.360000610 22.469999313 4.0000000000 19.000000000 1366.0000000 1.0000000000
 1579.6250000 31.120000839 22.489999771 4.0000000000 19.000000000 1366.0000000 1.0000000000
 1579.7500000 34.439998627 22.520000458 4.0000000000 19.000000000 1366.0000000 1.0000000000
 1579.8750000 39.319999695 22.610000610 4.0000000000 19.000000000 1366.0000000 1.0000000000
 1580.0000000 28.520000458 22.739999771 4.0000000000 19.000000000 1366.0000000 1.0000000000
 1580.1250000 17.729999542 22.870000839 4.0000000000 19.000000000 1366.0000000 1.0000000000
 1580.2500000 9.3199996948 23.020000458 4.0000000000 19.000000000 1366.0000000 1.0000000000
 1580.3750000 8.2799997330 23.159999847 4.0000000000 19.000000000 1366.0000000 1.0000000000
