# LAS format log file from PETREL
# Project units are specified as depth units
#==================================================================
~Version information
VERS.   2.0:
WRAP.   NO:
#==================================================================
~Well
STRT .m      1338.0000000 :
STOP .m      1710.0000000 :
STEP .m     0.12500000 :
NULL .        -999.250000 :
COMP.           : COMPANY
WELL.  5-0162C2   : WELL
FLD.            : FIELD
LOC.            : LOCATION
SRVC.           : SERVICE COMPANY
DATE.  2020-03-08 09:25:09   : Log Export Date {yyyy-MM-dd HH:mm:ss}
PROV.           : PROVINCE
UWI.      : UNIQUE WELL ID
API.            : API NUMBER
#==================================================================
~Curve
DEPT .m                   : DEPTH
RT .ohm.m                 : RT
SP .                      : SP
Fluids .                  : Fluids
POR .m3/m3                : POR
PERM .mD                  : PERM
Lith .                    : Lith
~Parameter
#==================================================================
~Ascii
# ...
 1653.3750000 45.689998627 -74.52999878 4.0000000000 17.000000000 224.00000000 1.0000000000
 1653.5000000 46.020000458 -74.48999786 4.0000000000 17.000000000 224.00000000 1.0000000000
 1653.6250000 46.169998169 -74.40000153 4.0000000000 17.000000000 224.00000000 1.0000000000
 1653.7500000 44.869998932 -74.26999664 4.0000000000 17.000000000 224.00000000 1.0000000000
 1653.8750000 41.090000153 -74.12000275 4.0000000000 17.000000000 224.00000000 1.0000000000
 1654.0000000 36.299999237 -73.95999908 4.0000000000 17.000000000 224.00000000 1.0000000000
 1654.1250000 32.599998474 -73.83000183 4.0000000000 17.000000000 224.00000000 1.0000000000
 1654.2500000 31.069999695 -73.73999786 4.0000000000 17.000000000 224.00000000 1.0000000000
 1654.3750000 31.149999619 -73.66999817 4.0000000000 17.000000000 224.00000000 1.0000000000
 1654.5000000 33.250000000 -73.59999847 4.0000000000 17.000000000 224.00000000 1.0000000000
 1654.6250000 38.439998627 -73.48999786 4.0000000000 17.000000000 224.00000000 1.0000000000
 1654.7500000 45.409999847 -73.33000183 4.0000000000 17.000000000 224.00000000 1.0000000000
 1654.8750000 51.310001373 -73.08000183 4.0000000000 17.000000000 224.00000000 1.0000000000
 1655.0000000 53.020000458 -72.73000336 4.0000000000 17.000000000 224.00000000 1.0000000000
 1655.1250000 50.200000763 -72.26999664 4.0000000000 17.000000000 224.00000000 1.0000000000
 1655.2500000 44.020000458 -71.72000122 4.0000000000 17.000000000 224.00000000 1.0000000000
 1655.3750000 36.520000458 -71.13999939 4.0000000000 17.000000000 224.00000000 1.0000000000
 1655.5000000 29.129999161 -70.56999969 4.0000000000 17.000000000 224.00000000 1.0000000000
 1655.6250000 23.139999390 -70.05999756 4.0000000000 17.000000000 224.00000000 1.0000000000
 1655.7500000 18.920000076 -69.66999817 4.0000000000 17.000000000 224.00000000 1.0000000000
 1655.8750000 16.659999847 -69.44999695 4.0000000000 17.000000000 224.00000000 1.0000000000
 1656.0000000 15.939999580 -69.41000366 4.0000000000 17.000000000 224.00000000 1.0000000000
 1656.1250000 16.829999924 -69.51999664 4.0000000000 17.000000000 224.00000000 1.0000000000
 1656.2500000 19.430000305 -69.75000000 4.0000000000 17.000000000 224.00000000 1.0000000000
 1656.3750000 23.649999619 -70.05000305 4.0000000000 17.000000000 224.00000000 1.0000000000
 1656.5000000 28.870000839 -70.41000366 4.0000000000 17.000000000 224.00000000 1.0000000000
 1656.6250000 33.860000610 -70.79000092 4.0000000000 17.000000000 224.00000000 1.0000000000
 1656.7500000 37.340000153 -71.16000366 4.0000000000 17.000000000 224.00000000 1.0000000000
 1656.8750000 38.770000458 -71.51000214 4.0000000000 17.000000000 224.00000000 1.0000000000
 1657.0000000 38.919998169 -71.84999847 4.0000000000 17.000000000 224.00000000 1.0000000000
 1657.1250000 38.709999084 -72.19000244 4.0000000000 17.000000000 224.00000000 1.0000000000
 1657.2500000 38.779998779 -72.51999664 4.0000000000 17.000000000 224.00000000 1.0000000000
 1657.3750000 39.490001678 -72.84999847 4.0000000000 17.000000000 224.00000000 1.0000000000
 1657.5000000 41.290000916 -73.12000275 4.0000000000 17.000000000 224.00000000 1.0000000000
 1657.6250000 43.790000916 -73.31999969 4.0000000000 17.000000000 224.00000000 1.0000000000
 1657.7500000 46.270000458 -73.44000244 4.0000000000 17.000000000 224.00000000 1.0000000000
 1657.8750000 48.180000305 -73.47000122 4.0000000000 17.000000000 224.00000000 1.0000000000
 1658.0000000 50.040000916 -73.38999939 4.0000000000 17.000000000 224.00000000 1.0000000000
 1658.1250000 52.419998169 -73.19999695 4.0000000000 17.000000000 224.00000000 1.0000000000
 1658.2500000 55.040000916 -72.88999939 4.0000000000 17.000000000 224.00000000 1.0000000000
 1658.3750000 56.900001526 -72.44999695 4.0000000000 17.000000000 224.00000000 1.0000000000
 1658.5000000 56.970001221 -71.88999939 4.0000000000 17.000000000 224.00000000 1.0000000000
 1658.6250000 54.700000763 -71.18000031 4.0000000000 17.000000000 224.00000000 1.0000000000
 1658.7500000 50.779998779 -70.33000183 4.0000000000 17.000000000 224.00000000 1.0000000000
 1658.8750000 46.439998627 -69.36000061 4.0000000000 17.000000000 224.00000000 1.0000000000
 1659.0000000 41.939998627 -68.26000214 4.0000000000 17.000000000 224.00000000 1.0000000000
 1659.1250000 36.250000000 -67.05000305 4.0000000000 17.000000000 224.00000000 1.0000000000
 1659.2500000 29.680000305 -65.73999786 4.0000000000 17.000000000 224.00000000 1.0000000000
 1659.3750000 23.770000458 -64.37999725 4.0000000000 17.000000000 224.00000000 1.0000000000
 1659.5000000 20.129999161 -63.00000000 3.0000000000 15.000000000 138.00000000 1.0000000000
 1659.6250000 18.600000381 -61.59999847 3.0000000000 15.000000000 138.00000000 1.0000000000
 1659.7500000 19.190000534 -60.15999985 3.0000000000 15.000000000 138.00000000 1.0000000000
 1659.8750000 21.409999847 -58.63000107 3.0000000000 15.000000000 138.00000000 1.0000000000
 1660.0000000 23.280000687 -56.95000076 3.0000000000 15.000000000 138.00000000 1.0000000000
 1660.1250000 22.530000687 -55.06000137 3.0000000000 15.000000000 138.00000000 1.0000000000
 1660.2500000 18.569999695 -52.91999817 3.0000000000 15.000000000 138.00000000 1.0000000000
 1660.3750000 12.960000038 -50.52999878 3.0000000000 15.000000000 138.00000000 1.0000000000
 1660.5000000 7.9800000191 -48.04999924  -999.250000 0.1000000015 0.1000000015 0.0000000000
 1660.6250000 4.6999998093 -45.63999939  -999.250000 0.1000000015 0.1000000015 0.0000000000
 1660.7500000 3.1199998856 -43.47999954  -999.250000 0.1000000015 0.1000000015 0.0000000000
 1660.8750000 2.5399999619 -41.65999985  -999.250000 0.1000000015 0.1000000015 0.0000000000
 1661.0000000 2.5000000000 -40.27000046  -999.250000 0.1000000015 0.1000000015 0.0000000000
 1661.1250000 2.6800000668 -39.36000061  -999.250000 0.1000000015 0.1000000015 0.0000000000
 1661.2500000 2.8900001049 -38.88000107  -999.250000 0.1000000015 0.1000000015 0.0000000000
 1661.3750000 3.0899999142 -38.68000031  -999.250000 0.1000000015 0.1000000015 0.0000000000
 1661.5000000 3.3800001144 -38.63000107  -999.250000 0.1000000015 0.1000000015 0.0000000000
 1661.6250000 3.6600000858 -38.58000183  -999.250000 0.1000000015 0.1000000015 0.0000000000
 1661.7500000 3.7799999714 -38.45999908  -999.250000 0.1000000015 0.1000000015 0.0000000000
 1661.8750000 3.6800000668 -38.29000092  -999.250000 0.1000000015 0.1000000015 0.0000000000
 1662.0000000 3.4500000477 -38.08000183  -999.250000 0.1000000015 0.1000000015 0.0000000000
 1662.1250000 3.2300000191 -37.86999893  -999.250000 0.1000000015 0.1000000015 0.0000000000
 1662.2500000 3.1099998951 -37.68000031  -999.250000 0.1000000015 0.1000000015 0.0000000000
 1662.3750000 3.0999999046 -37.50999832  -999.250000 0.1000000015 0.1000000015 0.0000000000
 1662.5000000 3.2000000477 -37.41999817  -999.250000 0.1000000015 0.1000000015 0.0000000000
 1662.6250000 3.3299999237 -37.41999817  -999.250000 0.1000000015 0.1000000015 0.0000000000
 1662.7500000 3.4100000858 -37.52999878  -999.250000 0.1000000015 0.1000000015 0.0000000000
 1662.8750000 3.4400000572 -37.70999908  -999.250000 0.1000000015 0.1000000015 0.0000000000
 1663.0000000 3.4200000763 -37.95000076  -999.250000 0.1000000015 0.1000000015 0.0000000000
 1663.1250000 3.4200000763 -38.25999832  -999.250000 0.1000000015 0.1000000015 0.0000000000
 1663.2500000 3.4600000381 -38.63999939  -999.250000 0.1000000015 0.1000000015 0.0000000000
 1663.3750000 3.5299999714 -39.11000061  -999.250000 0.1000000015 0.1000000015 0.0000000000
 1663.5000000 3.5699999332 -39.61000061  -999.250000 0.1000000015 0.1000000015 0.0000000000
 1663.6250000 3.6800000668 -40.09999847  -999.250000 0.1000000015 0.1000000015 0.0000000000
 1663.7500000 3.9400000572 -40.59000015  -999.250000 0.1000000015 0.1000000015 0.0000000000
 1663.8750000 4.1799998283 -41.00999832  -999.250000 0.1000000015 0.1000000015 0.0000000000
 1664.0000000 4.2199997902 -41.25000000  -999.250000 0.1000000015 0.1000000015 0.0000000000
 1664.1250000 4.0700001717 -41.25000000  -999.250000 0.1000000015 0.1000000015 0.0000000000
