# LAS format log file from PETREL
# Project units are specified as depth units
#==================================================================
~Version information
VERS.   2.0:
WRAP.   NO:
#==================================================================
~Well
STRT .m      1510.0000000 :
STOP .m      1750.0000000 :
STEP .m     0.12500000 :
NULL .        -999.250000 :
COMP.           : COMPANY
WELL.  5-0165C   : WELL
FLD.            : FIELD
LOC.            : LOCATION
SRVC.           : SERVICE COMPANY
DATE.  2020-03-08 09:25:09   : Log Export Date {yyyy-MM-dd HH:mm:ss}
PROV.           : PROVINCE
UWI.      : UNIQUE WELL ID
API.            : API NUMBER
#==================================================================
~Curve
DEPT .m                   : DEPTH
RT .ohm.m                 : RT
SP .                      : SP
Fluids .                  : Fluids
POR .m3/m3                : POR
PERM .mD                  : PERM
Lith .                    : Lith
~Parameter
#==================================================================
~Ascii
# ...
 1727.5000000 1.5709999800 38.806999207  -999.250000 0.1000000015 0.1000000015 0.0000000000
 1727.6250000 1.6059999466 38.504001617  -999.250000 0.1000000015 0.1000000015 0.0000000000
 1727.7500000 1.6490000486 38.188999176  -999.250000 0.1000000015 0.1000000015 0.0000000000
 1727.8750000 1.6920000315 37.958999634  -999.250000 0.1000000015 0.1000000015 0.0000000000
 1728.0000000 1.7410000563 37.917999268  -999.250000 0.1000000015 0.1000000015 0.0000000000
 1728.1250000 1.7860000134 37.949001312  -999.250000 0.1000000015 0.1000000015 0.0000000000
 1728.2500000 1.8259999752 37.979000092  -999.250000 0.1000000015 0.1000000015 0.0000000000
 1728.3750000 1.8680000305 38.034000397  -999.250000 0.1000000015 0.1000000015 0.0000000000
 1728.5000000 1.9179999828 38.101001740  -999.250000 0.1000000015 0.1000000015 0.0000000000
 1728.6250000 1.9470000267 38.202999115  -999.250000 0.1000000015 0.1000000015 0.0000000000
 1728.7500000 1.9309999943 38.339000702  -999.250000 0.1000000015 0.1000000015 0.0000000000
 1728.8750000 1.9290000200 38.546001434  -999.250000 0.1000000015 0.1000000015 0.0000000000
 1729.0000000 1.8839999437 38.726001740  -999.250000 0.1000000015 0.1000000015 0.0000000000
 1729.1250000 1.8459999561 38.620998383  -999.250000 0.1000000015 0.1000000015 0.0000000000
 1729.2500000 1.8159999847 38.534000397  -999.250000 0.1000000015 0.1000000015 0.0000000000
 1729.3750000 1.7180000544 38.402000427  -999.250000 0.1000000015 0.1000000015 0.0000000000
 1729.5000000 1.6430000067 38.222000122  -999.250000 0.1000000015 0.1000000015 0.0000000000
 1729.6250000 1.5670000315 38.076000214  -999.250000 0.1000000015 0.1000000015 0.0000000000
 1729.7500000 1.4910000563 37.969001770  -999.250000 0.1000000015 0.1000000015 0.0000000000
 1729.8750000 1.4739999771 37.790000916  -999.250000 0.1000000015 0.1000000015 0.0000000000
 1730.0000000 1.4429999590 37.682998657  -999.250000 0.1000000015 0.1000000015 0.0000000000
 1730.1250000 1.5230000019 37.731998444  -999.250000 0.1000000015 0.1000000015 0.0000000000
 1730.2500000 1.6469999552 37.780998230  -999.250000 0.1000000015 0.1000000015 0.0000000000
 1730.3750000 1.7510000467 37.823001862  -999.250000 0.1000000015 0.1000000015 0.0000000000
 1730.5000000 1.8810000420 37.938999176  -999.250000 0.1000000015 0.1000000015 0.0000000000
 1730.6250000 2.0299999714 38.144001007  -999.250000 0.1000000015 0.1000000015 0.0000000000
 1730.7500000 2.0989999771 38.421001434  -999.250000 0.1000000015 0.1000000015 0.0000000000
 1730.8750000 2.1530001163 38.605998993  -999.250000 0.1000000015 0.1000000015 0.0000000000
 1731.0000000 2.1840000153 38.563999176  -999.250000 0.1000000015 0.1000000015 0.0000000000
 1731.1250000 2.2090001106 38.548999786  -999.250000 0.1000000015 0.1000000015 0.0000000000
 1731.2500000 2.2130000591 38.546001434  -999.250000 0.1000000015 0.1000000015 0.0000000000
 1731.3750000 2.1909999847 38.479999542  -999.250000 0.1000000015 0.1000000015 0.0000000000
 1731.5000000 2.1410000324 38.292999268  -999.250000 0.1000000015 0.1000000015 0.0000000000
 1731.6250000 2.0480000973 37.949001312  -999.250000 0.1000000015 0.1000000015 0.0000000000
 1731.7500000 1.9479999542 37.674999237  -999.250000 0.1000000015 0.1000000015 0.0000000000
 1731.8750000 1.8990000486 37.416999817  -999.250000 0.1000000015 0.1000000015 0.0000000000
 1732.0000000 1.8120000362 37.264999390  -999.250000 0.1000000015 0.1000000015 0.0000000000
 1732.1250000 1.7589999437 37.116001129  -999.250000 0.1000000015 0.1000000015 0.0000000000
 1732.2500000 1.7039999962 37.048999786  -999.250000 0.1000000015 0.1000000015 0.0000000000
 1732.3750000 1.6720000505 36.986000061  -999.250000 0.1000000015 0.1000000015 0.0000000000
 1732.5000000 1.5989999771 36.944000244  -999.250000 0.1000000015 0.1000000015 0.0000000000
 1732.6250000 1.5279999971 36.997001648  -999.250000 0.1000000015 0.1000000015 0.0000000000
 1732.7500000 1.4689999819 37.140998840  -999.250000 0.1000000015 0.1000000015 0.0000000000
 1732.8750000 1.3930000067 37.458000183  -999.250000 0.1000000015 0.1000000015 0.0000000000
 1733.0000000 1.3580000401 37.831001282  -999.250000 0.1000000015 0.1000000015 0.0000000000
 1733.1250000 1.3550000191 38.118000031  -999.250000 0.1000000015 0.1000000015 0.0000000000
 1733.2500000 1.3810000420 38.223999023  -999.250000 0.1000000015 0.1000000015 0.0000000000
 1733.3750000 1.4650000334 38.262001038  -999.250000 0.1000000015 0.1000000015 0.0000000000
 1733.5000000 1.6940000057 38.230998993  -999.250000 0.1000000015 0.1000000015 0.0000000000
 1733.6250000 1.9700000286 38.196998596  -999.250000 0.1000000015 0.1000000015 0.0000000000
 1733.7500000 2.2460000515 38.102001190  -999.250000 0.1000000015 0.1000000015 0.0000000000
 1733.8750000 2.4749999046 37.941001892  -999.250000 0.1000000015 0.1000000015 0.0000000000
 1734.0000000 2.7890000343 37.751998901  -999.250000 0.1000000015 0.1000000015 0.0000000000
 1734.1250000 3.1649999619 37.576000214  -999.250000 0.1000000015 0.1000000015 0.0000000000
 1734.2500000 3.5429999828 37.205001831  -999.250000 0.1000000015 0.1000000015 0.0000000000
 1734.3750000 3.7049999237 36.889999390  -999.250000 0.1000000015 0.1000000015 0.0000000000
 1734.5000000 3.7219998837 36.743000031  -999.250000 0.1000000015 0.1000000015 0.0000000000
 1734.6250000 3.4460000992 36.804000854  -999.250000 0.1000000015 0.1000000015 0.0000000000
 1734.7500000 2.5969998837 36.893001556  -999.250000 0.1000000015 0.1000000015 0.0000000000
 1734.8750000 1.7439999580 37.029998779  -999.250000 0.1000000015 0.1000000015 0.0000000000
 1735.0000000 1.2560000420 37.289001465  -999.250000 0.1000000015 0.1000000015 0.0000000000
 1735.1250000 1.0119999647 37.418998718  -999.250000 0.1000000015 0.1000000015 0.0000000000
 1735.2500000 1.0089999437 37.488998413  -999.250000 0.1000000015 0.1000000015 0.0000000000
 1735.3750000 1.0269999504 37.435001373  -999.250000 0.1000000015 0.1000000015 0.0000000000
 1735.5000000 1.0809999704 37.347999573  -999.250000 0.1000000015 0.1000000015 0.0000000000
 1735.6250000 1.1740000248 37.212001801  -999.250000 0.1000000015 0.1000000015 0.0000000000
 1735.7500000 1.2619999647 36.991001129  -999.250000 0.1000000015 0.1000000015 0.0000000000
 1735.8750000 1.3220000267 36.667999268  -999.250000 0.1000000015 0.1000000015 0.0000000000
 1736.0000000 1.4220000505 36.488998413  -999.250000 0.1000000015 0.1000000015 0.0000000000
 1736.1250000 1.4789999723 36.465999603  -999.250000 0.1000000015 0.1000000015 0.0000000000
 1736.2500000 1.5709999800 36.458999634  -999.250000 0.1000000015 0.1000000015 0.0000000000
 1736.3750000 1.7000000477 36.604000092  -999.250000 0.1000000015 0.1000000015 0.0000000000
 1736.5000000 1.8609999418 36.712001801  -999.250000 0.1000000015 0.1000000015 0.0000000000
 1736.6250000 2.0099999905 36.926998138  -999.250000 0.1000000015 0.1000000015 0.0000000000
 1736.7500000 2.2090001106 37.286998749  -999.250000 0.1000000015 0.1000000015 0.0000000000
 1736.8750000 2.3659999371 37.534999847  -999.250000 0.1000000015 0.1000000015 0.0000000000
 1737.0000000 2.5599999428 37.750000000  -999.250000 0.1000000015 0.1000000015 0.0000000000
 1737.1250000 2.7780001163 37.916000366  -999.250000 0.1000000015 0.1000000015 0.0000000000
 1737.2500000 3.0769999027 38.117000580  -999.250000 0.1000000015 0.1000000015 0.0000000000
 1737.3750000 3.5889999866 38.159000397 0.0000000000 10.000000000 40.000000000 1.0000000000
 1737.5000000 4.4299998283 38.173999786 0.0000000000 10.000000000 40.000000000 1.0000000000
 1737.6250000 5.6970000267 38.138000488 0.0000000000 10.000000000 40.000000000 1.0000000000
 1737.7500000 7.3330001831 38.000000000 0.0000000000 10.000000000 40.000000000 1.0000000000
 1737.8750000 8.7650003433 37.921001434 0.0000000000 10.000000000 40.000000000 1.0000000000
 1738.0000000 9.3819999695 37.898998260 0.0000000000 10.000000000 40.000000000 1.0000000000
 1738.1250000 9.3159999847 37.895999908 0.0000000000 10.000000000 40.000000000 1.0000000000
 1738.2500000 8.9270000458 37.895999908 0.0000000000 10.000000000 40.000000000 1.0000000000
