# LAS format log file from PETREL
# Project units are specified as depth units
#==================================================================
~Version information
VERS.   2.0:
WRAP.   NO:
#==================================================================
~Well
STRT .m      1510.0000000 :
STOP .m      1750.0000000 :
STEP .m     0.12500000 :
NULL .        -999.250000 :
COMP.           : COMPANY
WELL.  5-0165C   : WELL
FLD.            : FIELD
LOC.            : LOCATION
SRVC.           : SERVICE COMPANY
DATE.  2020-03-08 09:25:09   : Log Export Date {yyyy-MM-dd HH:mm:ss}
PROV.           : PROVINCE
UWI.      : UNIQUE WELL ID
API.            : API NUMBER
#==================================================================
~Curve
DEPT .m                   : DEPTH
RT .ohm.m                 : RT
SP .                      : SP
Fluids .                  : Fluids
POR .m3/m3                : POR
PERM .mD                  : PERM
Lith .                    : Lith
~Parameter
#==================================================================
~Ascii
# ...
 1716.6250000 20.576000214 24.915000916 4.0000000000 22.000000000 2342.0000000 1.0000000000
 1716.7500000 17.379999161 25.475000381 4.0000000000 22.000000000 2342.0000000 1.0000000000
 1716.8750000 17.715000153 26.066999435 4.0000000000 22.000000000 2342.0000000 1.0000000000
 1717.0000000 19.070999146 26.549999237 4.0000000000 22.000000000 2342.0000000 1.0000000000
 1717.1250000 19.889999390 26.672000885 4.0000000000 22.000000000 2342.0000000 1.0000000000
 1717.2500000 20.622999191 26.479000092 4.0000000000 22.000000000 2342.0000000 1.0000000000
 1717.3750000 21.020000458 26.176000595 4.0000000000 22.000000000 2342.0000000 1.0000000000
 1717.5000000 21.252000809 25.250000000 4.0000000000 22.000000000 2342.0000000 1.0000000000
 1717.6250000 20.187000275 24.481000900 4.0000000000 22.000000000 2342.0000000 1.0000000000
 1717.7500000 14.765999794 24.111000061 4.0000000000 22.000000000 2342.0000000 1.0000000000
 1717.8750000 14.020999908 23.760000229 4.0000000000 22.000000000 2342.0000000 1.0000000000
 1718.0000000 14.291999817 23.569000244 4.0000000000 22.000000000 2342.0000000 1.0000000000
 1718.1250000 24.056999207 23.399999619 4.0000000000 22.000000000 2342.0000000 1.0000000000
 1718.2500000 25.820999146 23.208999634 4.0000000000 22.000000000 2342.0000000 1.0000000000
 1718.3750000 27.431999207 23.100999832 4.0000000000 22.000000000 2342.0000000 1.0000000000
 1718.5000000 32.986000061 23.177999496 4.0000000000 22.000000000 2342.0000000 1.0000000000
 1718.6250000 35.057998657 23.305000305 4.0000000000 22.000000000 2342.0000000 1.0000000000
 1718.7500000 37.819000244 23.429000854 4.0000000000 22.000000000 2342.0000000 1.0000000000
 1718.8750000 38.858001709 23.587999344 4.0000000000 22.000000000 2342.0000000 1.0000000000
 1719.0000000 39.208000183 23.827999115 4.0000000000 22.000000000 2342.0000000 1.0000000000
 1719.1250000 39.416999817 24.013999939 4.0000000000 22.000000000 2342.0000000 1.0000000000
 1719.2500000 39.508998871 24.041000366 4.0000000000 22.000000000 2342.0000000 1.0000000000
 1719.3750000 39.555000305 23.693000793 4.0000000000 22.000000000 2342.0000000 1.0000000000
 1719.5000000 39.575000763 23.518999100 4.0000000000 22.000000000 2342.0000000 1.0000000000
 1719.6250000 39.609001160 23.375000000 4.0000000000 22.000000000 2342.0000000 1.0000000000
 1719.7500000 39.612998962 23.364000320 4.0000000000 22.000000000 2342.0000000 1.0000000000
 1719.8750000 39.612998962 23.393999100 4.0000000000 22.000000000 2342.0000000 1.0000000000
 1720.0000000 39.639999390 23.437999725 4.0000000000 22.000000000 2342.0000000 1.0000000000
 1720.1250000 39.618000031 23.479000092 4.0000000000 22.000000000 2342.0000000 1.0000000000
 1720.2500000 39.506999969 23.510000229 4.0000000000 22.000000000 2342.0000000 1.0000000000
 1720.3750000 39.286998749 23.570999146 4.0000000000 22.000000000 2342.0000000 1.0000000000
 1720.5000000 39.005001068 23.632999420 4.0000000000 22.000000000 2342.0000000 1.0000000000
 1720.6250000 38.691001892 23.733999252 4.0000000000 22.000000000 2342.0000000 1.0000000000
 1720.7500000 38.324001312 23.841999054 4.0000000000 22.000000000 2342.0000000 1.0000000000
 1720.8750000 37.946998596 23.957000732 4.0000000000 22.000000000 2342.0000000 1.0000000000
 1721.0000000 37.488998413 24.076999664 4.0000000000 22.000000000 2342.0000000 1.0000000000
 1721.1250000 36.508998871 24.183000565 4.0000000000 22.000000000 2342.0000000 1.0000000000
 1721.2500000 32.873001099 24.319000244 4.0000000000 22.000000000 2342.0000000 1.0000000000
 1721.3750000 31.805000305 24.486000061 4.0000000000 22.000000000 2342.0000000 1.0000000000
 1721.5000000 32.307998657 24.736999512 4.0000000000 22.000000000 2342.0000000 1.0000000000
 1721.6250000 32.929000854 25.059000015 4.0000000000 22.000000000 2342.0000000 1.0000000000
 1721.7500000 26.638999939 25.462999344 4.0000000000 22.000000000 2342.0000000 1.0000000000
 1721.8750000 16.999000549 26.018999100 4.0000000000 22.000000000 2342.0000000 1.0000000000
 1722.0000000 16.652000427 26.548000336 4.0000000000 22.000000000 2342.0000000 1.0000000000
 1722.1250000 17.090000153 27.120000839 4.0000000000 22.000000000 2342.0000000 1.0000000000
 1722.2500000 17.406999588 27.764999390 4.0000000000 22.000000000 2342.0000000 1.0000000000
 1722.3750000 17.785999298 28.268999100 4.0000000000 22.000000000 2342.0000000 1.0000000000
 1722.5000000 17.912000656 28.934000015 4.0000000000 22.000000000 2342.0000000 1.0000000000
 1722.6250000 17.600000381 29.580999374 4.0000000000 22.000000000 2342.0000000 1.0000000000
 1722.7500000 15.036000252 30.232999802 4.0000000000 22.000000000 2342.0000000 1.0000000000
 1722.8750000 14.032999992 30.794000626 4.0000000000 22.000000000 2342.0000000 1.0000000000
 1723.0000000 13.427000046 31.250000000 4.0000000000 22.000000000 2342.0000000 1.0000000000
 1723.1250000 13.222000122 31.488000870 4.0000000000 22.000000000 2342.0000000 1.0000000000
 1723.2500000 16.423999786 31.330999374 4.0000000000 22.000000000 2342.0000000 1.0000000000
 1723.3750000 17.427999496 30.961999893 4.0000000000 22.000000000 2342.0000000 1.0000000000
 1723.5000000 17.997999191 30.559999466 4.0000000000 22.000000000 2342.0000000 1.0000000000
 1723.6250000 11.559000015 30.125999451 4.0000000000 22.000000000 2342.0000000 1.0000000000
 1723.7500000 9.1569995880 29.579999924 4.0000000000 22.000000000 2342.0000000 1.0000000000
 1723.8750000 7.6030001640 29.381999969 4.0000000000 22.000000000 2342.0000000 1.0000000000
 1724.0000000 5.9679999352 29.642000198  -999.250000 0.1000000015 0.1000000015 0.0000000000
 1724.1250000 2.6080000401 29.947000504  -999.250000 0.1000000015 0.1000000015 0.0000000000
 1724.2500000 1.6089999676 30.245000839  -999.250000 0.1000000015 0.1000000015 0.0000000000
 1724.3750000 1.1610000134 30.731000900  -999.250000 0.1000000015 0.1000000015 0.0000000000
 1724.5000000 1.0629999638 31.298999786  -999.250000 0.1000000015 0.1000000015 0.0000000000
 1724.6250000 1.0429999828 32.109001160  -999.250000 0.1000000015 0.1000000015 0.0000000000
 1724.7500000 1.0920000076 32.880001068  -999.250000 0.1000000015 0.1000000015 0.0000000000
 1724.8750000 1.3009999990 33.868000031  -999.250000 0.1000000015 0.1000000015 0.0000000000
 1725.0000000 1.4579999447 34.755001068  -999.250000 0.1000000015 0.1000000015 0.0000000000
 1725.1250000 1.6030000448 35.491001129  -999.250000 0.1000000015 0.1000000015 0.0000000000
 1725.2500000 1.6829999685 36.039001465  -999.250000 0.1000000015 0.1000000015 0.0000000000
 1725.3750000 1.5490000248 36.570999146  -999.250000 0.1000000015 0.1000000015 0.0000000000
 1725.5000000 1.3300000429 37.029998779  -999.250000 0.1000000015 0.1000000015 0.0000000000
 1725.6250000 1.2039999962 37.307998657  -999.250000 0.1000000015 0.1000000015 0.0000000000
 1725.7500000 1.1109999418 37.474998474  -999.250000 0.1000000015 0.1000000015 0.0000000000
 1725.8750000 1.1019999981 37.652000427  -999.250000 0.1000000015 0.1000000015 0.0000000000
 1726.0000000 1.1260000467 37.750999451  -999.250000 0.1000000015 0.1000000015 0.0000000000
 1726.1250000 1.2460000515 37.784000397  -999.250000 0.1000000015 0.1000000015 0.0000000000
 1726.2500000 1.3880000114 37.756999969  -999.250000 0.1000000015 0.1000000015 0.0000000000
 1726.3750000 1.4600000381 37.791000366  -999.250000 0.1000000015 0.1000000015 0.0000000000
 1726.5000000 1.5460000038 37.929000854  -999.250000 0.1000000015 0.1000000015 0.0000000000
 1726.6250000 1.5770000219 38.069000244  -999.250000 0.1000000015 0.1000000015 0.0000000000
 1726.7500000 1.5850000381 38.250000000  -999.250000 0.1000000015 0.1000000015 0.0000000000
 1726.8750000 1.5390000343 38.425998688  -999.250000 0.1000000015 0.1000000015 0.0000000000
 1727.0000000 1.5290000439 38.602001190  -999.250000 0.1000000015 0.1000000015 0.0000000000
 1727.1250000 1.5279999971 38.743999481  -999.250000 0.1000000015 0.1000000015 0.0000000000
 1727.2500000 1.5279999971 38.883998871  -999.250000 0.1000000015 0.1000000015 0.0000000000
 1727.3750000 1.5509999990 38.929000854  -999.250000 0.1000000015 0.1000000015 0.0000000000
