# LAS format log file from PETREL
# Project units are specified as depth units
#==================================================================
~Version information
VERS.   2.0:
WRAP.   NO:
#==================================================================
~Well
STRT .m      1450.0000000 :
STOP .m      1760.0000000 :
STEP .m     0.12500000 :
NULL .        -999.250000 :
COMP.           : COMPANY
WELL.  5-0172C   : WELL
FLD.            : FIELD
LOC.            : LOCATION
SRVC.           : SERVICE COMPANY
DATE.  2020-03-08 09:25:09   : Log Export Date {yyyy-MM-dd HH:mm:ss}
PROV.           : PROVINCE
UWI.      : UNIQUE WELL ID
API.            : API NUMBER
#==================================================================
~Curve
DEPT .m                   : DEPTH
RT .ohm.m                 : RT
SP .                      : SP
Fluids .                  : Fluids
POR .m3/m3                : POR
PERM .mD                  : PERM
Lith .                    : Lith
~Parameter
#==================================================================
~Ascii
# ...
 1678.3750000 62.479000092 9.7469997406 4.0000000000 23.000000000 3152.0000000 1.0000000000
 1678.5000000 61.933998108 9.6820001602 4.0000000000 23.000000000 3152.0000000 1.0000000000
 1678.6250000 61.237998962 9.5530004501 4.0000000000 23.000000000 3152.0000000 1.0000000000
 1678.7500000 60.416000366 9.3500003815 4.0000000000 23.000000000 3152.0000000 1.0000000000
 1678.8750000 59.069000244 9.1210002899 4.0000000000 23.000000000 3152.0000000 1.0000000000
 1679.0000000 57.287998199 8.8979997635 4.0000000000 23.000000000 3152.0000000 1.0000000000
 1679.1250000 55.653999329 8.6750001907 4.0000000000 23.000000000 3152.0000000 1.0000000000
 1679.2500000 54.747001648 8.4370002747 4.0000000000 23.000000000 3152.0000000 1.0000000000
 1679.3750000 54.305000305 8.2419996262 4.0000000000 23.000000000 3152.0000000 1.0000000000
 1679.5000000 53.862998962 8.0699996948 4.0000000000 23.000000000 3152.0000000 1.0000000000
 1679.6250000 53.601001740 8.0380001068 4.0000000000 23.000000000 3152.0000000 1.0000000000
 1679.7500000 53.424999237 7.9759998322 4.0000000000 23.000000000 3152.0000000 1.0000000000
 1679.8750000 53.280998230 7.9200000763 4.0000000000 23.000000000 3152.0000000 1.0000000000
 1680.0000000 53.111000061 7.8489999771 4.0000000000 23.000000000 3152.0000000 1.0000000000
 1680.1250000 52.969001770 7.7709999084 4.0000000000 23.000000000 3152.0000000 1.0000000000
 1680.2500000 52.849998474 7.7059998512 4.0000000000 23.000000000 3152.0000000 1.0000000000
 1680.3750000 52.766998291 7.6409997940 4.0000000000 23.000000000 3152.0000000 1.0000000000
 1680.5000000 52.726001740 7.5980000496 4.0000000000 23.000000000 3152.0000000 1.0000000000
 1680.6250000 52.706001282 7.5359997749 4.0000000000 23.000000000 3152.0000000 1.0000000000
 1680.7500000 52.791999817 7.5100002289 4.0000000000 23.000000000 3152.0000000 1.0000000000
 1680.8750000 53.375000000 7.6609997749 4.0000000000 23.000000000 3152.0000000 1.0000000000
 1681.0000000 53.974998474 7.7649998665 4.0000000000 23.000000000 3152.0000000 1.0000000000
 1681.1250000 54.694000244 7.8979997635 4.0000000000 23.000000000 3152.0000000 1.0000000000
 1681.2500000 55.200000763 7.9580001831 4.0000000000 23.000000000 3152.0000000 1.0000000000
 1681.3750000 55.458999634 8.0749998093 4.0000000000 23.000000000 3152.0000000 1.0000000000
 1681.5000000 55.786998749 8.1590003967 4.0000000000 23.000000000 3152.0000000 1.0000000000
 1681.6250000 56.066001892 8.2550001144 4.0000000000 23.000000000 3152.0000000 1.0000000000
 1681.7500000 56.248001099 8.3879995346 4.0000000000 23.000000000 3152.0000000 1.0000000000
 1681.8750000 56.562000275 8.5340003967 4.0000000000 23.000000000 3152.0000000 1.0000000000
 1682.0000000 56.875000000 8.6510000229 4.0000000000 23.000000000 3152.0000000 1.0000000000
 1682.1250000 57.209999084 8.7670001984 4.0000000000 23.000000000 3152.0000000 1.0000000000
 1682.2500000 57.655998230 8.9139995575 4.0000000000 23.000000000 3152.0000000 1.0000000000
 1682.3750000 57.993999481 9.0609998703 4.0000000000 23.000000000 3152.0000000 1.0000000000
 1682.5000000 58.294998169 9.2080001831 4.0000000000 23.000000000 3152.0000000 1.0000000000
 1682.6250000 58.629001617 9.4069995880 4.0000000000 23.000000000 3152.0000000 1.0000000000
 1682.7500000 58.860000610 9.6250000000 4.0000000000 23.000000000 3152.0000000 1.0000000000
 1682.8750000 58.789001465 9.8439998627 4.0000000000 23.000000000 3152.0000000 1.0000000000
 1683.0000000 58.512001038 9.9840002060 4.0000000000 23.000000000 3152.0000000 1.0000000000
 1683.1250000 58.134998322 10.161999702 4.0000000000 23.000000000 3152.0000000 1.0000000000
 1683.2500000 57.750999451 10.321000099 4.0000000000 23.000000000 3152.0000000 1.0000000000
 1683.3750000 57.408000946 10.508000374 4.0000000000 23.000000000 3152.0000000 1.0000000000
 1683.5000000 56.987998962 10.640999794 4.0000000000 23.000000000 3152.0000000 1.0000000000
 1683.6250000 56.463001251 10.774000168 4.0000000000 23.000000000 3152.0000000 1.0000000000
 1683.7500000 55.962001801 10.991999626 4.0000000000 23.000000000 3152.0000000 1.0000000000
 1683.8750000 55.318000793 11.163999557 4.0000000000 23.000000000 3152.0000000 1.0000000000
 1684.0000000 54.706001282 11.291000366 4.0000000000 23.000000000 3152.0000000 1.0000000000
 1684.1250000 53.993000031 11.428000450 4.0000000000 23.000000000 3152.0000000 1.0000000000
 1684.2500000 53.221000671 11.569999695 4.0000000000 23.000000000 3152.0000000 1.0000000000
 1684.3750000 51.653999329 11.642000198 4.0000000000 23.000000000 3152.0000000 1.0000000000
 1684.5000000 50.998001099 11.730999947 4.0000000000 23.000000000 3152.0000000 1.0000000000
 1684.6250000 50.573001862 11.774999619 4.0000000000 23.000000000 3152.0000000 1.0000000000
 1684.7500000 50.345001221 11.793999672 4.0000000000 23.000000000 3152.0000000 1.0000000000
 1684.8750000 50.085998535 11.798999786 4.0000000000 23.000000000 3152.0000000 1.0000000000
 1685.0000000 49.914001465 11.755999565 4.0000000000 23.000000000 3152.0000000 1.0000000000
 1685.1250000 49.682998657 11.690999985 4.0000000000 23.000000000 3152.0000000 1.0000000000
 1685.2500000 49.520000458 11.633999825 4.0000000000 23.000000000 3152.0000000 1.0000000000
 1685.3750000 49.390998840 11.543000221 4.0000000000 23.000000000 3152.0000000 1.0000000000
 1685.5000000 49.262001038 11.375000000 4.0000000000 23.000000000 3152.0000000 1.0000000000
 1685.6250000 49.195999146 11.250000000 4.0000000000 23.000000000 3152.0000000 1.0000000000
 1685.7500000 49.112998962 11.107000351 4.0000000000 23.000000000 3152.0000000 1.0000000000
 1685.8750000 49.136001587 10.954999924 4.0000000000 23.000000000 3152.0000000 1.0000000000
 1686.0000000 49.249000549 10.838999748 4.0000000000 23.000000000 3152.0000000 1.0000000000
 1686.1250000 49.404998779 10.730999947 4.0000000000 23.000000000 3152.0000000 1.0000000000
 1686.2500000 49.578998566 10.656999588 4.0000000000 23.000000000 3152.0000000 1.0000000000
 1686.3750000 49.799999237 10.579999924 4.0000000000 23.000000000 3152.0000000 1.0000000000
 1686.5000000 49.995998383 10.458999634 4.0000000000 23.000000000 3152.0000000 1.0000000000
 1686.6250000 50.223999023 10.399000168 4.0000000000 23.000000000 3152.0000000 1.0000000000
 1686.7500000 50.516998291 10.338999748 4.0000000000 23.000000000 3152.0000000 1.0000000000
 1686.8750000 50.736999512 10.274999619 4.0000000000 23.000000000 3152.0000000 1.0000000000
 1687.0000000 50.937000275 10.211000443 4.0000000000 23.000000000 3152.0000000 1.0000000000
 1687.1250000 51.220001221 10.131999969 4.0000000000 23.000000000 3152.0000000 1.0000000000
 1687.2500000 51.597999573 10.100000381 4.0000000000 23.000000000 3152.0000000 1.0000000000
 1687.3750000 52.019001007 10.046999931 4.0000000000 23.000000000 3152.0000000 1.0000000000
 1687.5000000 52.257999420 10.019000053 4.0000000000 23.000000000 3152.0000000 1.0000000000
 1687.6250000 52.386001587 10.008999825 4.0000000000 23.000000000 3152.0000000 1.0000000000
 1687.7500000 52.615001678 10.041000366 4.0000000000 23.000000000 3152.0000000 1.0000000000
 1687.8750000 52.950000763 10.053000450 4.0000000000 23.000000000 3152.0000000 1.0000000000
 1688.0000000 53.219001770 10.055000305 4.0000000000 23.000000000 3152.0000000 1.0000000000
 1688.1250000 53.430000305 10.053000450 4.0000000000 23.000000000 3152.0000000 1.0000000000
 1688.2500000 53.625999451 10.050000191 4.0000000000 23.000000000 3152.0000000 1.0000000000
 1688.3750000 53.716999054 10.088999748 4.0000000000 23.000000000 3152.0000000 1.0000000000
 1688.5000000 53.743000031 10.149999619 4.0000000000 23.000000000 3152.0000000 1.0000000000
 1688.6250000 53.706001282 10.220000267 4.0000000000 23.000000000 3152.0000000 1.0000000000
 1688.7500000 53.577999115 10.269000053 4.0000000000 23.000000000 3152.0000000 1.0000000000
 1688.8750000 53.449001312 10.388999939 4.0000000000 23.000000000 3152.0000000 1.0000000000
 1689.0000000 53.282001495 10.489000320 4.0000000000 23.000000000 3152.0000000 1.0000000000
 1689.1250000 53.097000122 10.569999695 4.0000000000 23.000000000 3152.0000000 1.0000000000
