# LAS format log file from PETREL
# Project units are specified as depth units
#==================================================================
~Version information
VERS.   2.0:
WRAP.   NO:
#==================================================================
~Well
STRT .m      1510.0000000 :
STOP .m      1750.0000000 :
STEP .m     0.12500000 :
NULL .        -999.250000 :
COMP.           : COMPANY
WELL.  5-0165C   : WELL
FLD.            : FIELD
LOC.            : LOCATION
SRVC.           : SERVICE COMPANY
DATE.  2020-03-08 09:25:09   : Log Export Date {yyyy-MM-dd HH:mm:ss}
PROV.           : PROVINCE
UWI.      : UNIQUE WELL ID
API.            : API NUMBER
#==================================================================
~Curve
DEPT .m                   : DEPTH
RT .ohm.m                 : RT
SP .                      : SP
Fluids .                  : Fluids
POR .m3/m3                : POR
PERM .mD                  : PERM
Lith .                    : Lith
~Parameter
#==================================================================
~Ascii
# ...
 1684.0000000 19.340000153 16.208000183 4.0000000000 22.000000000 2342.0000000 1.0000000000
 1684.1250000 19.798000336 16.246000290 4.0000000000 22.000000000 2342.0000000 1.0000000000
 1684.2500000 19.541000366 16.347999573 4.0000000000 22.000000000 2342.0000000 1.0000000000
 1684.3750000 19.211999893 16.482999802 4.0000000000 22.000000000 2342.0000000 1.0000000000
 1684.5000000 18.697000504 16.791999817 4.0000000000 22.000000000 2342.0000000 1.0000000000
 1684.6250000 18.656999588 17.197000504 4.0000000000 22.000000000 2342.0000000 1.0000000000
 1684.7500000 18.969999313 17.677999496 4.0000000000 22.000000000 2342.0000000 1.0000000000
 1684.8750000 19.783000946 18.038999557 4.0000000000 22.000000000 2342.0000000 1.0000000000
 1685.0000000 20.402999878 18.438999176 4.0000000000 22.000000000 2342.0000000 1.0000000000
 1685.1250000 20.652999878 18.756000519 4.0000000000 22.000000000 2342.0000000 1.0000000000
 1685.2500000 20.343999863 19.003000259 4.0000000000 22.000000000 2342.0000000 1.0000000000
 1685.3750000 19.945999146 19.194999695 4.0000000000 22.000000000 2342.0000000 1.0000000000
 1685.5000000 19.648000717 19.395000458 4.0000000000 22.000000000 2342.0000000 1.0000000000
 1685.6250000 25.726999283 19.621999741 4.0000000000 22.000000000 2342.0000000 1.0000000000
 1685.7500000 26.697000504 19.809000015 4.0000000000 22.000000000 2342.0000000 1.0000000000
 1685.8750000 26.194999695 20.002000809 4.0000000000 22.000000000 2342.0000000 1.0000000000
 1686.0000000 17.312000275 20.170999527 4.0000000000 22.000000000 2342.0000000 1.0000000000
 1686.1250000 13.565999985 20.361999512 4.0000000000 22.000000000 2342.0000000 1.0000000000
 1686.2500000 12.352999687 20.572000504 4.0000000000 22.000000000 2342.0000000 1.0000000000
 1686.3750000 11.468000412 20.813999176 4.0000000000 22.000000000 2342.0000000 1.0000000000
 1686.5000000 11.045999527 21.152000427 4.0000000000 22.000000000 2342.0000000 1.0000000000
 1686.6250000 11.027000427 21.495000839 4.0000000000 22.000000000 2342.0000000 1.0000000000
 1686.7500000 11.164999962 21.746999741 4.0000000000 22.000000000 2342.0000000 1.0000000000
 1686.8750000 11.666000366 21.927000046 4.0000000000 22.000000000 2342.0000000 1.0000000000
 1687.0000000 12.189000130 22.044000626 4.0000000000 22.000000000 2342.0000000 1.0000000000
 1687.1250000 12.668000221 22.044000626 4.0000000000 22.000000000 2342.0000000 1.0000000000
 1687.2500000 12.354000092 21.920000076 4.0000000000 22.000000000 2342.0000000 1.0000000000
 1687.3750000 12.031999588 21.707000732 4.0000000000 22.000000000 2342.0000000 1.0000000000
 1687.5000000 11.935999870 21.495000839 4.0000000000 22.000000000 2342.0000000 1.0000000000
 1687.6250000 13.078000069 21.219999313 4.0000000000 22.000000000 2342.0000000 1.0000000000
 1687.7500000 14.746000290 20.938999176 4.0000000000 22.000000000 2342.0000000 1.0000000000
 1687.8750000 22.072999954 20.687999725 4.0000000000 22.000000000 2342.0000000 1.0000000000
 1688.0000000 23.086000443 20.475000381 4.0000000000 22.000000000 2342.0000000 1.0000000000
 1688.1250000 23.909000397 20.340000153 4.0000000000 22.000000000 2342.0000000 1.0000000000
 1688.2500000 24.379999161 20.263000488 4.0000000000 22.000000000 2342.0000000 1.0000000000
 1688.3750000 24.163999557 20.214000702 4.0000000000 22.000000000 2342.0000000 1.0000000000
 1688.5000000 21.541999817 20.201999664 4.0000000000 22.000000000 2342.0000000 1.0000000000
 1688.6250000 18.410999298 20.278999329 4.0000000000 22.000000000 2342.0000000 1.0000000000
 1688.7500000 15.482000351 20.349000931 4.0000000000 22.000000000 2342.0000000 1.0000000000
 1688.8750000 9.9759998322 20.393999100 4.0000000000 22.000000000 2342.0000000 1.0000000000
 1689.0000000 8.8420000076 20.436000824 4.0000000000 22.000000000 2342.0000000 1.0000000000
 1689.1250000 8.5209999084 20.548999786 4.0000000000 22.000000000 2342.0000000 1.0000000000
 1689.2500000 15.137000084 20.670999527 4.0000000000 22.000000000 2342.0000000 1.0000000000
 1689.3750000 17.413000107 20.711999893 4.0000000000 22.000000000 2342.0000000 1.0000000000
 1689.5000000 19.208999634 20.836000443 4.0000000000 22.000000000 2342.0000000 1.0000000000
 1689.6250000 19.777999878 20.941999435 4.0000000000 22.000000000 2342.0000000 1.0000000000
 1689.7500000 20.059000015 21.017000198 4.0000000000 22.000000000 2342.0000000 1.0000000000
 1689.8750000 20.434000015 21.059999466 4.0000000000 22.000000000 2342.0000000 1.0000000000
 1690.0000000 21.159000397 21.077999115 4.0000000000 22.000000000 2342.0000000 1.0000000000
 1690.1250000 24.155000687 21.104000092 4.0000000000 22.000000000 2342.0000000 1.0000000000
 1690.2500000 36.950000763 21.143999100 4.0000000000 22.000000000 2342.0000000 1.0000000000
 1690.3750000 39.457000732 21.172000885 4.0000000000 22.000000000 2342.0000000 1.0000000000
 1690.5000000 40.499000549 21.198999405 4.0000000000 22.000000000 2342.0000000 1.0000000000
 1690.6250000 39.694999695 21.225999832 4.0000000000 22.000000000 2342.0000000 1.0000000000
 1690.7500000 38.231998444 21.236999512 4.0000000000 22.000000000 2342.0000000 1.0000000000
 1690.8750000 16.913000107 21.239000320 4.0000000000 22.000000000 2342.0000000 1.0000000000
 1691.0000000 12.835000038 21.238000870 4.0000000000 22.000000000 2342.0000000 1.0000000000
 1691.1250000 12.201000214 21.238000870 4.0000000000 22.000000000 2342.0000000 1.0000000000
 1691.2500000 12.020999908 21.238000870 4.0000000000 22.000000000 2342.0000000 1.0000000000
 1691.3750000 11.998999596 21.066999435 4.0000000000 22.000000000 2342.0000000 1.0000000000
 1691.5000000 18.677000046 20.624000549 4.0000000000 22.000000000 2342.0000000 1.0000000000
 1691.6250000 20.187999725 20.198999405 4.0000000000 22.000000000 2342.0000000 1.0000000000
 1691.7500000 20.540000916 19.870000839 4.0000000000 22.000000000 2342.0000000 1.0000000000
 1691.8750000 21.783000946 19.649999619 4.0000000000 22.000000000 2342.0000000 1.0000000000
 1692.0000000 22.649999619 19.486000061 4.0000000000 22.000000000 2342.0000000 1.0000000000
 1692.1250000 23.152999878 19.243000031 4.0000000000 22.000000000 2342.0000000 1.0000000000
 1692.2500000 23.159999847 19.076999664 4.0000000000 22.000000000 2342.0000000 1.0000000000
 1692.3750000 23.056999207 19.016000748 4.0000000000 22.000000000 2342.0000000 1.0000000000
 1692.5000000 23.049999237 18.927000046 4.0000000000 22.000000000 2342.0000000 1.0000000000
 1692.6250000 22.937999725 18.834999084 4.0000000000 22.000000000 2342.0000000 1.0000000000
 1692.7500000 22.395999908 18.739000320 4.0000000000 22.000000000 2342.0000000 1.0000000000
 1692.8750000 21.591999054 18.655000687 4.0000000000 22.000000000 2342.0000000 1.0000000000
 1693.0000000 20.131000519 18.552000046 4.0000000000 22.000000000 2342.0000000 1.0000000000
 1693.1250000 18.395999908 18.486000061 4.0000000000 22.000000000 2342.0000000 1.0000000000
 1693.2500000 17.496999741 18.478000641 4.0000000000 22.000000000 2342.0000000 1.0000000000
 1693.3750000 17.326999664 18.503999710 4.0000000000 22.000000000 2342.0000000 1.0000000000
 1693.5000000 22.646999359 18.454999924 4.0000000000 22.000000000 2342.0000000 1.0000000000
 1693.6250000 24.617000580 18.399000168 4.0000000000 22.000000000 2342.0000000 1.0000000000
 1693.7500000 25.958999634 18.295999527 4.0000000000 22.000000000 2342.0000000 1.0000000000
 1693.8750000 26.708999634 18.158000946 4.0000000000 22.000000000 2342.0000000 1.0000000000
 1694.0000000 27.365999222 18.065000534 4.0000000000 22.000000000 2342.0000000 1.0000000000
 1694.1250000 27.558000565 17.961999893 4.0000000000 22.000000000 2342.0000000 1.0000000000
 1694.2500000 27.545000076 17.892999649 4.0000000000 22.000000000 2342.0000000 1.0000000000
 1694.3750000 26.642000198 17.878000259 4.0000000000 22.000000000 2342.0000000 1.0000000000
 1694.5000000 22.906999588 17.836999893 4.0000000000 22.000000000 2342.0000000 1.0000000000
 1694.6250000 21.586000443 17.922000885 4.0000000000 22.000000000 2342.0000000 1.0000000000
 1694.7500000 21.010000229 17.982000351 4.0000000000 22.000000000 2342.0000000 1.0000000000
