# LAS format log file from PETREL
# Project units are specified as depth units
#==================================================================
~Version information
VERS.   2.0:
WRAP.   NO:
#==================================================================
~Well
STRT .m      1420.0000000 :
STOP .m      1734.8750000 :
STEP .m     0.12500000 :
NULL .        -999.250000 :
COMP.           : COMPANY
WELL.  5-0161C   : WELL
FLD.            : FIELD
LOC.            : LOCATION
SRVC.           : SERVICE COMPANY
DATE.  2020-03-08 09:25:09   : Log Export Date {yyyy-MM-dd HH:mm:ss}
PROV.           : PROVINCE
UWI.      : UNIQUE WELL ID
API.            : API NUMBER
#==================================================================
~Curve
DEPT .m                   : DEPTH
RT .ohm.m                 : RT
SP .                      : SP
Fluids .                  : Fluids
POR .m3/m3                : POR
PERM .mD                  : PERM
Lith .                    : Lith
~Parameter
#==================================================================
~Ascii
# ...
 1583.1250000 21.233999252 -62.61800003 4.0000000000 21.000000000 2019.0000000 1.0000000000
 1583.2500000 19.879999161 -63.22100067 4.0000000000 21.000000000 2019.0000000 1.0000000000
 1583.3750000 18.510999680 -64.23899841 4.0000000000 21.000000000 2019.0000000 1.0000000000
 1583.5000000 17.235000610 -65.24199677 4.0000000000 21.000000000 2019.0000000 1.0000000000
 1583.6250000 16.423999786 -65.83699799 4.0000000000 21.000000000 2019.0000000 1.0000000000
 1583.7500000 16.868999481 -66.02200317 4.0000000000 21.000000000 2019.0000000 1.0000000000
 1583.8750000 17.915000916 -65.93199921 4.0000000000 21.000000000 2019.0000000 1.0000000000
 1584.0000000 18.757999420 -65.73300171 4.0000000000 21.000000000 2019.0000000 1.0000000000
 1584.1250000 19.368999481 -65.50900269 4.0000000000 21.000000000 2019.0000000 1.0000000000
 1584.2500000 19.878999710 -65.24900055 4.0000000000 21.000000000 2019.0000000 1.0000000000
 1584.3750000 19.733999252 -64.93800354 4.0000000000 21.000000000 2019.0000000 1.0000000000
 1584.5000000 18.559999466 -64.55400085 4.0000000000 21.000000000 2019.0000000 1.0000000000
 1584.6250000 16.843999863 -64.11499786 4.0000000000 21.000000000 2019.0000000 1.0000000000
 1584.7500000 14.809000015 -63.68500137 4.0000000000 21.000000000 2019.0000000 1.0000000000
 1584.8750000 12.626000404 -63.31200027 4.0000000000 21.000000000 2019.0000000 1.0000000000
 1585.0000000 11.618000031 -63.06000137 4.0000000000 21.000000000 2019.0000000 1.0000000000
 1585.1250000 11.916000366 -63.02899933 4.0000000000 21.000000000 2019.0000000 1.0000000000
 1585.2500000 12.197999954 -63.31299973 4.0000000000 21.000000000 2019.0000000 1.0000000000
 1585.3750000 12.081999779 -63.84299850 4.0000000000 21.000000000 2019.0000000 1.0000000000
 1585.5000000 11.796999931 -64.35700226 4.0000000000 21.000000000 2019.0000000 1.0000000000
 1585.6250000 11.567999840 -64.57099915 4.0000000000 21.000000000 2019.0000000 1.0000000000
 1585.7500000 11.440999985 -64.35900116  -999.250000 0.1000000015 0.1000000015 0.0000000000
 1585.8750000 11.260000229 -63.81100082  -999.250000 0.1000000015 0.1000000015 0.0000000000
 1586.0000000 10.996000290 -63.06800079  -999.250000 0.1000000015 0.1000000015 0.0000000000
 1586.1250000 10.895999908 -62.19699860  -999.250000 0.1000000015 0.1000000015 0.0000000000
 1586.2500000 11.064000130 -61.34400177  -999.250000 0.1000000015 0.1000000015 0.0000000000
 1586.3750000 11.461000443 -60.87200165  -999.250000 0.1000000015 0.1000000015 0.0000000000
 1586.5000000 11.909999847 -61.12699890  -999.250000 0.1000000015 0.1000000015 0.0000000000
 1586.6250000 12.138999939 -62.00000000  -999.250000 0.1000000015 0.1000000015 0.0000000000
 1586.7500000 12.262999535 -62.98799896  -999.250000 0.1000000015 0.1000000015 0.0000000000
 1586.8750000 12.678999901 -63.67300034  -999.250000 0.1000000015 0.1000000015 0.0000000000
 1587.0000000 13.442999840 -64.05300140 4.0000000000 18.000000000 724.00000000 1.0000000000
 1587.1250000 14.151000023 -64.43099976 4.0000000000 18.000000000 724.00000000 1.0000000000
 1587.2500000 14.333000183 -65.06199646 4.0000000000 18.000000000 724.00000000 1.0000000000
 1587.3750000 14.017000198 -65.84700012 4.0000000000 18.000000000 724.00000000 1.0000000000
 1587.5000000 13.444000244 -66.44599915 4.0000000000 18.000000000 724.00000000 1.0000000000
 1587.6250000 12.663000107 -66.67299652 4.0000000000 18.000000000 724.00000000 1.0000000000
 1587.7500000 11.994999886 -66.63999939 4.0000000000 18.000000000 724.00000000 1.0000000000
 1587.8750000 11.552000046 -66.55200195 4.0000000000 18.000000000 724.00000000 1.0000000000
 1588.0000000 11.345000267 -66.42600250 4.0000000000 18.000000000 724.00000000 1.0000000000
 1588.1250000 11.501999855 -66.14099884 4.0000000000 18.000000000 724.00000000 1.0000000000
 1588.2500000 11.857000351 -65.59100342 4.0000000000 18.000000000 724.00000000 1.0000000000
 1588.3750000 11.973999977 -64.73699951 4.0000000000 18.000000000 724.00000000 1.0000000000
 1588.5000000 11.779999733 -63.65499878 4.0000000000 18.000000000 724.00000000 1.0000000000
 1588.6250000 11.536999702 -62.55500031 4.0000000000 18.000000000 724.00000000 1.0000000000
 1588.7500000 11.541000366 -61.85900116 4.0000000000 18.000000000 724.00000000 1.0000000000
 1588.8750000 11.725999832 -61.96699905 4.0000000000 18.000000000 724.00000000 1.0000000000
 1589.0000000 11.868000031 -62.92100143 4.0000000000 18.000000000 724.00000000 1.0000000000
 1589.1250000 12.003999710 -64.32800293 4.0000000000 18.000000000 724.00000000 1.0000000000
 1589.2500000 12.345999718 -65.63500214 4.0000000000 18.000000000 724.00000000 1.0000000000
 1589.3750000 12.925999641 -66.58200073 4.0000000000 18.000000000 724.00000000 1.0000000000
 1589.5000000 13.574000359 -67.22599792 4.0000000000 18.000000000 724.00000000 1.0000000000
 1589.6250000 14.038000107 -67.68599701 4.0000000000 18.000000000 724.00000000 1.0000000000
 1589.7500000 14.041999817 -67.88899994 4.0000000000 18.000000000 724.00000000 1.0000000000
 1589.8750000 13.711999893 -67.72299957 4.0000000000 18.000000000 724.00000000 1.0000000000
 1590.0000000 13.444999695 -67.25000000 4.0000000000 18.000000000 724.00000000 1.0000000000
 1590.1250000 13.206999779 -66.71700287 4.0000000000 18.000000000 724.00000000 1.0000000000
 1590.2500000 12.774000168 -66.41400146 4.0000000000 18.000000000 724.00000000 1.0000000000
 1590.3750000 12.248999596 -66.45999908 4.0000000000 18.000000000 724.00000000 1.0000000000
 1590.5000000 11.753999710 -66.62200165 4.0000000000 18.000000000 724.00000000 1.0000000000
 1590.6250000 11.383000374 -66.46900177 4.0000000000 18.000000000 724.00000000 1.0000000000
 1590.7500000 11.234000206 -65.76799774 4.0000000000 18.000000000 724.00000000 1.0000000000
 1590.8750000 11.232999802 -64.71499634 4.0000000000 18.000000000 724.00000000 1.0000000000
 1591.0000000 11.583999634 -63.72900009 4.0000000000 18.000000000 724.00000000 1.0000000000
 1591.1250000 12.314000130 -63.23199844 4.0000000000 18.000000000 724.00000000 1.0000000000
 1591.2500000 12.913000107 -63.44699860 4.0000000000 18.000000000 724.00000000 1.0000000000
 1591.3750000 13.074999809 -64.20700073 4.0000000000 18.000000000 724.00000000 1.0000000000
 1591.5000000 12.862000465 -65.07299805 4.0000000000 18.000000000 724.00000000 1.0000000000
 1591.6250000 12.503000259 -65.65699768 4.0000000000 18.000000000 724.00000000 1.0000000000
 1591.7500000 12.281000137 -65.94799805 4.0000000000 18.000000000 724.00000000 1.0000000000
 1591.8750000 12.328000069 -66.22799683 4.0000000000 18.000000000 724.00000000 1.0000000000
 1592.0000000 12.454999924 -66.66200256 4.0000000000 18.000000000 724.00000000 1.0000000000
 1592.1250000 12.184000015 -67.07599640 4.0000000000 18.000000000 724.00000000 1.0000000000
 1592.2500000 11.388999939 -67.13600159 4.0000000000 18.000000000 724.00000000 1.0000000000
 1592.3750000 10.479000092 -66.80799866 4.0000000000 18.000000000 724.00000000 1.0000000000
 1592.5000000 9.6160001755 -66.37200165 4.0000000000 18.000000000 724.00000000 1.0000000000
 1592.6250000 9.0950002670 -66.11900330 4.0000000000 18.000000000 724.00000000 1.0000000000
 1592.7500000 9.2500000000 -66.10199738 4.0000000000 18.000000000 724.00000000 1.0000000000
 1592.8750000 9.8750000000 -66.09799957 4.0000000000 18.000000000 724.00000000 1.0000000000
 1593.0000000 10.512999535 -65.82900238 4.0000000000 18.000000000 724.00000000 1.0000000000
 1593.1250000 10.843000412 -65.20300293 4.0000000000 18.000000000 724.00000000 1.0000000000
 1593.2500000 11.036999702 -64.46499634  -999.250000 0.1000000015 0.1000000015 0.0000000000
 1593.3750000 11.359999657 -63.85200119  -999.250000 0.1000000015 0.1000000015 0.0000000000
 1593.5000000 11.649999619 -63.29800034  -999.250000 0.1000000015 0.1000000015 0.0000000000
 1593.6250000 11.819000244 -62.64400101  -999.250000 0.1000000015 0.1000000015 0.0000000000
 1593.7500000 11.772000313 -61.85400009 4.0000000000 17.000000000 1126.0000000 1.0000000000
 1593.8750000 11.428999901 -61.07400131 4.0000000000 17.000000000 1126.0000000 1.0000000000
