# LAS format log file from PETREL
# Project units are specified as depth units
#==================================================================
~Version information
VERS.   2.0:
WRAP.   NO:
#==================================================================
~Well
STRT .m      725.00000000 :
STOP .m      1752.0000000 :
STEP .m     0.12500000 :
NULL .        -999.250000 :
COMP.           : COMPANY
WELL.  5-0166   : WELL
FLD.            : FIELD
LOC.            : LOCATION
SRVC.           : SERVICE COMPANY
DATE.  2020-03-08 09:25:09   : Log Export Date {yyyy-MM-dd HH:mm:ss}
PROV.           : PROVINCE
UWI.      : UNIQUE WELL ID
API.            : API NUMBER
#==================================================================
~Curve
DEPT .m                   : DEPTH
RT .ohm.m                 : RT
SP .                      : SP
Fluids .                  : Fluids
POR .m3/m3                : POR
PERM .mD                  : PERM
Lith .                    : Lith
~Parameter
#==================================================================
~Ascii
# ...
 1584.1250000 19.622499466 -9999.000000 2.0000000000 17.000000000 234.00000000 1.0000000000
 1584.2500000 18.240999222 -9999.000000 2.0000000000 17.000000000 234.00000000 1.0000000000
 1584.3750000 16.859500885 -9999.000000 2.0000000000 17.000000000 234.00000000 1.0000000000
 1584.5000000 15.477999687 -9999.000000 2.0000000000 17.000000000 234.00000000 1.0000000000
 1584.6250000 13.866499901 -9999.000000 2.0000000000 17.000000000 234.00000000 1.0000000000
 1584.7500000 12.255000114 -9999.000000 2.0000000000 17.000000000 234.00000000 1.0000000000
 1584.8750000 10.643500328 -9999.000000 2.0000000000 17.000000000 234.00000000 1.0000000000
 1585.0000000 9.0319995880 -9999.000000 2.0000000000 17.000000000 234.00000000 1.0000000000
 1585.1250000 8.8857002258 -9999.000000 2.0000000000 17.000000000 234.00000000 1.0000000000
 1585.2500000 8.7395000458 -9999.000000 2.0000000000 17.000000000 234.00000000 1.0000000000
 1585.3750000 8.5931997299 -9999.000000 2.0000000000 17.000000000 234.00000000 1.0000000000
 1585.5000000 8.4469995499 -9999.000000  -999.250000 0.1000000015 0.1000000015 0.0000000000
 1585.6250000 8.4930000305 -9999.000000  -999.250000 0.1000000015 0.1000000015 0.0000000000
 1585.7500000 8.5389995575 -9999.000000  -999.250000 0.1000000015 0.1000000015 0.0000000000
 1585.8750000 8.5850000381 -9999.000000  -999.250000 0.1000000015 0.1000000015 0.0000000000
 1586.0000000 8.6309995651 -9999.000000  -999.250000 0.1000000015 0.1000000015 0.0000000000
 1586.1250000 8.9434995651 -9999.000000 2.0000000000 13.000000000 93.000000000 1.0000000000
 1586.2500000 9.2559995651 -9999.000000 2.0000000000 13.000000000 93.000000000 1.0000000000
 1586.3750000 9.5684995651 -9999.000000 2.0000000000 13.000000000 93.000000000 1.0000000000
 1586.5000000 9.8809995651 -9999.000000 2.0000000000 13.000000000 93.000000000 1.0000000000
 1586.6250000 10.813500404 -9999.000000 2.0000000000 13.000000000 93.000000000 1.0000000000
 1586.7500000 11.746000290 -9999.000000 2.0000000000 13.000000000 93.000000000 1.0000000000
 1586.8750000 12.678500175 -9999.000000 2.0000000000 13.000000000 93.000000000 1.0000000000
 1587.0000000 13.611000061 -9999.000000 2.0000000000 13.000000000 93.000000000 1.0000000000
 1587.1250000 13.379300117 -9999.000000 2.0000000000 13.000000000 93.000000000 1.0000000000
 1587.2500000 13.147500038 -9999.000000 2.0000000000 13.000000000 93.000000000 1.0000000000
 1587.3750000 12.915800095 -9999.000000 2.0000000000 13.000000000 93.000000000 1.0000000000
 1587.5000000 12.684000015 -9999.000000 2.0000000000 13.000000000 93.000000000 1.0000000000
 1587.6250000 13.288499832 -9999.000000 2.0000000000 13.000000000 93.000000000 1.0000000000
 1587.7500000 13.892999649 -9999.000000 2.0000000000 13.000000000 93.000000000 1.0000000000
 1587.8750000 14.497500420 -9999.000000 2.0000000000 13.000000000 93.000000000 1.0000000000
 1588.0000000 15.102000237 -9999.000000 2.0000000000 13.000000000 93.000000000 1.0000000000
 1588.1250000 15.435500145 -9999.000000 2.0000000000 13.000000000 93.000000000 1.0000000000
 1588.2500000 15.769000053 -9999.000000 2.0000000000 13.000000000 93.000000000 1.0000000000
 1588.3750000 16.102500916 -9999.000000 2.0000000000 13.000000000 93.000000000 1.0000000000
 1588.5000000 16.436000824 -9999.000000 2.0000000000 13.000000000 93.000000000 1.0000000000
 1588.6250000 16.773500443 -9999.000000 2.0000000000 13.000000000 93.000000000 1.0000000000
 1588.7500000 17.111000061 -9999.000000 2.0000000000 13.000000000 93.000000000 1.0000000000
 1588.8750000 17.448499680 -9999.000000 2.0000000000 13.000000000 93.000000000 1.0000000000
 1589.0000000 17.785999298 -9999.000000 2.0000000000 13.000000000 93.000000000 1.0000000000
 1589.1250000 16.504699707 -9999.000000 2.0000000000 13.000000000 93.000000000 1.0000000000
 1589.2500000 15.223500252 -9999.000000 2.0000000000 13.000000000 93.000000000 1.0000000000
 1589.3750000 13.942299843 -9999.000000 2.0000000000 13.000000000 93.000000000 1.0000000000
 1589.5000000 12.661000252 -9999.000000 2.0000000000 13.000000000 93.000000000 1.0000000000
 1589.6250000 15.328300476 -9999.000000 2.0000000000 13.000000000 93.000000000 1.0000000000
 1589.7500000 17.995500565 -9999.000000 2.0000000000 13.000000000 93.000000000 1.0000000000
 1589.8750000 20.662799835 -9999.000000 2.0000000000 13.000000000 93.000000000 1.0000000000
 1590.0000000 23.329999924 -9999.000000 2.0000000000 13.000000000 93.000000000 1.0000000000
 1590.1250000 19.794000626 -9999.000000 2.0000000000 13.000000000 93.000000000 1.0000000000
 1590.2500000 16.257999420 -9999.000000 2.0000000000 13.000000000 93.000000000 1.0000000000
 1590.3750000 12.722000122 -9999.000000 2.0000000000 13.000000000 93.000000000 1.0000000000
 1590.5000000 9.1859998703 -9999.000000  -999.250000 0.1000000015 0.1000000015 0.0000000000
 1590.6250000 8.9444999695 -9999.000000  -999.250000 0.1000000015 0.1000000015 0.0000000000
 1590.7500000 8.7030000687 -9999.000000  -999.250000 0.1000000015 0.1000000015 0.0000000000
 1590.8750000 8.4615001678 -9999.000000  -999.250000 0.1000000015 0.1000000015 0.0000000000
 1591.0000000 8.2200002670 -9999.000000  -999.250000 0.1000000015 0.1000000015 0.0000000000
 1591.1250000 9.6435003281 -9999.000000  -999.250000 0.1000000015 0.1000000015 0.0000000000
 1591.2500000 11.067000389 -9999.000000  -999.250000 0.1000000015 0.1000000015 0.0000000000
 1591.3750000 12.490500450 -9999.000000  -999.250000 0.1000000015 0.1000000015 0.0000000000
 1591.5000000 13.913999557 -9999.000000 2.0000000000 18.000000000 300.00000000 1.0000000000
 1591.6250000 14.331999779 -9999.000000 2.0000000000 18.000000000 300.00000000 1.0000000000
 1591.7500000 14.750000000 -9999.000000 2.0000000000 18.000000000 300.00000000 1.0000000000
 1591.8750000 15.168000221 -9999.000000 2.0000000000 18.000000000 300.00000000 1.0000000000
 1592.0000000 15.586000443 -9999.000000 2.0000000000 18.000000000 300.00000000 1.0000000000
 1592.1250000 18.054500580 -9999.000000 2.0000000000 18.000000000 300.00000000 1.0000000000
 1592.2500000 20.523000717 -9999.000000 2.0000000000 18.000000000 300.00000000 1.0000000000
 1592.3750000 22.991500854 -9999.000000 2.0000000000 18.000000000 300.00000000 1.0000000000
 1592.5000000 25.459999084 -9999.000000 2.0000000000 18.000000000 300.00000000 1.0000000000
 1592.6250000 22.560499191 -9999.000000 2.0000000000 18.000000000 300.00000000 1.0000000000
 1592.7500000 19.660999298 -9999.000000 2.0000000000 18.000000000 300.00000000 1.0000000000
 1592.8750000 16.761499405 -9999.000000 2.0000000000 18.000000000 300.00000000 1.0000000000
 1593.0000000 13.862000465 -9999.000000 2.0000000000 18.000000000 300.00000000 1.0000000000
 1593.1250000 17.425800323 -9999.000000 2.0000000000 18.000000000 300.00000000 1.0000000000
 1593.2500000 20.989500046 -9999.000000 2.0000000000 18.000000000 300.00000000 1.0000000000
 1593.3750000 24.553300858 -9999.000000 2.0000000000 18.000000000 300.00000000 1.0000000000
 1593.5000000 28.117000580 -9999.000000 2.0000000000 18.000000000 300.00000000 1.0000000000
 1593.6250000 26.623300552 -9999.000000 2.0000000000 18.000000000 300.00000000 1.0000000000
 1593.7500000 25.129499435 -9999.000000 2.0000000000 18.000000000 300.00000000 1.0000000000
 1593.8750000 23.635799408 -9999.000000 2.0000000000 18.000000000 300.00000000 1.0000000000
 1594.0000000 22.142000198 -9999.000000 2.0000000000 18.000000000 300.00000000 1.0000000000
 1594.1250000 23.124799728 -9999.000000 2.0000000000 18.000000000 300.00000000 1.0000000000
 1594.2500000 24.107500076 -9999.000000 2.0000000000 18.000000000 300.00000000 1.0000000000
 1594.3750000 25.090299606 -9999.000000 2.0000000000 18.000000000 300.00000000 1.0000000000
 1594.5000000 26.072999954 -9999.000000 2.0000000000 18.000000000 300.00000000 1.0000000000
 1594.6250000 26.124200821 -9999.000000 2.0000000000 18.000000000 300.00000000 1.0000000000
 1594.7500000 26.175500870 -9999.000000 2.0000000000 18.000000000 300.00000000 1.0000000000
 1594.8750000 26.226699829 -9999.000000 2.0000000000 18.000000000 300.00000000 1.0000000000
