# LAS format log file from PETREL
# Project units are specified as depth units
#==================================================================
~Version information
VERS.   2.0:
WRAP.   NO:
#==================================================================
~Well
STRT .m      725.00000000 :
STOP .m      1752.0000000 :
STEP .m     0.12500000 :
NULL .        -999.250000 :
COMP.           : COMPANY
WELL.  5-0166   : WELL
FLD.            : FIELD
LOC.            : LOCATION
SRVC.           : SERVICE COMPANY
DATE.  2020-03-08 09:25:09   : Log Export Date {yyyy-MM-dd HH:mm:ss}
PROV.           : PROVINCE
UWI.      : UNIQUE WELL ID
API.            : API NUMBER
#==================================================================
~Curve
DEPT .m                   : DEPTH
RT .ohm.m                 : RT
SP .                      : SP
Fluids .                  : Fluids
POR .m3/m3                : POR
PERM .mD                  : PERM
Lith .                    : Lith
~Parameter
#==================================================================
~Ascii
# ...
 1649.3750000 18.677200317 -9999.000000 4.0000000000 19.000000000 270.00000000 1.0000000000
 1649.5000000 20.486999512 -9999.000000 4.0000000000 19.000000000 270.00000000 1.0000000000
 1649.6250000 19.617000580 -9999.000000 4.0000000000 19.000000000 270.00000000 1.0000000000
 1649.7500000 18.746999741 -9999.000000 4.0000000000 19.000000000 270.00000000 1.0000000000
 1649.8750000 17.877000809 -9999.000000 4.0000000000 19.000000000 270.00000000 1.0000000000
 1650.0000000 17.006999969 -9999.000000 4.0000000000 19.000000000 270.00000000 1.0000000000
 1650.1250000 16.634500504 -9999.000000 4.0000000000 19.000000000 270.00000000 1.0000000000
 1650.2500000 16.261999130 -9999.000000 4.0000000000 19.000000000 270.00000000 1.0000000000
 1650.3750000 15.889499664 -9999.000000 4.0000000000 19.000000000 270.00000000 1.0000000000
 1650.5000000 15.517000198 -9999.000000 4.0000000000 19.000000000 270.00000000 1.0000000000
 1650.6250000 13.951299667 -9999.000000 4.0000000000 19.000000000 270.00000000 1.0000000000
 1650.7500000 12.385499954 -9999.000000  -999.250000 0.1000000015 0.1000000015 0.0000000000
 1650.8750000 10.819700241 -9999.000000  -999.250000 0.1000000015 0.1000000015 0.0000000000
 1651.0000000 9.2539997101 -9999.000000  -999.250000 0.1000000015 0.1000000015 0.0000000000
 1651.1250000 10.023500443 -9999.000000  -999.250000 0.1000000015 0.1000000015 0.0000000000
 1651.2500000 10.793000221 -9999.000000  -999.250000 0.1000000015 0.1000000015 0.0000000000
 1651.3750000 11.562500000 -9999.000000  -999.250000 0.1000000015 0.1000000015 0.0000000000
 1651.5000000 12.331999779 -9999.000000 4.0000000000 16.000000000 132.00000000 1.0000000000
 1651.6250000 12.852999687 -9999.000000 4.0000000000 16.000000000 132.00000000 1.0000000000
 1651.7500000 13.373999596 -9999.000000 4.0000000000 16.000000000 132.00000000 1.0000000000
 1651.8750000 13.895000458 -9999.000000 4.0000000000 16.000000000 132.00000000 1.0000000000
 1652.0000000 14.416000366 -9999.000000 4.0000000000 16.000000000 132.00000000 1.0000000000
 1652.1250000 14.342800140 -9999.000000 4.0000000000 16.000000000 132.00000000 1.0000000000
 1652.2500000 14.269499779 -9999.000000 4.0000000000 16.000000000 132.00000000 1.0000000000
 1652.3750000 14.196299553 -9999.000000 4.0000000000 16.000000000 132.00000000 1.0000000000
 1652.5000000 14.123000145 -9999.000000 4.0000000000 16.000000000 132.00000000 1.0000000000
 1652.6250000 12.253299713 -9999.000000 4.0000000000 16.000000000 132.00000000 1.0000000000
 1652.7500000 10.383500099 -9999.000000  -999.250000 0.1000000015 0.1000000015 0.0000000000
 1652.8750000 8.5137996674 -9999.000000  -999.250000 0.1000000015 0.1000000015 0.0000000000
 1653.0000000 6.6440000534 -9999.000000  -999.250000 0.1000000015 0.1000000015 0.0000000000
 1653.1250000 11.320500374 -9999.000000  -999.250000 0.1000000015 0.1000000015 0.0000000000
 1653.2500000 15.996999741 -9999.000000  -999.250000 0.1000000015 0.1000000015 0.0000000000
 1653.3750000 20.673500061 -9999.000000  -999.250000 0.1000000015 0.1000000015 0.0000000000
 1653.5000000 25.350000381 -9999.000000 4.0000000000 16.000000000 132.00000000 1.0000000000
 1653.6250000 23.930000305 -9999.000000 4.0000000000 16.000000000 132.00000000 1.0000000000
 1653.7500000 22.510000229 -9999.000000 4.0000000000 16.000000000 132.00000000 1.0000000000
 1653.8750000 21.090000153 -9999.000000 4.0000000000 16.000000000 132.00000000 1.0000000000
 1654.0000000 19.670000076 -9999.000000 4.0000000000 16.000000000 132.00000000 1.0000000000
 1654.1250000 19.336000443 -9999.000000 4.0000000000 16.000000000 132.00000000 1.0000000000
 1654.2500000 19.002000809 -9999.000000 4.0000000000 16.000000000 132.00000000 1.0000000000
 1654.3750000 18.667999268 -9999.000000 4.0000000000 16.000000000 132.00000000 1.0000000000
 1654.5000000 18.333999634 -9999.000000 4.0000000000 16.000000000 132.00000000 1.0000000000
 1654.6250000 20.754999161 -9999.000000 4.0000000000 16.000000000 132.00000000 1.0000000000
 1654.7500000 23.176000595 -9999.000000 4.0000000000 16.000000000 132.00000000 1.0000000000
 1654.8750000 25.597000122 -9999.000000 4.0000000000 16.000000000 132.00000000 1.0000000000
 1655.0000000 28.017999649 -9999.000000 4.0000000000 16.000000000 132.00000000 1.0000000000
 1655.1250000 30.923200607 -9999.000000 4.0000000000 16.000000000 132.00000000 1.0000000000
 1655.2500000 33.828498840 -9999.000000 4.0000000000 16.000000000 132.00000000 1.0000000000
 1655.3750000 36.733699799 -9999.000000 4.0000000000 16.000000000 132.00000000 1.0000000000
 1655.5000000 39.638999939 -9999.000000 4.0000000000 16.000000000 132.00000000 1.0000000000
 1655.6250000 38.254199982 -9999.000000 4.0000000000 16.000000000 132.00000000 1.0000000000
 1655.7500000 36.869499207 -9999.000000 4.0000000000 16.000000000 132.00000000 1.0000000000
 1655.8750000 35.484699249 -9999.000000 4.0000000000 16.000000000 132.00000000 1.0000000000
 1656.0000000 34.099998474 -9999.000000 4.0000000000 16.000000000 132.00000000 1.0000000000
 1656.1250000 37.196998596 -9999.000000 4.0000000000 16.000000000 132.00000000 1.0000000000
 1656.2500000 40.293998718 -9999.000000 4.0000000000 16.000000000 132.00000000 1.0000000000
 1656.3750000 43.390998840 -9999.000000 4.0000000000 16.000000000 132.00000000 1.0000000000
 1656.5000000 46.487998962 -9999.000000 4.0000000000 16.000000000 132.00000000 1.0000000000
 1656.6250000 47.575500488 -9999.000000 4.0000000000 16.000000000 132.00000000 1.0000000000
 1656.7500000 48.662998199 -9999.000000 4.0000000000 16.000000000 132.00000000 1.0000000000
 1656.8750000 49.750499725 -9999.000000 4.0000000000 16.000000000 132.00000000 1.0000000000
 1657.0000000 50.838001251 -9999.000000 4.0000000000 16.000000000 132.00000000 1.0000000000
 1657.1250000 44.520301819 -9999.000000 4.0000000000 16.000000000 132.00000000 1.0000000000
 1657.2500000 38.202499390 -9999.000000 4.0000000000 16.000000000 132.00000000 1.0000000000
 1657.3750000 31.884700775 -9999.000000 4.0000000000 16.000000000 132.00000000 1.0000000000
 1657.5000000 25.566999435 -9999.000000 4.0000000000 16.000000000 132.00000000 1.0000000000
 1657.6250000 23.087200165 -9999.000000 4.0000000000 16.000000000 132.00000000 1.0000000000
 1657.7500000 20.607500076 -9999.000000 4.0000000000 16.000000000 132.00000000 1.0000000000
 1657.8750000 18.127700806 -9999.000000 4.0000000000 16.000000000 132.00000000 1.0000000000
 1658.0000000 15.647999763 -9999.000000 4.0000000000 16.000000000 132.00000000 1.0000000000
 1658.1250000 19.889999390 -9999.000000 4.0000000000 16.000000000 132.00000000 1.0000000000
 1658.2500000 24.131999969 -9999.000000 4.0000000000 16.000000000 132.00000000 1.0000000000
 1658.3750000 28.374000549 -9999.000000 4.0000000000 16.000000000 132.00000000 1.0000000000
 1658.5000000 32.616001129 -9999.000000 4.0000000000 16.000000000 132.00000000 1.0000000000
 1658.6250000 33.462299347 -9999.000000 4.0000000000 16.000000000 132.00000000 1.0000000000
 1658.7500000 34.308498383 -9999.000000 4.0000000000 16.000000000 132.00000000 1.0000000000
 1658.8750000 35.154701233 -9999.000000 4.0000000000 16.000000000 132.00000000 1.0000000000
 1659.0000000 36.000999451 -9999.000000 4.0000000000 16.000000000 132.00000000 1.0000000000
 1659.1250000 33.102199554 -9999.000000 4.0000000000 16.000000000 132.00000000 1.0000000000
 1659.2500000 30.203500748 -9999.000000 4.0000000000 16.000000000 132.00000000 1.0000000000
 1659.3750000 27.304700851 -9999.000000 4.0000000000 16.000000000 132.00000000 1.0000000000
 1659.5000000 24.406000137 -9999.000000 4.0000000000 16.000000000 132.00000000 1.0000000000
 1659.6250000 23.366500854 -9999.000000 4.0000000000 16.000000000 132.00000000 1.0000000000
 1659.7500000 22.326999664 -9999.000000 4.0000000000 16.000000000 132.00000000 1.0000000000
 1659.8750000 21.287500381 -9999.000000 4.0000000000 16.000000000 132.00000000 1.0000000000
 1660.0000000 20.247999191 -9999.000000 4.0000000000 16.000000000 132.00000000 1.0000000000
 1660.1250000 21.480699539 -9999.000000 4.0000000000 16.000000000 132.00000000 1.0000000000
