# LAS format log file from PETREL
# Project units are specified as depth units
#==================================================================
~Version information
VERS.   2.0:
WRAP.   NO:
#==================================================================
~Well
STRT .m      1350.0000000 :
STOP .m      1755.0000000 :
STEP .m     0.12500000 :
NULL .        -999.250000 :
COMP.           : COMPANY
WELL.  5-0165C2   : WELL
FLD.            : FIELD
LOC.            : LOCATION
SRVC.           : SERVICE COMPANY
DATE.  2020-03-08 09:25:09   : Log Export Date {yyyy-MM-dd HH:mm:ss}
PROV.           : PROVINCE
UWI.      : UNIQUE WELL ID
API.            : API NUMBER
#==================================================================
~Curve
DEPT .m                   : DEPTH
RT .ohm.m                 : RT
SP .                      : SP
Fluids .                  : Fluids
POR .m3/m3                : POR
PERM .mD                  : PERM
Lith .                    : Lith
~Parameter
#==================================================================
~Ascii
# ...
 1708.8750000 31.677999496 8.4799995422 4.0000000000 22.000000000 2283.0000000 1.0000000000
 1709.0000000 31.552000046 8.6479997635 4.0000000000 22.000000000 2283.0000000 1.0000000000
 1709.1250000 31.552000046 8.8579998016 4.0000000000 22.000000000 2283.0000000 1.0000000000
 1709.2500000 31.503999710 9.1070003510 4.0000000000 22.000000000 2283.0000000 1.0000000000
 1709.3750000 31.382999420 9.2889995575 4.0000000000 22.000000000 2283.0000000 1.0000000000
 1709.5000000 31.261999130 9.4770002365 4.0000000000 22.000000000 2283.0000000 1.0000000000
 1709.6250000 31.218999863 9.8090000153 4.0000000000 22.000000000 2283.0000000 1.0000000000
 1709.7500000 31.211999893 10.104999542 4.0000000000 22.000000000 2283.0000000 1.0000000000
 1709.8750000 31.288000107 10.387999535 4.0000000000 22.000000000 2283.0000000 1.0000000000
 1710.0000000 31.493000031 10.671999931 4.0000000000 22.000000000 2283.0000000 1.0000000000
 1710.1250000 31.981000900 10.795000076 4.0000000000 22.000000000 2283.0000000 1.0000000000
 1710.2500000 32.205001831 10.918000221 4.0000000000 22.000000000 2283.0000000 1.0000000000
 1710.3750000 32.202999115 11.057999611 4.0000000000 22.000000000 2283.0000000 1.0000000000
 1710.5000000 32.200000763 11.126000404 4.0000000000 22.000000000 2283.0000000 1.0000000000
 1710.6250000 31.429000854 11.277000427 4.0000000000 22.000000000 2283.0000000 1.0000000000
 1710.7500000 30.565000534 11.350000381 4.0000000000 22.000000000 2283.0000000 1.0000000000
 1710.8750000 29.754999161 11.463999748 4.0000000000 22.000000000 2283.0000000 1.0000000000
 1711.0000000 28.468999863 11.597000122 4.0000000000 22.000000000 2283.0000000 1.0000000000
 1711.1250000 25.941999435 11.614999771 4.0000000000 22.000000000 2283.0000000 1.0000000000
 1711.2500000 22.549999237 11.621000290 4.0000000000 22.000000000 2283.0000000 1.0000000000
 1711.3750000 20.993000031 11.623000145 4.0000000000 22.000000000 2283.0000000 1.0000000000
 1711.5000000 20.315000534 11.531000137 4.0000000000 22.000000000 2283.0000000 1.0000000000
 1711.6250000 24.783000946 11.402000427 4.0000000000 22.000000000 2283.0000000 1.0000000000
 1711.7500000 30.341999054 10.852000237 4.0000000000 22.000000000 2283.0000000 1.0000000000
 1711.8750000 35.535999298 10.378999710 4.0000000000 22.000000000 2283.0000000 1.0000000000
 1712.0000000 38.330001831 10.116000175 4.0000000000 22.000000000 2283.0000000 1.0000000000
 1712.1250000 39.671001434 9.9989995956 4.0000000000 22.000000000 2283.0000000 1.0000000000
 1712.2500000 40.019001007 9.8680000305 4.0000000000 22.000000000 2283.0000000 1.0000000000
 1712.3750000 40.080001831 9.7329998016 4.0000000000 22.000000000 2283.0000000 1.0000000000
 1712.5000000 39.988998413 9.6379995346 4.0000000000 22.000000000 2283.0000000 1.0000000000
 1712.6250000 39.701999664 9.5120000839 4.0000000000 22.000000000 2283.0000000 1.0000000000
 1712.7500000 35.249000549 9.5069999695 4.0000000000 22.000000000 2283.0000000 1.0000000000
 1712.8750000 30.797000885 9.5019998550 4.0000000000 22.000000000 2283.0000000 1.0000000000
 1713.0000000 29.879999161 9.3979997635 4.0000000000 22.000000000 2283.0000000 1.0000000000
 1713.1250000 28.775999069 9.2939996719 4.0000000000 22.000000000 2283.0000000 1.0000000000
 1713.2500000 24.188999176 9.2370004654 4.0000000000 22.000000000 2283.0000000 1.0000000000
 1713.3750000 23.656000137 9.1789999008 4.0000000000 22.000000000 2283.0000000 1.0000000000
 1713.5000000 23.122999191 9.1739997864 4.0000000000 22.000000000 2283.0000000 1.0000000000
 1713.6250000 22.851999283 9.1730003357  -999.250000 0.1000000015 0.1000000015 0.0000000000
 1713.7500000 22.594999313 9.1739997864  -999.250000 0.1000000015 0.1000000015 0.0000000000
 1713.8750000 22.347000122 9.1759996414  -999.250000 0.1000000015 0.1000000015 0.0000000000
 1714.0000000 22.062999725 9.2580003738  -999.250000 0.1000000015 0.1000000015 0.0000000000
 1714.1250000 21.879999161 9.2790002823  -999.250000 0.1000000015 0.1000000015 0.0000000000
 1714.2500000 21.853000641 9.2899999619  -999.250000 0.1000000015 0.1000000015 0.0000000000
 1714.3750000 22.125999451 9.2930002213 4.0000000000 19.000000000 1208.0000000 1.0000000000
 1714.5000000 24.650999069 9.3750000000 4.0000000000 19.000000000 1208.0000000 1.0000000000
 1714.6250000 26.604999542 9.4040002823 4.0000000000 19.000000000 1208.0000000 1.0000000000
 1714.7500000 28.672000885 9.4099998474 4.0000000000 19.000000000 1208.0000000 1.0000000000
 1714.8750000 29.433000565 9.4130001068 4.0000000000 19.000000000 1208.0000000 1.0000000000
 1715.0000000 32.227001190 9.4149999619 4.0000000000 19.000000000 1208.0000000 1.0000000000
 1715.1250000 35.201999664 9.4169998169 4.0000000000 19.000000000 1208.0000000 1.0000000000
 1715.2500000 37.896999359 9.4180002213 4.0000000000 19.000000000 1208.0000000 1.0000000000
 1715.3750000 37.898998260 9.4200000763 4.0000000000 19.000000000 1208.0000000 1.0000000000
 1715.5000000 37.724998474 9.4219999313 4.0000000000 19.000000000 1208.0000000 1.0000000000
 1715.6250000 37.410999298 9.4230003357 4.0000000000 19.000000000 1208.0000000 1.0000000000
 1715.7500000 36.772998810 9.3500003815 4.0000000000 19.000000000 1208.0000000 1.0000000000
 1715.8750000 34.160999298 9.1529998779 4.0000000000 19.000000000 1208.0000000 1.0000000000
 1716.0000000 29.454999924 8.8990001678 4.0000000000 19.000000000 1208.0000000 1.0000000000
 1716.1250000 27.066999435 8.7080001831 4.0000000000 19.000000000 1208.0000000 1.0000000000
 1716.2500000 25.924999237 8.5939998627 4.0000000000 19.000000000 1208.0000000 1.0000000000
 1716.3750000 24.766000748 8.4670000076 4.0000000000 19.000000000 1208.0000000 1.0000000000
 1716.5000000 23.881000519 8.3669996262 4.0000000000 19.000000000 1208.0000000 1.0000000000
 1716.6250000 23.240999222 8.1639995575 4.0000000000 19.000000000 1208.0000000 1.0000000000
 1716.7500000 22.770999908 8.0050001144 4.0000000000 19.000000000 1208.0000000 1.0000000000
 1716.8750000 22.299999237 7.8239998817 4.0000000000 19.000000000 1208.0000000 1.0000000000
 1717.0000000 21.774000168 7.4889998436 4.0000000000 19.000000000 1208.0000000 1.0000000000
 1717.1250000 21.062000275 7.2810001373 4.0000000000 19.000000000 1208.0000000 1.0000000000
 1717.2500000 20.412000656 6.9400000572 4.0000000000 19.000000000 1208.0000000 1.0000000000
 1717.3750000 19.054000854 6.5430002213 4.0000000000 19.000000000 1208.0000000 1.0000000000
 1717.5000000 15.779000282 5.9990000725 4.0000000000 19.000000000 1208.0000000 1.0000000000
 1717.6250000 14.524000168 5.3769998550 4.0000000000 19.000000000 1208.0000000 1.0000000000
 1717.7500000 14.145000458 4.3850002289 4.0000000000 19.000000000 1208.0000000 1.0000000000
 1717.8750000 13.777000427 3.3220000267 4.0000000000 19.000000000 1208.0000000 1.0000000000
 1718.0000000 13.496000290 2.7820000648 4.0000000000 19.000000000 1208.0000000 1.0000000000
 1718.1250000 13.385999680 2.2420001030 4.0000000000 19.000000000 1208.0000000 1.0000000000
 1718.2500000 13.479999542 1.8029999733 4.0000000000 19.000000000 1208.0000000 1.0000000000
 1718.3750000 13.751000404 1.4559999704 4.0000000000 19.000000000 1208.0000000 1.0000000000
 1718.5000000 14.704000473 1.0720000267 4.0000000000 19.000000000 1208.0000000 1.0000000000
 1718.6250000 16.437999725 0.7570000291 4.0000000000 19.000000000 1208.0000000 1.0000000000
 1718.7500000 20.017999649 0.5490000248 4.0000000000 19.000000000 1208.0000000 1.0000000000
 1718.8750000 22.611999512 0.2119999975 4.0000000000 19.000000000 1208.0000000 1.0000000000
 1719.0000000 30.910999298 -0.081000000 4.0000000000 19.000000000 1208.0000000 1.0000000000
 1719.1250000 35.550998688 -0.187999994 4.0000000000 19.000000000 1208.0000000 1.0000000000
 1719.2500000 0.0000000000 -0.217999995 4.0000000000 19.000000000 1208.0000000 1.0000000000
 1719.3750000 0.0000000000 -0.217999995 4.0000000000 19.000000000 1208.0000000 1.0000000000
 1719.5000000 0.0000000000 -0.159999996 4.0000000000 19.000000000 1208.0000000 1.0000000000
 1719.6250000 0.0000000000 0.0020000001 4.0000000000 19.000000000 1208.0000000 1.0000000000
