# LAS format log file from PETREL
# Project units are specified as depth units
#==================================================================
~Version information
VERS.   2.0:
WRAP.   NO:
#==================================================================
~Well
STRT .m      1338.0000000 :
STOP .m      1710.0000000 :
STEP .m     0.12500000 :
NULL .        -999.250000 :
COMP.           : COMPANY
WELL.  5-0162C2   : WELL
FLD.            : FIELD
LOC.            : LOCATION
SRVC.           : SERVICE COMPANY
DATE.  2020-03-08 09:25:09   : Log Export Date {yyyy-MM-dd HH:mm:ss}
PROV.           : PROVINCE
UWI.      : UNIQUE WELL ID
API.            : API NUMBER
#==================================================================
~Curve
DEPT .m                   : DEPTH
RT .ohm.m                 : RT
SP .                      : SP
Fluids .                  : Fluids
POR .m3/m3                : POR
PERM .mD                  : PERM
Lith .                    : Lith
~Parameter
#==================================================================
~Ascii
# ...
 1620.7500000 26.280000687 -73.98000336 4.0000000000 19.000000000 267.00000000 1.0000000000
 1620.8750000 23.479999542 -74.12000275 4.0000000000 19.000000000 267.00000000 1.0000000000
 1621.0000000 21.670000076 -74.26999664 4.0000000000 19.000000000 267.00000000 1.0000000000
 1621.1250000 21.389999390 -74.45999908 4.0000000000 19.000000000 267.00000000 1.0000000000
 1621.2500000 22.299999237 -74.68000031 4.0000000000 19.000000000 267.00000000 1.0000000000
 1621.3750000 24.180000305 -74.91999817 4.0000000000 19.000000000 267.00000000 1.0000000000
 1621.5000000 26.809999466 -75.16999817 4.0000000000 19.000000000 267.00000000 1.0000000000
 1621.6250000 29.350000381 -75.38999939 4.0000000000 19.000000000 267.00000000 1.0000000000
 1621.7500000 30.770000458 -75.61000061 4.0000000000 19.000000000 267.00000000 1.0000000000
 1621.8750000 30.940000534 -75.83000183 4.0000000000 19.000000000 267.00000000 1.0000000000
 1622.0000000 30.690000534 -76.04000092 4.0000000000 19.000000000 267.00000000 1.0000000000
 1622.1250000 30.500000000 -76.22000122 4.0000000000 19.000000000 267.00000000 1.0000000000
 1622.2500000 30.389999390 -76.37999725 4.0000000000 19.000000000 267.00000000 1.0000000000
 1622.3750000 30.479999542 -76.51000214 4.0000000000 19.000000000 267.00000000 1.0000000000
 1622.5000000 30.920000076 -76.62000275 4.0000000000 19.000000000 267.00000000 1.0000000000
 1622.6250000 31.559999466 -76.72000122 4.0000000000 19.000000000 267.00000000 1.0000000000
 1622.7500000 32.299999237 -76.80999756 4.0000000000 19.000000000 267.00000000 1.0000000000
 1622.8750000 33.279998779 -76.88999939 4.0000000000 19.000000000 267.00000000 1.0000000000
 1623.0000000 34.299999237 -76.95999908 4.0000000000 19.000000000 267.00000000 1.0000000000
 1623.1250000 34.990001678 -77.05000305 4.0000000000 19.000000000 267.00000000 1.0000000000
 1623.2500000 35.340000153 -77.15000153 4.0000000000 19.000000000 267.00000000 1.0000000000
 1623.3750000 35.750000000 -77.25000000 4.0000000000 19.000000000 267.00000000 1.0000000000
 1623.5000000 36.430000305 -77.33999634 4.0000000000 19.000000000 267.00000000 1.0000000000
 1623.6250000 37.279998779 -77.41000366 4.0000000000 19.000000000 267.00000000 1.0000000000
 1623.7500000 38.279998779 -77.45999908 4.0000000000 19.000000000 267.00000000 1.0000000000
 1623.8750000 39.439998627 -77.50000000 4.0000000000 19.000000000 267.00000000 1.0000000000
 1624.0000000 40.360000610 -77.48999786 4.0000000000 19.000000000 267.00000000 1.0000000000
 1624.1250000 40.389999390 -77.44999695 4.0000000000 19.000000000 267.00000000 1.0000000000
 1624.2500000 39.470001221 -77.38999939 4.0000000000 19.000000000 267.00000000 1.0000000000
 1624.3750000 38.159999847 -77.30999756 4.0000000000 19.000000000 267.00000000 1.0000000000
 1624.5000000 37.119998932 -77.22000122 4.0000000000 19.000000000 267.00000000 1.0000000000
 1624.6250000 36.509998322 -77.11000061 4.0000000000 19.000000000 267.00000000 1.0000000000
 1624.7500000 36.169998169 -77.00000000 4.0000000000 19.000000000 267.00000000 1.0000000000
 1624.8750000 36.090000153 -76.88999939 4.0000000000 19.000000000 267.00000000 1.0000000000
 1625.0000000 36.130001068 -76.77999878 4.0000000000 19.000000000 267.00000000 1.0000000000
 1625.1250000 35.750000000 -76.66999817 4.0000000000 19.000000000 267.00000000 1.0000000000
 1625.2500000 34.569999695 -76.58000183 4.0000000000 19.000000000 267.00000000 1.0000000000
 1625.3750000 32.770000458 -76.48999786 4.0000000000 19.000000000 267.00000000 1.0000000000
 1625.5000000 30.979999542 -76.41000366 4.0000000000 19.000000000 267.00000000 1.0000000000
 1625.6250000 29.340000153 -76.33999634 4.0000000000 19.000000000 267.00000000 1.0000000000
 1625.7500000 27.840000153 -76.26000214 4.0000000000 19.000000000 267.00000000 1.0000000000
 1625.8750000 26.989999771 -76.19000244 4.0000000000 19.000000000 267.00000000 1.0000000000
 1626.0000000 27.200000763 -76.09999847 4.0000000000 19.000000000 267.00000000 1.0000000000
 1626.1250000 28.280000687 -76.00000000 4.0000000000 19.000000000 267.00000000 1.0000000000
 1626.2500000 29.590000153 -75.87999725 4.0000000000 19.000000000 267.00000000 1.0000000000
 1626.3750000 30.979999542 -75.73999786 4.0000000000 19.000000000 267.00000000 1.0000000000
 1626.5000000 32.090000153 -75.58000183 4.0000000000 19.000000000 267.00000000 1.0000000000
 1626.6250000 32.169998169 -75.37000275 4.0000000000 19.000000000 267.00000000 1.0000000000
 1626.7500000 31.059999466 -75.12999725 4.0000000000 19.000000000 267.00000000 1.0000000000
 1626.8750000 29.790000916 -74.88999939 4.0000000000 19.000000000 267.00000000 1.0000000000
 1627.0000000 29.549999237 -74.68000031 4.0000000000 19.000000000 267.00000000 1.0000000000
 1627.1250000 30.450000763 -74.48999786 4.0000000000 19.000000000 267.00000000 1.0000000000
 1627.2500000 31.870000839 -74.33000183 4.0000000000 19.000000000 267.00000000 1.0000000000
 1627.3750000 33.110000610 -74.22000122 4.0000000000 19.000000000 267.00000000 1.0000000000
 1627.5000000 33.610000610 -74.15000153 4.0000000000 19.000000000 267.00000000 1.0000000000
 1627.6250000 33.080001831 -74.13999939 4.0000000000 19.000000000 267.00000000 1.0000000000
 1627.7500000 32.060001373 -74.13999939 4.0000000000 19.000000000 267.00000000 1.0000000000
 1627.8750000 31.209999084 -74.12999725 4.0000000000 19.000000000 267.00000000 1.0000000000
 1628.0000000 30.959999084 -74.11000061 4.0000000000 19.000000000 267.00000000 1.0000000000
 1628.1250000 31.239999771 -74.08999634 4.0000000000 19.000000000 267.00000000 1.0000000000
 1628.2500000 32.040000916 -74.02999878 4.0000000000 19.000000000 267.00000000 1.0000000000
 1628.3750000 32.880001068 -73.94000244 4.0000000000 19.000000000 267.00000000 1.0000000000
 1628.5000000 33.009998322 -73.83999634 4.0000000000 19.000000000 267.00000000 1.0000000000
 1628.6250000 32.669998169 -73.70999908 4.0000000000 19.000000000 267.00000000 1.0000000000
 1628.7500000 32.779998779 -73.55999756 4.0000000000 19.000000000 267.00000000 1.0000000000
 1628.8750000 32.740001678 -73.36000061 4.0000000000 19.000000000 267.00000000 1.0000000000
 1629.0000000 31.229999542 -73.15000153 2.0000000000 18.000000000 217.00000000 1.0000000000
 1629.1250000 28.489999771 -72.98000336 2.0000000000 18.000000000 217.00000000 1.0000000000
 1629.2500000 26.170000076 -72.84999847 2.0000000000 18.000000000 217.00000000 1.0000000000
 1629.3750000 24.899999619 -72.77999878 2.0000000000 18.000000000 217.00000000 1.0000000000
 1629.5000000 24.030000687 -72.76000214 2.0000000000 18.000000000 217.00000000 1.0000000000
 1629.6250000 23.920000076 -72.79000092 2.0000000000 18.000000000 217.00000000 1.0000000000
 1629.7500000 24.930000305 -72.83999634 2.0000000000 18.000000000 217.00000000 1.0000000000
 1629.8750000 26.149999619 -72.90000153 2.0000000000 18.000000000 217.00000000 1.0000000000
 1630.0000000 26.370000839 -72.94999695 2.0000000000 18.000000000 217.00000000 1.0000000000
 1630.1250000 25.459999084 -72.97000122 2.0000000000 18.000000000 217.00000000 1.0000000000
 1630.2500000 24.139999390 -72.91000366 2.0000000000 18.000000000 217.00000000 1.0000000000
 1630.3750000 22.940000534 -72.81999969 2.0000000000 18.000000000 217.00000000 1.0000000000
 1630.5000000 22.110000610 -72.72000122 2.0000000000 18.000000000 217.00000000 1.0000000000
 1630.6250000 21.850000381 -72.65000153 2.0000000000 18.000000000 217.00000000 1.0000000000
 1630.7500000 22.020000458 -72.61000061 2.0000000000 18.000000000 217.00000000 1.0000000000
 1630.8750000 22.569999695 -72.61000061 2.0000000000 18.000000000 217.00000000 1.0000000000
 1631.0000000 23.440000534 -72.66999817 2.0000000000 18.000000000 217.00000000 1.0000000000
 1631.1250000 24.559999466 -72.77999878 2.0000000000 18.000000000 217.00000000 1.0000000000
 1631.2500000 25.739999771 -72.90000153 2.0000000000 18.000000000 217.00000000 1.0000000000
 1631.3750000 26.709999084 -72.98999786 2.0000000000 18.000000000 217.00000000 1.0000000000
 1631.5000000 27.030000687 -73.04000092 2.0000000000 18.000000000 217.00000000 1.0000000000
