# LAS format log file from PETREL
# Project units are specified as depth units
#==================================================================
~Version information
VERS.   2.0:
WRAP.   NO:
#==================================================================
~Well
STRT .m      1350.0000000 :
STOP .m      1755.0000000 :
STEP .m     0.12500000 :
NULL .        -999.250000 :
COMP.           : COMPANY
WELL.  5-0165C2   : WELL
FLD.            : FIELD
LOC.            : LOCATION
SRVC.           : SERVICE COMPANY
DATE.  2020-03-08 09:25:09   : Log Export Date {yyyy-MM-dd HH:mm:ss}
PROV.           : PROVINCE
UWI.      : UNIQUE WELL ID
API.            : API NUMBER
#==================================================================
~Curve
DEPT .m                   : DEPTH
RT .ohm.m                 : RT
SP .                      : SP
Fluids .                  : Fluids
POR .m3/m3                : POR
PERM .mD                  : PERM
Lith .                    : Lith
~Parameter
#==================================================================
~Ascii
# ...
 1676.2500000 25.629999161 14.583000183 4.0000000000 20.000000000 1100.0000000 1.0000000000
 1676.3750000 24.170999527 14.362999916 4.0000000000 20.000000000 1100.0000000 1.0000000000
 1676.5000000 17.240999222 12.456999779 4.0000000000 20.000000000 1100.0000000 1.0000000000
 1676.6250000 13.291000366 7.8530001640 4.0000000000 20.000000000 1100.0000000 1.0000000000
 1676.7500000 10.395999908 5.4730000496 4.0000000000 20.000000000 1100.0000000 1.0000000000
 1676.8750000 9.1809997559 4.6189999580 4.0000000000 20.000000000 1100.0000000 1.0000000000
 1677.0000000 8.2860002518 3.9939999580 4.0000000000 20.000000000 1100.0000000 1.0000000000
 1677.1250000 7.4279999733 3.6579999924 4.0000000000 20.000000000 1100.0000000 1.0000000000
 1677.2500000 6.8579998016 3.3619999886 4.0000000000 20.000000000 1100.0000000 1.0000000000
 1677.3750000 6.8210000992 3.2449998856 4.0000000000 20.000000000 1100.0000000 1.0000000000
 1677.5000000 7.0619997978 3.0199999809 4.0000000000 20.000000000 1100.0000000 1.0000000000
 1677.6250000 7.5859999657 2.7539999485 4.0000000000 20.000000000 1100.0000000 1.0000000000
 1677.7500000 8.2170000076 2.6610000134 4.0000000000 20.000000000 1100.0000000 1.0000000000
 1677.8750000 9.4020004272 2.5690000057 4.0000000000 20.000000000 1100.0000000 1.0000000000
 1678.0000000 10.928999901 2.3570001125 4.0000000000 20.000000000 1100.0000000 1.0000000000
 1678.1250000 13.328000069 2.2449998856 4.0000000000 20.000000000 1100.0000000 1.0000000000
 1678.2500000 15.293999672 2.1480000019 4.0000000000 20.000000000 1100.0000000 1.0000000000
 1678.3750000 16.750999451 2.1150000095 4.0000000000 20.000000000 1100.0000000 1.0000000000
 1678.5000000 34.154998779 2.0980000496 4.0000000000 20.000000000 1100.0000000 1.0000000000
 1678.6250000 34.995998383 2.0339999199 4.0000000000 20.000000000 1100.0000000 1.0000000000
 1678.7500000 34.851001740 2.0000000000 4.0000000000 20.000000000 1100.0000000 1.0000000000
 1678.8750000 33.548000336 1.9299999475 4.0000000000 20.000000000 1100.0000000 1.0000000000
 1679.0000000 32.686000824 1.9539999962 3.0000000000 16.000000000 474.00000000 1.0000000000
 1679.1250000 32.269001007 1.9780000448 3.0000000000 16.000000000 474.00000000 1.0000000000
 1679.2500000 32.141998291 2.1389999390 3.0000000000 16.000000000 474.00000000 1.0000000000
 1679.3750000 31.926000595 2.2999999523 3.0000000000 16.000000000 474.00000000 1.0000000000
 1679.5000000 32.039001465 2.5079998970 3.0000000000 16.000000000 474.00000000 1.0000000000
 1679.6250000 32.265998840 2.8289999962 3.0000000000 16.000000000 474.00000000 1.0000000000
 1679.7500000 32.625000000 3.2960000038 3.0000000000 16.000000000 474.00000000 1.0000000000
 1679.8750000 33.201999664 3.9340000153 3.0000000000 16.000000000 474.00000000 1.0000000000
 1680.0000000 33.770000458 4.9060001373 3.0000000000 16.000000000 474.00000000 1.0000000000
 1680.1250000 33.752998352 5.6230001450 3.0000000000 16.000000000 474.00000000 1.0000000000
 1680.2500000 32.972000122 6.4050002098 3.0000000000 16.000000000 474.00000000 1.0000000000
 1680.3750000 30.872999191 7.2249999046 3.0000000000 16.000000000 474.00000000 1.0000000000
 1680.5000000 26.899000168 8.1549997330 3.0000000000 16.000000000 474.00000000 1.0000000000
 1680.6250000 25.809000015 9.0290002823 3.0000000000 16.000000000 474.00000000 1.0000000000
 1680.7500000 24.882999420 9.8159999847 3.0000000000 16.000000000 474.00000000 1.0000000000
 1680.8750000 24.143999100 10.560999870 3.0000000000 16.000000000 474.00000000 1.0000000000
 1681.0000000 23.625000000 11.039999962 3.0000000000 16.000000000 474.00000000 1.0000000000
 1681.1250000 22.965000153 11.567000389 3.0000000000 16.000000000 474.00000000 1.0000000000
 1681.2500000 22.489999771 12.029000282 3.0000000000 16.000000000 474.00000000 1.0000000000
 1681.3750000 22.184000015 12.420999527 3.0000000000 16.000000000 474.00000000 1.0000000000
 1681.5000000 22.006000519 12.833000183 3.0000000000 16.000000000 474.00000000 1.0000000000
 1681.6250000 21.827999115 13.255000114 3.0000000000 16.000000000 474.00000000 1.0000000000
 1681.7500000 21.729999542 13.541000366 3.0000000000 16.000000000 474.00000000 1.0000000000
 1681.8750000 21.650999069 13.828000069 3.0000000000 16.000000000 474.00000000 1.0000000000
 1682.0000000 21.625999451 14.043000221 3.0000000000 16.000000000 474.00000000 1.0000000000
 1682.1250000 21.645000458 14.241000175 3.0000000000 16.000000000 474.00000000 1.0000000000
 1682.2500000 21.687999725 14.479000092 3.0000000000 16.000000000 474.00000000 1.0000000000
 1682.3750000 21.760999680 14.664999962 3.0000000000 16.000000000 474.00000000 1.0000000000
 1682.5000000 21.934000015 14.786000252 4.0000000000 21.000000000 1359.0000000 1.0000000000
 1682.6250000 22.198999405 14.918000221 4.0000000000 21.000000000 1359.0000000 1.0000000000
 1682.7500000 23.075000763 14.956999779 4.0000000000 21.000000000 1359.0000000 1.0000000000
 1682.8750000 26.065999985 14.975999832 4.0000000000 21.000000000 1359.0000000 1.0000000000
 1683.0000000 27.868999481 14.984000206 4.0000000000 21.000000000 1359.0000000 1.0000000000
 1683.1250000 27.450000763 14.788000107 4.0000000000 21.000000000 1359.0000000 1.0000000000
 1683.2500000 27.117000580 14.519000053 4.0000000000 21.000000000 1359.0000000 1.0000000000
 1683.3750000 26.735000610 14.050999641 4.0000000000 21.000000000 1359.0000000 1.0000000000
 1683.5000000 26.281999588 13.196999550 4.0000000000 21.000000000 1359.0000000 1.0000000000
 1683.6250000 26.100999832 12.428000450 4.0000000000 21.000000000 1359.0000000 1.0000000000
 1683.7500000 26.180999756 11.743000031 4.0000000000 21.000000000 1359.0000000 1.0000000000
 1683.8750000 27.020000458 10.072999954 4.0000000000 21.000000000 1359.0000000 1.0000000000
 1684.0000000 30.135000229 8.4300003052 4.0000000000 21.000000000 1359.0000000 1.0000000000
 1684.1250000 31.684000015 7.0419998169 4.0000000000 21.000000000 1359.0000000 1.0000000000
 1684.2500000 33.284999847 5.8610000610 4.0000000000 21.000000000 1359.0000000 1.0000000000
 1684.3750000 28.676000595 4.8639998436 4.0000000000 21.000000000 1359.0000000 1.0000000000
 1684.5000000 24.665000916 4.4039998055 4.0000000000 21.000000000 1359.0000000 1.0000000000
 1684.6250000 22.045999527 4.0879998207 4.0000000000 21.000000000 1359.0000000 1.0000000000
 1684.7500000 20.486000061 3.8099999428 4.0000000000 21.000000000 1359.0000000 1.0000000000
 1684.8750000 17.778999329 3.5339999199 4.0000000000 21.000000000 1359.0000000 1.0000000000
 1685.0000000 16.524000168 3.2579998970 4.0000000000 21.000000000 1359.0000000 1.0000000000
 1685.1250000 15.369999886 3.0399999619 4.0000000000 21.000000000 1359.0000000 1.0000000000
 1685.2500000 14.500000000 2.7950000763 4.0000000000 21.000000000 1359.0000000 1.0000000000
 1685.3750000 13.920999527 2.6070001125 4.0000000000 21.000000000 1359.0000000 1.0000000000
 1685.5000000 13.718000412 2.4219999313 4.0000000000 21.000000000 1359.0000000 1.0000000000
 1685.6250000 13.661000252 2.2620000839 4.0000000000 21.000000000 1359.0000000 1.0000000000
 1685.7500000 13.635000229 2.1150000095 4.0000000000 21.000000000 1359.0000000 1.0000000000
 1685.8750000 13.663000107 1.9739999771 4.0000000000 21.000000000 1359.0000000 1.0000000000
 1686.0000000 13.701999664 1.8769999743 4.0000000000 21.000000000 1359.0000000 1.0000000000
 1686.1250000 13.718000412 1.7519999743 4.0000000000 21.000000000 1359.0000000 1.0000000000
 1686.2500000 13.767000198 1.7419999838 4.0000000000 21.000000000 1359.0000000 1.0000000000
 1686.3750000 14.031000137 1.8509999514 4.0000000000 21.000000000 1359.0000000 1.0000000000
 1686.5000000 14.519000053 2.2279999256 4.0000000000 21.000000000 1359.0000000 1.0000000000
 1686.6250000 15.093000412 2.7000000477  -999.250000 0.1000000015 0.1000000015 0.0000000000
 1686.7500000 23.882999420 3.3919999599  -999.250000 0.1000000015 0.1000000015 0.0000000000
 1686.8750000 28.700000763 3.9890000820  -999.250000 0.1000000015 0.1000000015 0.0000000000
 1687.0000000 31.159000397 4.7350001335 3.0000000000 17.000000000 453.00000000 1.0000000000
