# LAS format log file from PETREL
# Project units are specified as depth units
#==================================================================
~Version information
VERS.   2.0:
WRAP.   NO:
#==================================================================
~Well
STRT .m      745.00000000 :
STOP .m      1730.0000000 :
STEP .m     0.12500000 :
NULL .        -999.250000 :
COMP.           : COMPANY
WELL.  5-0158   : WELL
FLD.            : FIELD
LOC.            : LOCATION
SRVC.           : SERVICE COMPANY
DATE.  2020-03-08 09:25:08   : Log Export Date {yyyy-MM-dd HH:mm:ss}
PROV.           : PROVINCE
UWI.      : UNIQUE WELL ID
API.            : API NUMBER
#==================================================================
~Curve
DEPT .m                   : DEPTH
RT .ohm.m                 : RT
SP .                      : SP
Fluids .                  : Fluids
POR .m3/m3                : POR
PERM .mD                  : PERM
Lith .                    : Lith
~Parameter
#==================================================================
~Ascii
# ...
 1604.1250000 3.7711999416 -9999.000000  -999.250000 0.1000000015 0.1000000015 0.0000000000
 1604.2500000 3.8764998913 -9999.000000  -999.250000 0.1000000015 0.1000000015 0.0000000000
 1604.3750000 3.9816999435 -9999.000000  -999.250000 0.1000000015 0.1000000015 0.0000000000
 1604.5000000 4.0869998932 -9999.000000  -999.250000 0.1000000015 0.1000000015 0.0000000000
 1604.6250000 4.0250000954 -9999.000000  -999.250000 0.1000000015 0.1000000015 0.0000000000
 1604.7500000 3.9630000591 -9999.000000  -999.250000 0.1000000015 0.1000000015 0.0000000000
 1604.8750000 3.9010000229 -9999.000000  -999.250000 0.1000000015 0.1000000015 0.0000000000
 1605.0000000 3.8389999866 -9999.000000  -999.250000 0.1000000015 0.1000000015 0.0000000000
 1605.1250000 3.9525001049 -9999.000000  -999.250000 0.1000000015 0.1000000015 0.0000000000
 1605.2500000 4.0659999847 -9999.000000  -999.250000 0.1000000015 0.1000000015 0.0000000000
 1605.3750000 4.1795001030 -9999.000000  -999.250000 0.1000000015 0.1000000015 0.0000000000
 1605.5000000 4.2930002213 -9999.000000  -999.250000 0.1000000015 0.1000000015 0.0000000000
 1605.6250000 4.4127998352 -9999.000000  -999.250000 0.1000000015 0.1000000015 0.0000000000
 1605.7500000 4.5324997902 -9999.000000  -999.250000 0.1000000015 0.1000000015 0.0000000000
 1605.8750000 4.6522002220 -9999.000000  -999.250000 0.1000000015 0.1000000015 0.0000000000
 1606.0000000 4.7719998360 -9999.000000  -999.250000 0.1000000015 0.1000000015 0.0000000000
 1606.1250000 4.1954998970 -9999.000000  -999.250000 0.1000000015 0.1000000015 0.0000000000
 1606.2500000 3.6189999580 -9999.000000  -999.250000 0.1000000015 0.1000000015 0.0000000000
 1606.3750000 3.0425000191 -9999.000000  -999.250000 0.1000000015 0.1000000015 0.0000000000
 1606.5000000 2.4660000801 -9999.000000  -999.250000 0.1000000015 0.1000000015 0.0000000000
 1606.6250000 3.2188000679 -9999.000000  -999.250000 0.1000000015 0.1000000015 0.0000000000
 1606.7500000 3.9714999199 -9999.000000  -999.250000 0.1000000015 0.1000000015 0.0000000000
 1606.8750000 4.7242999077 -9999.000000  -999.250000 0.1000000015 0.1000000015 0.0000000000
 1607.0000000 5.4770002365 -9999.000000  -999.250000 0.1000000015 0.1000000015 0.0000000000
 1607.1250000 6.5932998657 -9999.000000  -999.250000 0.1000000015 0.1000000015 0.0000000000
 1607.2500000 7.7094998360 -9999.000000  -999.250000 0.1000000015 0.1000000015 0.0000000000
 1607.3750000 8.8257999420 -9999.000000  -999.250000 0.1000000015 0.1000000015 0.0000000000
 1607.5000000 9.9420003891 -9999.000000  -999.250000 0.1000000015 0.1000000015 0.0000000000
 1607.6250000 9.8797998428 -9999.000000  -999.250000 0.1000000015 0.1000000015 0.0000000000
 1607.7500000 9.8175001144 -9999.000000  -999.250000 0.1000000015 0.1000000015 0.0000000000
 1607.8750000 9.7552003860 -9999.000000  -999.250000 0.1000000015 0.1000000015 0.0000000000
 1608.0000000 9.6929998398 -9999.000000  -999.250000 0.1000000015 0.1000000015 0.0000000000
 1608.1250000 9.9069995880 -9999.000000  -999.250000 0.1000000015 0.1000000015 0.0000000000
 1608.2500000 10.121000290 -9999.000000  -999.250000 0.1000000015 0.1000000015 0.0000000000
 1608.3750000 10.335000038 -9999.000000 3.0000000000 4.0000000000 1.0000000000 1.0000000000
 1608.5000000 10.548999786 -9999.000000 3.0000000000 4.0000000000 1.0000000000 1.0000000000
 1608.6250000 11.515000343 -9999.000000 3.0000000000 4.0000000000 1.0000000000 1.0000000000
 1608.7500000 12.480999947 -9999.000000 3.0000000000 4.0000000000 1.0000000000 1.0000000000
 1608.8750000 13.446999550 -9999.000000 3.0000000000 4.0000000000 1.0000000000 1.0000000000
 1609.0000000 14.413000107 -9999.000000 3.0000000000 4.0000000000 1.0000000000 1.0000000000
 1609.1250000 18.430000305 -9999.000000 3.0000000000 4.0000000000 1.0000000000 1.0000000000
 1609.2500000 22.447000504 -9999.000000 3.0000000000 4.0000000000 1.0000000000 1.0000000000
 1609.3750000 26.464000702 -9999.000000 3.0000000000 4.0000000000 1.0000000000 1.0000000000
 1609.5000000 30.481000900 -9999.000000 3.0000000000 4.0000000000 1.0000000000 1.0000000000
 1609.6250000 28.114000320 -9999.000000 3.0000000000 4.0000000000 1.0000000000 1.0000000000
 1609.7500000 25.746999741 -9999.000000 3.0000000000 4.0000000000 1.0000000000 1.0000000000
 1609.8750000 23.379999161 -9999.000000 3.0000000000 4.0000000000 1.0000000000 1.0000000000
 1610.0000000 21.013000488 -9999.000000 3.0000000000 4.0000000000 1.0000000000 1.0000000000
 1610.1250000 19.932800293 -9999.000000 4.0000000000 16.000000000 206.00000000 1.0000000000
 1610.2500000 18.852500916 -9999.000000 4.0000000000 16.000000000 206.00000000 1.0000000000
 1610.3750000 17.772199631 -9999.000000 4.0000000000 16.000000000 206.00000000 1.0000000000
 1610.5000000 16.691999435 -9999.000000 4.0000000000 16.000000000 206.00000000 1.0000000000
 1610.6250000 15.624500275 -9999.000000 4.0000000000 16.000000000 206.00000000 1.0000000000
 1610.7500000 14.557000160 -9999.000000 4.0000000000 16.000000000 206.00000000 1.0000000000
 1610.8750000 13.489500046 -9999.000000 4.0000000000 16.000000000 206.00000000 1.0000000000
 1611.0000000 12.421999931 -9999.000000 4.0000000000 16.000000000 206.00000000 1.0000000000
 1611.1250000 14.021300316 -9999.000000 4.0000000000 16.000000000 206.00000000 1.0000000000
 1611.2500000 15.620499611 -9999.000000 4.0000000000 16.000000000 206.00000000 1.0000000000
 1611.3750000 17.219800949 -9999.000000 4.0000000000 16.000000000 206.00000000 1.0000000000
 1611.5000000 18.819000244 -9999.000000 4.0000000000 16.000000000 206.00000000 1.0000000000
 1611.6250000 18.453500748 -9999.000000 4.0000000000 16.000000000 206.00000000 1.0000000000
 1611.7500000 18.087999344 -9999.000000 4.0000000000 16.000000000 206.00000000 1.0000000000
 1611.8750000 17.722499847 -9999.000000 4.0000000000 16.000000000 206.00000000 1.0000000000
 1612.0000000 17.357000351 -9999.000000 4.0000000000 16.000000000 206.00000000 1.0000000000
 1612.1250000 14.869999886 -9999.000000 4.0000000000 16.000000000 206.00000000 1.0000000000
 1612.2500000 12.383000374 -9999.000000 4.0000000000 16.000000000 206.00000000 1.0000000000
 1612.3750000 9.8959999084 -9999.000000 4.0000000000 16.000000000 206.00000000 1.0000000000
 1612.5000000 7.4089999199 -9999.000000 4.0000000000 16.000000000 206.00000000 1.0000000000
 1612.6250000 10.863200188 -9999.000000 4.0000000000 16.000000000 206.00000000 1.0000000000
 1612.7500000 14.317500114 -9999.000000 4.0000000000 16.000000000 206.00000000 1.0000000000
 1612.8750000 17.771699905 -9999.000000 4.0000000000 16.000000000 206.00000000 1.0000000000
 1613.0000000 21.225999832 -9999.000000 4.0000000000 16.000000000 206.00000000 1.0000000000
 1613.1250000 21.575000763 -9999.000000 4.0000000000 16.000000000 206.00000000 1.0000000000
 1613.2500000 21.923999786 -9999.000000 4.0000000000 16.000000000 206.00000000 1.0000000000
 1613.3750000 22.273000717 -9999.000000 4.0000000000 16.000000000 206.00000000 1.0000000000
 1613.5000000 22.621999741 -9999.000000 4.0000000000 16.000000000 206.00000000 1.0000000000
 1613.6250000 24.748300552 -9999.000000  -999.250000 0.1000000015 0.1000000015 0.0000000000
 1613.7500000 26.874500275 -9999.000000  -999.250000 0.1000000015 0.1000000015 0.0000000000
 1613.8750000 29.000799179 -9999.000000  -999.250000 0.1000000015 0.1000000015 0.0000000000
 1614.0000000 31.127000809 -9999.000000  -999.250000 0.1000000015 0.1000000015 0.0000000000
 1614.1250000 32.386299133 -9999.000000 4.0000000000 17.000000000 175.00000000 1.0000000000
 1614.2500000 33.645500183 -9999.000000 4.0000000000 17.000000000 175.00000000 1.0000000000
 1614.3750000 34.904800415 -9999.000000 4.0000000000 17.000000000 175.00000000 1.0000000000
 1614.5000000 36.164001465 -9999.000000 4.0000000000 17.000000000 175.00000000 1.0000000000
 1614.6250000 36.062999725 -9999.000000 4.0000000000 17.000000000 175.00000000 1.0000000000
 1614.7500000 35.962001801 -9999.000000 4.0000000000 17.000000000 175.00000000 1.0000000000
 1614.8750000 35.861000061 -9999.000000 4.0000000000 17.000000000 175.00000000 1.0000000000
