# LAS format log file from PETREL
# Project units are specified as depth units
#==================================================================
~Version information
VERS.   2.0:
WRAP.   NO:
#==================================================================
~Well
STRT .m      725.00000000 :
STOP .m      1752.0000000 :
STEP .m     0.12500000 :
NULL .        -999.250000 :
COMP.           : COMPANY
WELL.  5-0166   : WELL
FLD.            : FIELD
LOC.            : LOCATION
SRVC.           : SERVICE COMPANY
DATE.  2020-03-08 09:25:09   : Log Export Date {yyyy-MM-dd HH:mm:ss}
PROV.           : PROVINCE
UWI.      : UNIQUE WELL ID
API.            : API NUMBER
#==================================================================
~Curve
DEPT .m                   : DEPTH
RT .ohm.m                 : RT
SP .                      : SP
Fluids .                  : Fluids
POR .m3/m3                : POR
PERM .mD                  : PERM
Lith .                    : Lith
~Parameter
#==================================================================
~Ascii
# ...
 1660.2500000 22.713499069 -9999.000000 4.0000000000 16.000000000 132.00000000 1.0000000000
 1660.3750000 23.946300507 -9999.000000 4.0000000000 16.000000000 132.00000000 1.0000000000
 1660.5000000 25.179000854 -9999.000000 4.0000000000 16.000000000 132.00000000 1.0000000000
 1660.6250000 24.621999741 -9999.000000 4.0000000000 16.000000000 132.00000000 1.0000000000
 1660.7500000 24.065000534 -9999.000000 4.0000000000 16.000000000 132.00000000 1.0000000000
 1660.8750000 23.507999420 -9999.000000 4.0000000000 16.000000000 132.00000000 1.0000000000
 1661.0000000 22.951000214 -9999.000000 4.0000000000 16.000000000 132.00000000 1.0000000000
 1661.1250000 24.844699860 -9999.000000 4.0000000000 16.000000000 132.00000000 1.0000000000
 1661.2500000 26.738500595 -9999.000000 4.0000000000 16.000000000 132.00000000 1.0000000000
 1661.3750000 28.632200241 -9999.000000 4.0000000000 16.000000000 132.00000000 1.0000000000
 1661.5000000 30.525999069 -9999.000000 4.0000000000 16.000000000 132.00000000 1.0000000000
 1661.6250000 30.333499908 -9999.000000 4.0000000000 16.000000000 132.00000000 1.0000000000
 1661.7500000 30.141000748 -9999.000000 4.0000000000 16.000000000 132.00000000 1.0000000000
 1661.8750000 29.948499680 -9999.000000 4.0000000000 16.000000000 132.00000000 1.0000000000
 1662.0000000 29.756000519 -9999.000000 4.0000000000 16.000000000 132.00000000 1.0000000000
 1662.1250000 28.672500610 -9999.000000 4.0000000000 16.000000000 132.00000000 1.0000000000
 1662.2500000 27.589000702 -9999.000000 4.0000000000 16.000000000 132.00000000 1.0000000000
 1662.3750000 26.505500793 -9999.000000 4.0000000000 16.000000000 132.00000000 1.0000000000
 1662.5000000 25.422000885 -9999.000000 4.0000000000 16.000000000 132.00000000 1.0000000000
 1662.6250000 21.489999771 -9999.000000  -999.250000 0.1000000015 0.1000000015 0.0000000000
 1662.7500000 17.558000565 -9999.000000  -999.250000 0.1000000015 0.1000000015 0.0000000000
 1662.8750000 13.626000404 -9999.000000  -999.250000 0.1000000015 0.1000000015 0.0000000000
 1663.0000000 9.6940002441 -9999.000000  -999.250000 0.1000000015 0.1000000015 0.0000000000
 1663.1250000 12.541299820 -9999.000000  -999.250000 0.1000000015 0.1000000015 0.0000000000
 1663.2500000 15.388500214 -9999.000000  -999.250000 0.1000000015 0.1000000015 0.0000000000
 1663.3750000 18.235799789 -9999.000000  -999.250000 0.1000000015 0.1000000015 0.0000000000
 1663.5000000 21.083000183 -9999.000000 4.0000000000 16.000000000 222.00000000 1.0000000000
 1663.6250000 24.969999313 -9999.000000 4.0000000000 16.000000000 222.00000000 1.0000000000
 1663.7500000 28.857000351 -9999.000000 4.0000000000 16.000000000 222.00000000 1.0000000000
 1663.8750000 32.743999481 -9999.000000 4.0000000000 16.000000000 222.00000000 1.0000000000
 1664.0000000 36.631000519 -9999.000000 4.0000000000 16.000000000 222.00000000 1.0000000000
 1664.1250000 35.639499664 -9999.000000 4.0000000000 16.000000000 222.00000000 1.0000000000
 1664.2500000 34.647998810 -9999.000000 4.0000000000 16.000000000 222.00000000 1.0000000000
 1664.3750000 33.656501770 -9999.000000 4.0000000000 16.000000000 222.00000000 1.0000000000
 1664.5000000 32.665000916 -9999.000000 4.0000000000 16.000000000 222.00000000 1.0000000000
 1664.6250000 31.512500763 -9999.000000 4.0000000000 16.000000000 222.00000000 1.0000000000
 1664.7500000 30.360000610 -9999.000000 4.0000000000 16.000000000 222.00000000 1.0000000000
 1664.8750000 29.207500458 -9999.000000 4.0000000000 16.000000000 222.00000000 1.0000000000
 1665.0000000 28.055000305 -9999.000000 4.0000000000 16.000000000 222.00000000 1.0000000000
 1665.1250000 39.358501434 -9999.000000 4.0000000000 16.000000000 222.00000000 1.0000000000
 1665.2500000 50.661998749 -9999.000000 4.0000000000 16.000000000 222.00000000 1.0000000000
 1665.3750000 61.965499878 -9999.000000 4.0000000000 16.000000000 222.00000000 1.0000000000
 1665.5000000 73.268997192 -9999.000000 4.0000000000 16.000000000 222.00000000 1.0000000000
 1665.6250000 78.262001038 -9999.000000 4.0000000000 16.000000000 222.00000000 1.0000000000
 1665.7500000 83.254997253 -9999.000000 4.0000000000 16.000000000 222.00000000 1.0000000000
 1665.8750000 88.248001099 -9999.000000 4.0000000000 16.000000000 222.00000000 1.0000000000
 1666.0000000 93.240997314 -9999.000000 4.0000000000 16.000000000 222.00000000 1.0000000000
 1666.1250000 74.375999451 -9999.000000 4.0000000000 16.000000000 222.00000000 1.0000000000
 1666.2500000 55.511001587 -9999.000000 4.0000000000 16.000000000 222.00000000 1.0000000000
 1666.3750000 36.645999908 -9999.000000 4.0000000000 16.000000000 222.00000000 1.0000000000
 1666.5000000 17.781000137 -9999.000000 4.0000000000 16.000000000 222.00000000 1.0000000000
 1666.6250000 19.700300217 -9999.000000 4.0000000000 16.000000000 222.00000000 1.0000000000
 1666.7500000 21.619499207 -9999.000000 4.0000000000 16.000000000 222.00000000 1.0000000000
 1666.8750000 23.538799286 -9999.000000 4.0000000000 16.000000000 222.00000000 1.0000000000
 1667.0000000 25.458000183 -9999.000000 4.0000000000 16.000000000 222.00000000 1.0000000000
 1667.1250000 25.597799301 -9999.000000 4.0000000000 16.000000000 222.00000000 1.0000000000
 1667.2500000 25.737499237 -9999.000000 4.0000000000 16.000000000 222.00000000 1.0000000000
 1667.3750000 25.877300262 -9999.000000 4.0000000000 16.000000000 222.00000000 1.0000000000
 1667.5000000 26.017000198 -9999.000000 4.0000000000 16.000000000 222.00000000 1.0000000000
 1667.6250000 27.051500320 -9999.000000 4.0000000000 16.000000000 222.00000000 1.0000000000
 1667.7500000 28.086000443 -9999.000000 4.0000000000 16.000000000 222.00000000 1.0000000000
 1667.8750000 29.120500565 -9999.000000 4.0000000000 16.000000000 222.00000000 1.0000000000
 1668.0000000 30.155000687 -9999.000000 4.0000000000 16.000000000 222.00000000 1.0000000000
 1668.1250000 30.866300583 -9999.000000 4.0000000000 16.000000000 222.00000000 1.0000000000
 1668.2500000 31.577499390 -9999.000000 4.0000000000 16.000000000 222.00000000 1.0000000000
 1668.3750000 32.288799286 -9999.000000 4.0000000000 16.000000000 222.00000000 1.0000000000
 1668.5000000 33.000000000 -9999.000000 4.0000000000 16.000000000 222.00000000 1.0000000000
 1668.6250000 32.079498291 -9999.000000 4.0000000000 16.000000000 222.00000000 1.0000000000
 1668.7500000 31.159000397 -9999.000000 4.0000000000 16.000000000 222.00000000 1.0000000000
 1668.8750000 30.238500595 -9999.000000 4.0000000000 16.000000000 222.00000000 1.0000000000
 1669.0000000 29.318000793 -9999.000000 4.0000000000 16.000000000 222.00000000 1.0000000000
 1669.1250000 27.145799637 -9999.000000 4.0000000000 16.000000000 222.00000000 1.0000000000
 1669.2500000 24.973499298 -9999.000000 4.0000000000 16.000000000 222.00000000 1.0000000000
 1669.3750000 22.801200867 -9999.000000 4.0000000000 16.000000000 222.00000000 1.0000000000
 1669.5000000 20.628999710 -9999.000000 4.0000000000 16.000000000 222.00000000 1.0000000000
 1669.6250000 22.625499725 -9999.000000 4.0000000000 16.000000000 222.00000000 1.0000000000
 1669.7500000 24.621999741 -9999.000000 4.0000000000 16.000000000 222.00000000 1.0000000000
 1669.8750000 26.618499756 -9999.000000 4.0000000000 16.000000000 222.00000000 1.0000000000
 1670.0000000 28.614999771 -9999.000000 4.0000000000 16.000000000 222.00000000 1.0000000000
 1670.1250000 31.131000519 -9999.000000 4.0000000000 16.000000000 222.00000000 1.0000000000
 1670.2500000 33.646999359 -9999.000000 4.0000000000 16.000000000 222.00000000 1.0000000000
 1670.3750000 36.162998199 -9999.000000 4.0000000000 16.000000000 222.00000000 1.0000000000
 1670.5000000 38.679000854 -9999.000000 4.0000000000 16.000000000 222.00000000 1.0000000000
 1670.6250000 36.909000397 -9999.000000 4.0000000000 16.000000000 222.00000000 1.0000000000
 1670.7500000 35.138999939 -9999.000000 4.0000000000 16.000000000 222.00000000 1.0000000000
 1670.8750000 33.368999481 -9999.000000 4.0000000000 16.000000000 222.00000000 1.0000000000
 1671.0000000 31.599000931 -9999.000000 4.0000000000 16.000000000 222.00000000 1.0000000000
