# LAS format log file from PETREL
# Project units are specified as depth units
#==================================================================
~Version information
VERS.   2.0:
WRAP.   NO:
#==================================================================
~Well
STRT .m      1480.0000000 :
STOP .m      1820.0000000 :
STEP .m     0.12500000 :
NULL .        -999.250000 :
COMP.           : COMPANY
WELL.  5-0165   : WELL
FLD.            : FIELD
LOC.            : LOCATION
SRVC.           : SERVICE COMPANY
DATE.  2020-03-08 09:25:09   : Log Export Date {yyyy-MM-dd HH:mm:ss}
PROV.           : PROVINCE
UWI.      : UNIQUE WELL ID
API.            : API NUMBER
#==================================================================
~Curve
DEPT .m                   : DEPTH
RT .ohm.m                 : RT
SP .                      : SP
Fluids .                  : Fluids
POR .m3/m3                : POR
PERM .mD                  : PERM
Lith .                    : Lith
~Parameter
#==================================================================
~Ascii
# ...
 1588.7500000 4.1680002213 55.410999298 4.0000000000 25.000000000 5101.0000000 1.0000000000
 1588.8750000 4.3520002365 55.391998291 4.0000000000 25.000000000 5101.0000000 1.0000000000
 1589.0000000 4.5679998398 55.376998901 4.0000000000 25.000000000 5101.0000000 1.0000000000
 1589.1250000 4.5669999123 55.369998932 4.0000000000 25.000000000 5101.0000000 1.0000000000
 1589.2500000 4.2620000839 55.366001129 4.0000000000 25.000000000 5101.0000000 1.0000000000
 1589.3750000 3.7579998970 55.366001129 4.0000000000 25.000000000 5101.0000000 1.0000000000
 1589.5000000 2.5409998894 55.366001129 4.0000000000 25.000000000 5101.0000000 1.0000000000
 1589.6250000 2.2000000477 55.369998932  -999.250000 0.1000000015 0.1000000015 0.0000000000
 1589.7500000 2.1919999123 55.376998901  -999.250000 0.1000000015 0.1000000015 0.0000000000
 1589.8750000 2.9240000248 55.391998291  -999.250000 0.1000000015 0.1000000015 0.0000000000
 1590.0000000 3.5799999237 55.410999298 4.0000000000 28.000000000 6827.0000000 1.0000000000
 1590.1250000 5.4070000648 55.435001373 4.0000000000 28.000000000 6827.0000000 1.0000000000
 1590.2500000 6.2249999046 55.460998535 4.0000000000 28.000000000 6827.0000000 1.0000000000
 1590.3750000 6.1180000305 55.488998413 4.0000000000 28.000000000 6827.0000000 1.0000000000
 1590.5000000 5.9070000648 55.515998840 4.0000000000 28.000000000 6827.0000000 1.0000000000
 1590.6250000 6.1030001640 55.540000916 4.0000000000 28.000000000 6827.0000000 1.0000000000
 1590.7500000 6.4390001297 55.558998108 4.0000000000 28.000000000 6827.0000000 1.0000000000
 1590.8750000 6.6110000610 55.569000244 4.0000000000 28.000000000 6827.0000000 1.0000000000
 1591.0000000 6.8899998665 55.569000244 4.0000000000 28.000000000 6827.0000000 1.0000000000
 1591.1250000 6.9739999771 55.558998108 4.0000000000 28.000000000 6827.0000000 1.0000000000
 1591.2500000 6.8159999847 55.541000366 4.0000000000 28.000000000 6827.0000000 1.0000000000
 1591.3750000 6.6690001488 55.520000458 4.0000000000 28.000000000 6827.0000000 1.0000000000
 1591.5000000 6.7670001984 55.498001099 4.0000000000 28.000000000 6827.0000000 1.0000000000
 1591.6250000 6.9580001831 55.479000092 4.0000000000 28.000000000 6827.0000000 1.0000000000
 1591.7500000 7.1440000534 55.465000153 4.0000000000 28.000000000 6827.0000000 1.0000000000
 1591.8750000 7.6440000534 55.457000732 4.0000000000 28.000000000 6827.0000000 1.0000000000
 1592.0000000 7.7800002098 55.451999664 4.0000000000 28.000000000 6827.0000000 1.0000000000
 1592.1250000 7.3309998512 55.449001312 4.0000000000 28.000000000 6827.0000000 1.0000000000
 1592.2500000 7.0349998474 55.448001862 4.0000000000 28.000000000 6827.0000000 1.0000000000
 1592.3750000 6.6430001259 55.449001312 4.0000000000 28.000000000 6827.0000000 1.0000000000
 1592.5000000 6.4479999542 55.451999664 4.0000000000 28.000000000 6827.0000000 1.0000000000
 1592.6250000 6.4120001793 55.456001282 4.0000000000 28.000000000 6827.0000000 1.0000000000
 1592.7500000 6.5980000496 55.462001801 4.0000000000 28.000000000 6827.0000000 1.0000000000
 1592.8750000 6.9829998016 55.471000671 4.0000000000 28.000000000 6827.0000000 1.0000000000
 1593.0000000 7.0960001945 55.484001160 4.0000000000 28.000000000 6827.0000000 1.0000000000
 1593.1250000 6.8579998016 55.500000000 4.0000000000 28.000000000 6827.0000000 1.0000000000
 1593.2500000 6.6599998474 55.515998840 4.0000000000 28.000000000 6827.0000000 1.0000000000
 1593.3750000 6.5900001526 55.528999329 4.0000000000 28.000000000 6827.0000000 1.0000000000
 1593.5000000 6.3899998665 55.533000946 4.0000000000 28.000000000 6827.0000000 1.0000000000
 1593.6250000 6.0879998207 55.528999329 4.0000000000 28.000000000 6827.0000000 1.0000000000
 1593.7500000 5.9239997864 55.515998840 4.0000000000 28.000000000 6827.0000000 1.0000000000
 1593.8750000 6.6599998474 55.500000000 4.0000000000 28.000000000 6827.0000000 1.0000000000
 1594.0000000 7.4689998627 55.486999512 4.0000000000 28.000000000 6827.0000000 1.0000000000
 1594.1250000 8.0830001831 55.479000092 4.0000000000 28.000000000 6827.0000000 1.0000000000
 1594.2500000 8.3140001297 55.476001740 4.0000000000 28.000000000 6827.0000000 1.0000000000
 1594.3750000 7.9159998894 55.476001740 4.0000000000 28.000000000 6827.0000000 1.0000000000
 1594.5000000 6.6550002098 55.479000092 4.0000000000 28.000000000 6827.0000000 1.0000000000
 1594.6250000 5.7820000648 55.483001709 4.0000000000 28.000000000 6827.0000000 1.0000000000
 1594.7500000 5.4720001221 55.488998413 4.0000000000 28.000000000 6827.0000000 1.0000000000
 1594.8750000 5.3769998550 55.493999481 4.0000000000 28.000000000 6827.0000000 1.0000000000
 1595.0000000 5.8169999123 55.495998383 4.0000000000 28.000000000 6827.0000000 1.0000000000
 1595.1250000 6.3889999390 55.493999481 4.0000000000 28.000000000 6827.0000000 1.0000000000
 1595.2500000 6.7690000534 55.486000061 4.0000000000 28.000000000 6827.0000000 1.0000000000
 1595.3750000 6.8540000916 55.474998474 4.0000000000 28.000000000 6827.0000000 1.0000000000
 1595.5000000 6.8080000877 55.460998535 4.0000000000 28.000000000 6827.0000000 1.0000000000
 1595.6250000 6.9829998016 55.444999695 4.0000000000 28.000000000 6827.0000000 1.0000000000
 1595.7500000 6.8969998360 55.429000854 4.0000000000 28.000000000 6827.0000000 1.0000000000
 1595.8750000 5.6079998016 55.411998749 4.0000000000 28.000000000 6827.0000000 1.0000000000
 1596.0000000 5.2579998970 55.393001556 4.0000000000 28.000000000 6827.0000000 1.0000000000
 1596.1250000 5.0599999428 55.372001648 4.0000000000 28.000000000 6827.0000000 1.0000000000
 1596.2500000 5.3439998627 55.352001190 4.0000000000 28.000000000 6827.0000000 1.0000000000
 1596.3750000 5.6799998283 55.333000183 4.0000000000 28.000000000 6827.0000000 1.0000000000
 1596.5000000 6.0739998817 55.319000244 4.0000000000 28.000000000 6827.0000000 1.0000000000
 1596.6250000 6.7550001144 55.312000275 4.0000000000 28.000000000 6827.0000000 1.0000000000
 1596.7500000 6.3489999771 55.313999176 4.0000000000 28.000000000 6827.0000000 1.0000000000
 1596.8750000 5.2960000038 55.323001862 4.0000000000 28.000000000 6827.0000000 1.0000000000
 1597.0000000 4.8699998856 55.334999084 4.0000000000 28.000000000 6827.0000000 1.0000000000
 1597.1250000 4.6750001907 55.347999573 4.0000000000 28.000000000 6827.0000000 1.0000000000
 1597.2500000 4.8119997978 55.356998444 4.0000000000 28.000000000 6827.0000000 1.0000000000
 1597.3750000 4.8750000000 55.361999512 4.0000000000 28.000000000 6827.0000000 1.0000000000
 1597.5000000 5.4340000153 55.365001678 4.0000000000 28.000000000 6827.0000000 1.0000000000
 1597.6250000 5.6820001602 55.366001129 4.0000000000 28.000000000 6827.0000000 1.0000000000
 1597.7500000 5.7569999695 55.366001129 4.0000000000 28.000000000 6827.0000000 1.0000000000
 1597.8750000 5.6059999466 55.366001129 4.0000000000 28.000000000 6827.0000000 1.0000000000
 1598.0000000 5.5669999123 55.366001129 4.0000000000 28.000000000 6827.0000000 1.0000000000
 1598.1250000 5.5879998207 55.366001129 4.0000000000 28.000000000 6827.0000000 1.0000000000
 1598.2500000 5.3439998627 55.366001129 4.0000000000 28.000000000 6827.0000000 1.0000000000
 1598.3750000 5.2680001259 55.366001129 4.0000000000 28.000000000 6827.0000000 1.0000000000
 1598.5000000 5.5329999924 55.365001678 4.0000000000 28.000000000 6827.0000000 1.0000000000
 1598.6250000 5.8600001335 55.361999512 4.0000000000 28.000000000 6827.0000000 1.0000000000
 1598.7500000 6.2490000725 55.354000092 4.0000000000 28.000000000 6827.0000000 1.0000000000
 1598.8750000 6.3870000839 55.340000153 4.0000000000 28.000000000 6827.0000000 1.0000000000
 1599.0000000 6.2509999275 55.320999146 4.0000000000 28.000000000 6827.0000000 1.0000000000
 1599.1250000 6.2630000114 55.299999237 4.0000000000 28.000000000 6827.0000000 1.0000000000
 1599.2500000 6.3990001678 55.282001495 4.0000000000 28.000000000 6827.0000000 1.0000000000
 1599.3750000 6.4860000610 55.270999908 4.0000000000 28.000000000 6827.0000000 1.0000000000
 1599.5000000 6.5650000572 55.270999908 4.0000000000 28.000000000 6827.0000000 1.0000000000
