# LAS format log file from PETREL
# Project units are specified as depth units
#==================================================================
~Version information
VERS.   2.0:
WRAP.   NO:
#==================================================================
~Well
STRT .m      1338.0000000 :
STOP .m      1710.0000000 :
STEP .m     0.12500000 :
NULL .        -999.250000 :
COMP.           : COMPANY
WELL.  5-0162C2   : WELL
FLD.            : FIELD
LOC.            : LOCATION
SRVC.           : SERVICE COMPANY
DATE.  2020-03-08 09:25:09   : Log Export Date {yyyy-MM-dd HH:mm:ss}
PROV.           : PROVINCE
UWI.      : UNIQUE WELL ID
API.            : API NUMBER
#==================================================================
~Curve
DEPT .m                   : DEPTH
RT .ohm.m                 : RT
SP .                      : SP
Fluids .                  : Fluids
POR .m3/m3                : POR
PERM .mD                  : PERM
Lith .                    : Lith
~Parameter
#==================================================================
~Ascii
# ...
 1609.8750000 39.110000610 -76.06999969 4.0000000000 19.000000000 267.00000000 1.0000000000
 1610.0000000 40.459999084 -76.01000214 4.0000000000 19.000000000 267.00000000 1.0000000000
 1610.1250000 41.189998627 -75.94000244 4.0000000000 19.000000000 267.00000000 1.0000000000
 1610.2500000 39.180000305 -75.86000061 4.0000000000 19.000000000 267.00000000 1.0000000000
 1610.3750000 35.000000000 -75.76999664 4.0000000000 19.000000000 267.00000000 1.0000000000
 1610.5000000 30.649999619 -75.69000244 4.0000000000 19.000000000 267.00000000 1.0000000000
 1610.6250000 28.309999466 -75.61000061 4.0000000000 19.000000000 267.00000000 1.0000000000
 1610.7500000 28.440000534 -75.52999878 4.0000000000 19.000000000 267.00000000 1.0000000000
 1610.8750000 31.600000381 -75.44000244 4.0000000000 19.000000000 267.00000000 1.0000000000
 1611.0000000 36.310001373 -75.33999634 4.0000000000 19.000000000 267.00000000 1.0000000000
 1611.1250000 39.069999695 -75.23999786 4.0000000000 19.000000000 267.00000000 1.0000000000
 1611.2500000 38.189998627 -75.12999725 4.0000000000 19.000000000 267.00000000 1.0000000000
 1611.3750000 35.299999237 -75.01000214 4.0000000000 19.000000000 267.00000000 1.0000000000
 1611.5000000 32.610000610 -74.87000275 4.0000000000 19.000000000 267.00000000 1.0000000000
 1611.6250000 30.549999237 -74.73999786 4.0000000000 19.000000000 267.00000000 1.0000000000
 1611.7500000 29.659999847 -74.61000061 4.0000000000 19.000000000 267.00000000 1.0000000000
 1611.8750000 30.879999161 -74.54000092 4.0000000000 19.000000000 267.00000000 1.0000000000
 1612.0000000 34.110000610 -74.52999878 4.0000000000 19.000000000 267.00000000 1.0000000000
 1612.1250000 38.340000153 -74.59999847 4.0000000000 19.000000000 267.00000000 1.0000000000
 1612.2500000 42.590000153 -74.70999908 4.0000000000 19.000000000 267.00000000 1.0000000000
 1612.3750000 46.310001373 -74.84999847 4.0000000000 19.000000000 267.00000000 1.0000000000
 1612.5000000 48.439998627 -75.00000000 4.0000000000 19.000000000 267.00000000 1.0000000000
 1612.6250000 47.509998322 -75.12000275 4.0000000000 19.000000000 267.00000000 1.0000000000
 1612.7500000 42.979999542 -75.18000031 4.0000000000 19.000000000 267.00000000 1.0000000000
 1612.8750000 37.040000916 -75.18000031 4.0000000000 19.000000000 267.00000000 1.0000000000
 1613.0000000 32.529998779 -75.11000061 4.0000000000 19.000000000 267.00000000 1.0000000000
 1613.1250000 30.899999619 -74.98999786 4.0000000000 19.000000000 267.00000000 1.0000000000
 1613.2500000 31.430000305 -74.81999969 4.0000000000 19.000000000 267.00000000 1.0000000000
 1613.3750000 33.450000763 -74.63999939 4.0000000000 19.000000000 267.00000000 1.0000000000
 1613.5000000 36.549999237 -74.44000244 4.0000000000 19.000000000 267.00000000 1.0000000000
 1613.6250000 38.500000000 -74.25000000 4.0000000000 19.000000000 267.00000000 1.0000000000
 1613.7500000 36.889999390 -74.09999847 4.0000000000 19.000000000 267.00000000 1.0000000000
 1613.8750000 32.369998932 -73.98999786 4.0000000000 19.000000000 267.00000000 1.0000000000
 1614.0000000 27.680000305 -73.93000031 4.0000000000 19.000000000 267.00000000 1.0000000000
 1614.1250000 24.899999619 -73.94000244 4.0000000000 19.000000000 267.00000000 1.0000000000
 1614.2500000 24.040000916 -73.98999786 4.0000000000 19.000000000 267.00000000 1.0000000000
 1614.3750000 25.299999237 -74.08000183 4.0000000000 19.000000000 267.00000000 1.0000000000
 1614.5000000 28.159999847 -74.19999695 4.0000000000 19.000000000 267.00000000 1.0000000000
 1614.6250000 30.639999390 -74.31999969 4.0000000000 19.000000000 267.00000000 1.0000000000
 1614.7500000 31.090000153 -74.44000244 4.0000000000 19.000000000 267.00000000 1.0000000000
 1614.8750000 29.819999695 -74.54000092 4.0000000000 19.000000000 267.00000000 1.0000000000
 1615.0000000 28.040000916 -74.62000275 4.0000000000 19.000000000 267.00000000 1.0000000000
 1615.1250000 26.260000229 -74.66000366 4.0000000000 19.000000000 267.00000000 1.0000000000
 1615.2500000 24.590000153 -74.70999908 4.0000000000 19.000000000 267.00000000 1.0000000000
 1615.3750000 23.399999619 -74.76000214 4.0000000000 19.000000000 267.00000000 1.0000000000
 1615.5000000 22.889999390 -74.80000305 4.0000000000 19.000000000 267.00000000 1.0000000000
 1615.6250000 22.879999161 -74.81999969 4.0000000000 19.000000000 267.00000000 1.0000000000
 1615.7500000 22.920000076 -74.81999969 4.0000000000 19.000000000 267.00000000 1.0000000000
 1615.8750000 23.110000610 -74.80999756 4.0000000000 19.000000000 267.00000000 1.0000000000
 1616.0000000 24.149999619 -74.80000305 4.0000000000 19.000000000 267.00000000 1.0000000000
 1616.1250000 26.340000153 -74.76999664 4.0000000000 19.000000000 267.00000000 1.0000000000
 1616.2500000 28.790000916 -74.72000122 4.0000000000 19.000000000 267.00000000 1.0000000000
 1616.3750000 30.290000916 -74.66999817 4.0000000000 19.000000000 267.00000000 1.0000000000
 1616.5000000 30.489999771 -74.63999939 4.0000000000 19.000000000 267.00000000 1.0000000000
 1616.6250000 29.799999237 -74.63999939 4.0000000000 19.000000000 267.00000000 1.0000000000
 1616.7500000 28.670000076 -74.63999939 4.0000000000 19.000000000 267.00000000 1.0000000000
 1616.8750000 27.379999161 -74.66999817 4.0000000000 19.000000000 267.00000000 1.0000000000
 1617.0000000 26.590000153 -74.69999695 4.0000000000 19.000000000 267.00000000 1.0000000000
 1617.1250000 26.809999466 -74.75000000 4.0000000000 19.000000000 267.00000000 1.0000000000
 1617.2500000 27.950000763 -74.79000092 4.0000000000 19.000000000 267.00000000 1.0000000000
 1617.3750000 29.540000916 -74.80999756 4.0000000000 19.000000000 267.00000000 1.0000000000
 1617.5000000 31.309999466 -74.81999969 4.0000000000 19.000000000 267.00000000 1.0000000000
 1617.6250000 33.189998627 -74.83000183 4.0000000000 19.000000000 267.00000000 1.0000000000
 1617.7500000 35.209999084 -74.81999969 4.0000000000 19.000000000 267.00000000 1.0000000000
 1617.8750000 37.099998474 -74.79000092 4.0000000000 19.000000000 267.00000000 1.0000000000
 1618.0000000 38.400001526 -74.73000336 4.0000000000 19.000000000 267.00000000 1.0000000000
 1618.1250000 38.400001526 -74.65000153 4.0000000000 19.000000000 267.00000000 1.0000000000
 1618.2500000 37.220001221 -74.52999878 4.0000000000 19.000000000 267.00000000 1.0000000000
 1618.3750000 35.450000763 -74.36000061 4.0000000000 19.000000000 267.00000000 1.0000000000
 1618.5000000 33.790000916 -74.13999939 4.0000000000 19.000000000 267.00000000 1.0000000000
 1618.6250000 31.799999237 -73.88999939 4.0000000000 19.000000000 267.00000000 1.0000000000
 1618.7500000 28.879999161 -73.62999725 4.0000000000 19.000000000 267.00000000 1.0000000000
 1618.8750000 25.809999466 -73.37000275 4.0000000000 19.000000000 267.00000000 1.0000000000
 1619.0000000 23.700000763 -73.16999817 4.0000000000 19.000000000 267.00000000 1.0000000000
 1619.1250000 22.969999313 -73.04000092 4.0000000000 19.000000000 267.00000000 1.0000000000
 1619.2500000 23.069999695 -72.98999786 4.0000000000 19.000000000 267.00000000 1.0000000000
 1619.3750000 23.709999084 -73.00000000 4.0000000000 19.000000000 267.00000000 1.0000000000
 1619.5000000 23.920000076 -73.06999969 4.0000000000 19.000000000 267.00000000 1.0000000000
 1619.6250000 23.190000534 -73.16999817 4.0000000000 19.000000000 267.00000000 1.0000000000
 1619.7500000 21.899999619 -73.30000305 4.0000000000 19.000000000 267.00000000 1.0000000000
 1619.8750000 21.569999695 -73.43000031 4.0000000000 19.000000000 267.00000000 1.0000000000
 1620.0000000 22.670000076 -73.52999878 4.0000000000 19.000000000 267.00000000 1.0000000000
 1620.1250000 24.790000916 -73.61000061 4.0000000000 19.000000000 267.00000000 1.0000000000
 1620.2500000 27.809999466 -73.68000031 4.0000000000 19.000000000 267.00000000 1.0000000000
 1620.3750000 30.430000305 -73.73000336 4.0000000000 19.000000000 267.00000000 1.0000000000
 1620.5000000 31.100000381 -73.80000305 4.0000000000 19.000000000 267.00000000 1.0000000000
 1620.6250000 29.370000839 -73.87999725 4.0000000000 19.000000000 267.00000000 1.0000000000
