# LAS format log file from PETREL
# Project units are specified as depth units
#==================================================================
~Version information
VERS.   2.0:
WRAP.   NO:
#==================================================================
~Well
STRT .m      1480.0000000 :
STOP .m      1820.0000000 :
STEP .m     0.12500000 :
NULL .        -999.250000 :
COMP.           : COMPANY
WELL.  5-0165   : WELL
FLD.            : FIELD
LOC.            : LOCATION
SRVC.           : SERVICE COMPANY
DATE.  2020-03-08 09:25:09   : Log Export Date {yyyy-MM-dd HH:mm:ss}
PROV.           : PROVINCE
UWI.      : UNIQUE WELL ID
API.            : API NUMBER
#==================================================================
~Curve
DEPT .m                   : DEPTH
RT .ohm.m                 : RT
SP .                      : SP
Fluids .                  : Fluids
POR .m3/m3                : POR
PERM .mD                  : PERM
Lith .                    : Lith
~Parameter
#==================================================================
~Ascii
# ...
 1567.0000000 1.3780000210 55.356998444 4.0000000000 17.000000000 683.00000000 1.0000000000
 1567.1250000 2.1789999008 55.361999512 4.0000000000 17.000000000 683.00000000 1.0000000000
 1567.2500000 2.3180000782 55.365001678 4.0000000000 17.000000000 683.00000000 1.0000000000
 1567.3750000 2.1259999275 55.366001129 4.0000000000 17.000000000 683.00000000 1.0000000000
 1567.5000000 1.9450000525 55.366001129 4.0000000000 17.000000000 683.00000000 1.0000000000
 1567.6250000 2.0569999218 55.366001129 4.0000000000 17.000000000 683.00000000 1.0000000000
 1567.7500000 2.3429999352 55.366001129 4.0000000000 17.000000000 683.00000000 1.0000000000
 1567.8750000 3.1519999504 55.366001129 4.0000000000 17.000000000 683.00000000 1.0000000000
 1568.0000000 3.3420000076 55.366001129 4.0000000000 17.000000000 683.00000000 1.0000000000
 1568.1250000 3.3280000687 55.366001129 4.0000000000 17.000000000 683.00000000 1.0000000000
 1568.2500000 3.0429999828 55.366001129 4.0000000000 17.000000000 683.00000000 1.0000000000
 1568.3750000 2.7409999371 55.366001129 4.0000000000 17.000000000 683.00000000 1.0000000000
 1568.5000000 2.6659998894 55.365001678 4.0000000000 17.000000000 683.00000000 1.0000000000
 1568.6250000 2.8120000362 55.361999512 4.0000000000 17.000000000 683.00000000 1.0000000000
 1568.7500000 3.3120000362 55.354000092 4.0000000000 17.000000000 683.00000000 1.0000000000
 1568.8750000 3.9379999638 55.340000153 4.0000000000 17.000000000 683.00000000 1.0000000000
 1569.0000000 4.2800002098 55.320999146 4.0000000000 17.000000000 683.00000000 1.0000000000
 1569.1250000 4.4149999619 55.300998688 4.0000000000 17.000000000 683.00000000 1.0000000000
 1569.2500000 4.1459999084 55.285999298 4.0000000000 17.000000000 683.00000000 1.0000000000
 1569.3750000 3.8849999905 55.279998779 4.0000000000 17.000000000 683.00000000 1.0000000000
 1569.5000000 3.5420000553 55.285999298 4.0000000000 17.000000000 683.00000000 1.0000000000
 1569.6250000 3.3710000515 55.300998688 4.0000000000 17.000000000 683.00000000 1.0000000000
 1569.7500000 3.0130000114 55.320999146 4.0000000000 17.000000000 683.00000000 1.0000000000
 1569.8750000 2.4159998894 55.340000153 4.0000000000 17.000000000 683.00000000 1.0000000000
 1570.0000000 1.7710000277 55.354000092 4.0000000000 17.000000000 683.00000000 1.0000000000
 1570.1250000 1.1619999409 55.361999512  -999.250000 0.1000000015 0.1000000015 0.0000000000
 1570.2500000 0.8690000176 55.366001129  -999.250000 0.1000000015 0.1000000015 0.0000000000
 1570.3750000 0.7450000048 55.368999481  -999.250000 0.1000000015 0.1000000015 0.0000000000
 1570.5000000 0.7810000181 55.375000000  -999.250000 0.1000000015 0.1000000015 0.0000000000
 1570.6250000 0.8519999981 55.382999420  -999.250000 0.1000000015 0.1000000015 0.0000000000
 1570.7500000 0.8629999757 55.393001556  -999.250000 0.1000000015 0.1000000015 0.0000000000
 1570.8750000 0.8180000186 55.400001526  -999.250000 0.1000000015 0.1000000015 0.0000000000
 1571.0000000 0.7530000210 55.402999878  -999.250000 0.1000000015 0.1000000015 0.0000000000
 1571.1250000 0.6869999766 55.400001526  -999.250000 0.1000000015 0.1000000015 0.0000000000
 1571.2500000 0.7360000014 55.393001556  -999.250000 0.1000000015 0.1000000015 0.0000000000
 1571.3750000 0.8690000176 55.382999420  -999.250000 0.1000000015 0.1000000015 0.0000000000
 1571.5000000 1.0650000572 55.375000000 0.0000000000 4.0000000000 0.0000000000 1.0000000000
 1571.6250000 1.2690000534 55.368999481 0.0000000000 4.0000000000 0.0000000000 1.0000000000
 1571.7500000 1.4440000057 55.366001129 0.0000000000 4.0000000000 0.0000000000 1.0000000000
 1571.8750000 1.5980000496 55.366001129 0.0000000000 4.0000000000 0.0000000000 1.0000000000
 1572.0000000 1.6929999590 55.369998932 0.0000000000 4.0000000000 0.0000000000 1.0000000000
 1572.1250000 1.7369999886 55.376998901 0.0000000000 4.0000000000 0.0000000000 1.0000000000
 1572.2500000 1.7109999657 55.391998291 0.0000000000 4.0000000000 0.0000000000 1.0000000000
 1572.3750000 1.5369999409 55.414001465 0.0000000000 4.0000000000 0.0000000000 1.0000000000
 1572.5000000 1.3530000448 55.443000793 0.0000000000 4.0000000000 0.0000000000 1.0000000000
 1572.6250000 1.1699999571 55.476001740 0.0000000000 4.0000000000 0.0000000000 1.0000000000
 1572.7500000 1.0269999504 55.507999420 0.0000000000 4.0000000000 0.0000000000 1.0000000000
 1572.8750000 0.8820000291 55.536998749  -999.250000 0.1000000015 0.1000000015 0.0000000000
 1573.0000000 0.7829999924 55.558998108  -999.250000 0.1000000015 0.1000000015 0.0000000000
 1573.1250000 0.7039999962 55.573001862  -999.250000 0.1000000015 0.1000000015 0.0000000000
 1573.2500000 0.7120000124 55.576999664  -999.250000 0.1000000015 0.1000000015 0.0000000000
 1573.3750000 0.7609999776 55.573001862  -999.250000 0.1000000015 0.1000000015 0.0000000000
 1573.5000000 0.8159999847 55.558998108  -999.250000 0.1000000015 0.1000000015 0.0000000000
 1573.6250000 0.8460000157 55.536998749  -999.250000 0.1000000015 0.1000000015 0.0000000000
 1573.7500000 0.8560000062 55.507999420  -999.250000 0.1000000015 0.1000000015 0.0000000000
 1573.8750000 0.8500000238 55.476001740  -999.250000 0.1000000015 0.1000000015 0.0000000000
 1574.0000000 0.8360000253 55.443000793  -999.250000 0.1000000015 0.1000000015 0.0000000000
 1574.1250000 0.8579999804 55.414001465  -999.250000 0.1000000015 0.1000000015 0.0000000000
 1574.2500000 1.0640000105 55.391998291  -999.250000 0.1000000015 0.1000000015 0.0000000000
 1574.3750000 1.3259999752 55.377998352 0.0000000000 6.0000000000 2.0000000000 1.0000000000
 1574.5000000 1.5269999504 55.373001099 0.0000000000 6.0000000000 2.0000000000 1.0000000000
 1574.6250000 1.6779999733 55.375000000 0.0000000000 6.0000000000 2.0000000000 1.0000000000
 1574.7500000 1.7250000238 55.379001617 0.0000000000 6.0000000000 2.0000000000 1.0000000000
 1574.8750000 1.5119999647 55.383998871 0.0000000000 6.0000000000 2.0000000000 1.0000000000
 1575.0000000 1.2869999409 55.387001038 0.0000000000 6.0000000000 2.0000000000 1.0000000000
 1575.1250000 1.0970000029 55.388000488  -999.250000 0.1000000015 0.1000000015 0.0000000000
 1575.2500000 0.9729999900 55.391998291  -999.250000 0.1000000015 0.1000000015 0.0000000000
 1575.3750000 0.8799999952 55.398998260  -999.250000 0.1000000015 0.1000000015 0.0000000000
 1575.5000000 0.8489999771 55.414001465  -999.250000 0.1000000015 0.1000000015 0.0000000000
 1575.6250000 0.8569999933 55.431999207  -999.250000 0.1000000015 0.1000000015 0.0000000000
 1575.7500000 1.0700000525 55.450000763  -999.250000 0.1000000015 0.1000000015 0.0000000000
 1575.8750000 1.3660000563 55.463001251  -999.250000 0.1000000015 0.1000000015 0.0000000000
 1576.0000000 1.7029999495 55.471000671 4.0000000000 25.000000000 5101.0000000 1.0000000000
 1576.1250000 2.0039999485 55.471000671 4.0000000000 25.000000000 5101.0000000 1.0000000000
 1576.2500000 2.2669999599 55.463001251 4.0000000000 25.000000000 5101.0000000 1.0000000000
 1576.3750000 2.5959999561 55.450000763 4.0000000000 25.000000000 5101.0000000 1.0000000000
 1576.5000000 1.7359999418 55.430999756 4.0000000000 25.000000000 5101.0000000 1.0000000000
 1576.6250000 1.4730000496 55.409999847 4.0000000000 25.000000000 5101.0000000 1.0000000000
 1576.7500000 1.3179999590 55.391998291 4.0000000000 25.000000000 5101.0000000 1.0000000000
 1576.8750000 1.3020000458 55.376998901 4.0000000000 25.000000000 5101.0000000 1.0000000000
 1577.0000000 2.0290000439 55.369998932 4.0000000000 25.000000000 5101.0000000 1.0000000000
 1577.1250000 2.8369998932 55.366001129 4.0000000000 25.000000000 5101.0000000 1.0000000000
 1577.2500000 3.5339999199 55.366001129 4.0000000000 25.000000000 5101.0000000 1.0000000000
 1577.3750000 4.1170001030 55.369998932 4.0000000000 25.000000000 5101.0000000 1.0000000000
 1577.5000000 4.2500000000 55.376998901 4.0000000000 25.000000000 5101.0000000 1.0000000000
 1577.6250000 4.1220002174 55.388000488 4.0000000000 25.000000000 5101.0000000 1.0000000000
 1577.7500000 3.7999999523 55.401000977 4.0000000000 25.000000000 5101.0000000 1.0000000000
