# LAS format log file from PETREL
# Project units are specified as depth units
#==================================================================
~Version information
VERS.   2.0:
WRAP.   NO:
#==================================================================
~Well
STRT .m      1510.0000000 :
STOP .m      1750.0000000 :
STEP .m     0.12500000 :
NULL .        -999.250000 :
COMP.           : COMPANY
WELL.  5-0165C   : WELL
FLD.            : FIELD
LOC.            : LOCATION
SRVC.           : SERVICE COMPANY
DATE.  2020-03-08 09:25:09   : Log Export Date {yyyy-MM-dd HH:mm:ss}
PROV.           : PROVINCE
UWI.      : UNIQUE WELL ID
API.            : API NUMBER
#==================================================================
~Curve
DEPT .m                   : DEPTH
RT .ohm.m                 : RT
SP .                      : SP
Fluids .                  : Fluids
POR .m3/m3                : POR
PERM .mD                  : PERM
Lith .                    : Lith
~Parameter
#==================================================================
~Ascii
# ...
 1662.2500000 1.9529999495 29.094999313  -999.250000 0.1000000015 0.1000000015 0.0000000000
 1662.3750000 1.8459999561 29.336000443  -999.250000 0.1000000015 0.1000000015 0.0000000000
 1662.5000000 1.7660000324 29.645999908  -999.250000 0.1000000015 0.1000000015 0.0000000000
 1662.6250000 1.7840000391 30.135999680  -999.250000 0.1000000015 0.1000000015 0.0000000000
 1662.7500000 1.7879999876 30.704000473  -999.250000 0.1000000015 0.1000000015 0.0000000000
 1662.8750000 1.7389999628 31.834999084  -999.250000 0.1000000015 0.1000000015 0.0000000000
 1663.0000000 1.7330000401 32.675998688  -999.250000 0.1000000015 0.1000000015 0.0000000000
 1663.1250000 1.7309999466 34.028999329  -999.250000 0.1000000015 0.1000000015 0.0000000000
 1663.2500000 1.8090000153 34.571998596  -999.250000 0.1000000015 0.1000000015 0.0000000000
 1663.3750000 2.0840001106 34.778999329  -999.250000 0.1000000015 0.1000000015 0.0000000000
 1663.5000000 2.4560000896 34.957000732  -999.250000 0.1000000015 0.1000000015 0.0000000000
 1663.6250000 3.0539999008 35.110000610  -999.250000 0.1000000015 0.1000000015 0.0000000000
 1663.7500000 3.5699999332 35.263000488  -999.250000 0.1000000015 0.1000000015 0.0000000000
 1663.8750000 3.8919999599 35.412998199  -999.250000 0.1000000015 0.1000000015 0.0000000000
 1664.0000000 3.6549999714 35.537998199  -999.250000 0.1000000015 0.1000000015 0.0000000000
 1664.1250000 3.3269999027 35.589000702  -999.250000 0.1000000015 0.1000000015 0.0000000000
 1664.2500000 3.1159999371 35.594001770  -999.250000 0.1000000015 0.1000000015 0.0000000000
 1664.3750000 3.0820000172 35.594001770  -999.250000 0.1000000015 0.1000000015 0.0000000000
 1664.5000000 3.1640000343 35.555000305  -999.250000 0.1000000015 0.1000000015 0.0000000000
 1664.6250000 3.3959999084 35.435001373  -999.250000 0.1000000015 0.1000000015 0.0000000000
 1664.7500000 4.1079998016 35.328998566  -999.250000 0.1000000015 0.1000000015 0.0000000000
 1664.8750000 5.0739998817 35.173000336  -999.250000 0.1000000015 0.1000000015 0.0000000000
 1665.0000000 4.7069997787 34.999000549  -999.250000 0.1000000015 0.1000000015 0.0000000000
 1665.1250000 4.2560000420 34.845001221  -999.250000 0.1000000015 0.1000000015 0.0000000000
 1665.2500000 3.8880000114 34.736000061  -999.250000 0.1000000015 0.1000000015 0.0000000000
 1665.3750000 3.5099999905 34.630001068  -999.250000 0.1000000015 0.1000000015 0.0000000000
 1665.5000000 2.9279999733 34.513000488  -999.250000 0.1000000015 0.1000000015 0.0000000000
 1665.6250000 2.3589999676 34.430999756  -999.250000 0.1000000015 0.1000000015 0.0000000000
 1665.7500000 1.8029999733 34.381999969  -999.250000 0.1000000015 0.1000000015 0.0000000000
 1665.8750000 1.8129999638 34.326000214  -999.250000 0.1000000015 0.1000000015 0.0000000000
 1666.0000000 2.0079998970 34.316001892  -999.250000 0.1000000015 0.1000000015 0.0000000000
 1666.1250000 2.1860001087 34.312000275  -999.250000 0.1000000015 0.1000000015 0.0000000000
 1666.2500000 2.4140000343 34.345001221  -999.250000 0.1000000015 0.1000000015 0.0000000000
 1666.3750000 2.5280001163 34.349998474  -999.250000 0.1000000015 0.1000000015 0.0000000000
 1666.5000000 2.5829999447 34.411998749  -999.250000 0.1000000015 0.1000000015 0.0000000000
 1666.6250000 2.4830000401 34.465000153  -999.250000 0.1000000015 0.1000000015 0.0000000000
 1666.7500000 2.3350000381 34.470001221  -999.250000 0.1000000015 0.1000000015 0.0000000000
 1666.8750000 2.1600000858 34.470001221  -999.250000 0.1000000015 0.1000000015 0.0000000000
 1667.0000000 2.2019999027 34.471000671  -999.250000 0.1000000015 0.1000000015 0.0000000000
 1667.1250000 2.3929998875 34.410999298  -999.250000 0.1000000015 0.1000000015 0.0000000000
 1667.2500000 2.5929999352 34.365001678  -999.250000 0.1000000015 0.1000000015 0.0000000000
 1667.3750000 2.8280000687 34.282001495  -999.250000 0.1000000015 0.1000000015 0.0000000000
 1667.5000000 4.2899999619 34.127998352  -999.250000 0.1000000015 0.1000000015 0.0000000000
 1667.6250000 5.2179999352 33.953998566  -999.250000 0.1000000015 0.1000000015 0.0000000000
 1667.7500000 5.4790000916 33.799999237  -999.250000 0.1000000015 0.1000000015 0.0000000000
 1667.8750000 5.4539999962 33.625999451 0.0000000000 9.0000000000 11.000000000 1.0000000000
 1668.0000000 5.2719998360 33.433998108 0.0000000000 9.0000000000 11.000000000 1.0000000000
 1668.1250000 4.9340000153 33.278999329 0.0000000000 9.0000000000 11.000000000 1.0000000000
 1668.2500000 4.5840001106 33.058998108 0.0000000000 9.0000000000 11.000000000 1.0000000000
 1668.3750000 4.3750000000 32.865001678 0.0000000000 9.0000000000 11.000000000 1.0000000000
 1668.5000000 4.3340001106 32.669998169 0.0000000000 9.0000000000 11.000000000 1.0000000000
 1668.6250000 4.6329998970 32.441001892 0.0000000000 9.0000000000 11.000000000 1.0000000000
 1668.7500000 4.6669998169 32.263999939 0.0000000000 9.0000000000 11.000000000 1.0000000000
 1668.8750000 4.5199999809 32.032001495 0.0000000000 9.0000000000 11.000000000 1.0000000000
 1669.0000000 4.4149999619 31.811000824 0.0000000000 9.0000000000 11.000000000 1.0000000000
 1669.1250000 4.8359999657 31.614000320 0.0000000000 9.0000000000 11.000000000 1.0000000000
 1669.2500000 6.1339998245 31.371000290 0.0000000000 9.0000000000 11.000000000 1.0000000000
 1669.3750000 6.9959998131 31.177999496 0.0000000000 9.0000000000 11.000000000 1.0000000000
 1669.5000000 7.1719999313 30.982999802 0.0000000000 9.0000000000 11.000000000 1.0000000000
 1669.6250000 6.7189998627 30.780000687 0.0000000000 9.0000000000 11.000000000 1.0000000000
 1669.7500000 6.2620000839 30.576000214 0.0000000000 9.0000000000 11.000000000 1.0000000000
 1669.8750000 5.7659997940 30.371000290 0.0000000000 9.0000000000 11.000000000 1.0000000000
 1670.0000000 5.3489999771 30.166000366  -999.250000 0.1000000015 0.1000000015 0.0000000000
 1670.1250000 4.9520001411 29.930999756  -999.250000 0.1000000015 0.1000000015 0.0000000000
 1670.2500000 4.6750001907 29.684999466  -999.250000 0.1000000015 0.1000000015 0.0000000000
 1670.3750000 4.9580001831 29.440000534  -999.250000 0.1000000015 0.1000000015 0.0000000000
 1670.5000000 8.1879997253 29.194000244  -999.250000 0.1000000015 0.1000000015 0.0000000000
 1670.6250000 8.7279996872 28.978000641  -999.250000 0.1000000015 0.1000000015 0.0000000000
 1670.7500000 8.6599998474 28.739000320  -999.250000 0.1000000015 0.1000000015 0.0000000000
 1670.8750000 8.3210000992 28.531000137 4.0000000000 22.000000000 2342.0000000 1.0000000000
 1671.0000000 7.9190001488 28.319999695 4.0000000000 22.000000000 2342.0000000 1.0000000000
 1671.1250000 7.7360000610 28.156999588 4.0000000000 22.000000000 2342.0000000 1.0000000000
 1671.2500000 13.428999901 28.014999390 4.0000000000 22.000000000 2342.0000000 1.0000000000
 1671.3750000 14.230999947 27.752000809 4.0000000000 22.000000000 2342.0000000 1.0000000000
 1671.5000000 13.944999695 27.471000671 4.0000000000 22.000000000 2342.0000000 1.0000000000
 1671.6250000 13.376999855 27.066999435 4.0000000000 22.000000000 2342.0000000 1.0000000000
 1671.7500000 12.895000458 26.704000473 4.0000000000 22.000000000 2342.0000000 1.0000000000
 1671.8750000 12.100000381 26.364999771 4.0000000000 22.000000000 2342.0000000 1.0000000000
 1672.0000000 11.838000298 25.989999771 4.0000000000 22.000000000 2342.0000000 1.0000000000
 1672.1250000 11.652000427 25.562000275 4.0000000000 22.000000000 2342.0000000 1.0000000000
 1672.2500000 11.659999847 25.106000900 4.0000000000 22.000000000 2342.0000000 1.0000000000
 1672.3750000 11.944000244 24.341999054 4.0000000000 22.000000000 2342.0000000 1.0000000000
 1672.5000000 12.434000015 23.600000381 4.0000000000 22.000000000 2342.0000000 1.0000000000
 1672.6250000 12.635000229 23.018999100 4.0000000000 22.000000000 2342.0000000 1.0000000000
 1672.7500000 12.935999870 22.577999115 4.0000000000 22.000000000 2342.0000000 1.0000000000
 1672.8750000 14.253999710 22.166000366 4.0000000000 22.000000000 2342.0000000 1.0000000000
 1673.0000000 14.628999710 21.972000122 4.0000000000 22.000000000 2342.0000000 1.0000000000
