# LAS format log file from PETREL
# Project units are specified as depth units
#==================================================================
~Version information
VERS.   2.0:
WRAP.   NO:
#==================================================================
~Well
STRT .m      1350.0000000 :
STOP .m      1755.0000000 :
STEP .m     0.12500000 :
NULL .        -999.250000 :
COMP.           : COMPANY
WELL.  5-0165C2   : WELL
FLD.            : FIELD
LOC.            : LOCATION
SRVC.           : SERVICE COMPANY
DATE.  2020-03-08 09:25:09   : Log Export Date {yyyy-MM-dd HH:mm:ss}
PROV.           : PROVINCE
UWI.      : UNIQUE WELL ID
API.            : API NUMBER
#==================================================================
~Curve
DEPT .m                   : DEPTH
RT .ohm.m                 : RT
SP .                      : SP
Fluids .                  : Fluids
POR .m3/m3                : POR
PERM .mD                  : PERM
Lith .                    : Lith
~Parameter
#==================================================================
~Ascii
# ...
 1567.5000000 1.5019999743 4.9990000725 4.0000000000 23.000000000 2529.0000000 1.0000000000
 1567.6250000 1.4989999533 4.3689999580 4.0000000000 23.000000000 2529.0000000 1.0000000000
 1567.7500000 1.5670000315 3.6519999504 4.0000000000 23.000000000 2529.0000000 1.0000000000
 1567.8750000 1.6339999437 2.7460000515 4.0000000000 23.000000000 2529.0000000 1.0000000000
 1568.0000000 1.7469999790 1.2879999876 4.0000000000 23.000000000 2529.0000000 1.0000000000
 1568.1250000 1.8700000048 0.4009999931 4.0000000000 23.000000000 2529.0000000 1.0000000000
 1568.2500000 2.0429999828 0.0810000002 4.0000000000 23.000000000 2529.0000000 1.0000000000
 1568.3750000 2.0850000381 -0.298000008 4.0000000000 23.000000000 2529.0000000 1.0000000000
 1568.5000000 2.1919999123 -0.702000022 4.0000000000 23.000000000 2529.0000000 1.0000000000
 1568.6250000 2.4389998913 -1.037999988 4.0000000000 23.000000000 2529.0000000 1.0000000000
 1568.7500000 2.6310000420 -1.373999953 4.0000000000 23.000000000 2529.0000000 1.0000000000
 1568.8750000 3.8429999352 7.8509998322 4.0000000000 23.000000000 2529.0000000 1.0000000000
 1569.0000000 25.919000626 12.182999611 4.0000000000 23.000000000 2529.0000000 1.0000000000
 1569.1250000 29.263999939 13.572999954 4.0000000000 23.000000000 2529.0000000 1.0000000000
 1569.2500000 31.413999557 13.479000092 4.0000000000 23.000000000 2529.0000000 1.0000000000
 1569.3750000 32.412998199 12.753000259 4.0000000000 23.000000000 2529.0000000 1.0000000000
 1569.5000000 33.255001068 12.451000214 4.0000000000 23.000000000 2529.0000000 1.0000000000
 1569.6250000 36.069000244 12.147999763 4.0000000000 23.000000000 2529.0000000 1.0000000000
 1569.7500000 37.342998505 12.060000420 4.0000000000 23.000000000 2529.0000000 1.0000000000
 1569.8750000 37.786998749 11.970000267 4.0000000000 23.000000000 2529.0000000 1.0000000000
 1570.0000000 38.189998627 11.859000206 4.0000000000 23.000000000 2529.0000000 1.0000000000
 1570.1250000 38.573001862 11.803999901 4.0000000000 23.000000000 2529.0000000 1.0000000000
 1570.2500000 38.673999786 11.850000381 4.0000000000 23.000000000 2529.0000000 1.0000000000
 1570.3750000 38.775001526 12.013999939 4.0000000000 23.000000000 2529.0000000 1.0000000000
 1570.5000000 38.745998383 12.246000290 4.0000000000 23.000000000 2529.0000000 1.0000000000
 1570.6250000 38.706001282 12.729000092 4.0000000000 23.000000000 2529.0000000 1.0000000000
 1570.7500000 38.650001526 13.423000336 4.0000000000 23.000000000 2529.0000000 1.0000000000
 1570.8750000 38.569000244 14.321000099 4.0000000000 23.000000000 2529.0000000 1.0000000000
 1571.0000000 38.270000458 15.902999878 4.0000000000 23.000000000 2529.0000000 1.0000000000
 1571.1250000 37.235000610 17.334999084  -999.250000 0.1000000015 0.1000000015 0.0000000000
 1571.2500000 36.460998535 19.216999054  -999.250000 0.1000000015 0.1000000015 0.0000000000
 1571.3750000 35.549999237 21.649999619  -999.250000 0.1000000015 0.1000000015 0.0000000000
 1571.5000000 34.811000824 23.121999741  -999.250000 0.1000000015 0.1000000015 0.0000000000
 1571.6250000 33.952999115 24.593999863  -999.250000 0.1000000015 0.1000000015 0.0000000000
 1571.7500000 31.263999939 25.816999435  -999.250000 0.1000000015 0.1000000015 0.0000000000
 1571.8750000 29.534000397 27.162000656  -999.250000 0.1000000015 0.1000000015 0.0000000000
 1572.0000000 31.180000305 27.990999222  -999.250000 0.1000000015 0.1000000015 0.0000000000
 1572.1250000 31.996000290 28.917999268  -999.250000 0.1000000015 0.1000000015 0.0000000000
 1572.2500000 32.188999176 29.893999100  -999.250000 0.1000000015 0.1000000015 0.0000000000
 1572.3750000 32.155998230 30.281000137  -999.250000 0.1000000015 0.1000000015 0.0000000000
 1572.5000000 31.962999344 30.666999817  -999.250000 0.1000000015 0.1000000015 0.0000000000
 1572.6250000 31.490999222 30.593999863  -999.250000 0.1000000015 0.1000000015 0.0000000000
 1572.7500000 31.045999527 30.521999359  -999.250000 0.1000000015 0.1000000015 0.0000000000
 1572.8750000 29.458999634 30.327999115  -999.250000 0.1000000015 0.1000000015 0.0000000000
 1573.0000000 28.384000778 30.252000809  -999.250000 0.1000000015 0.1000000015 0.0000000000
 1573.1250000 22.277999878 30.176000595  -999.250000 0.1000000015 0.1000000015 0.0000000000
 1573.2500000 20.316999435 30.454999924  -999.250000 0.1000000015 0.1000000015 0.0000000000
 1573.3750000 8.7519998550 30.656999588  -999.250000 0.1000000015 0.1000000015 0.0000000000
 1573.5000000 4.2329998016 30.778999329  -999.250000 0.1000000015 0.1000000015 0.0000000000
 1573.6250000 2.5490000248 30.913000107  -999.250000 0.1000000015 0.1000000015 0.0000000000
 1573.7500000 2.0780000687 31.017999649  -999.250000 0.1000000015 0.1000000015 0.0000000000
 1573.8750000 1.6419999599 31.299999237  -999.250000 0.1000000015 0.1000000015 0.0000000000
 1574.0000000 1.5210000277 31.583000183  -999.250000 0.1000000015 0.1000000015 0.0000000000
 1574.1250000 1.5240000486 31.756999969  -999.250000 0.1000000015 0.1000000015 0.0000000000
 1574.2500000 1.6100000143 32.034999847  -999.250000 0.1000000015 0.1000000015 0.0000000000
 1574.3750000 1.7460000515 32.424999237  -999.250000 0.1000000015 0.1000000015 0.0000000000
 1574.5000000 2.0199999809 32.848999023  -999.250000 0.1000000015 0.1000000015 0.0000000000
 1574.6250000 2.2739999294 33.303001404  -999.250000 0.1000000015 0.1000000015 0.0000000000
 1574.7500000 2.8929998875 33.743000031  -999.250000 0.1000000015 0.1000000015 0.0000000000
 1574.8750000 5.2109999657 34.096000671  -999.250000 0.1000000015 0.1000000015 0.0000000000
 1575.0000000 5.4609999657 34.403999329  -999.250000 0.1000000015 0.1000000015 0.0000000000
 1575.1250000 5.5770001411 34.692001343  -999.250000 0.1000000015 0.1000000015 0.0000000000
 1575.2500000 5.6269998550 34.794998169  -999.250000 0.1000000015 0.1000000015 0.0000000000
 1575.3750000 5.6760001183 34.813999176  -999.250000 0.1000000015 0.1000000015 0.0000000000
 1575.5000000 5.1119999886 34.734001160  -999.250000 0.1000000015 0.1000000015 0.0000000000
 1575.6250000 3.5369999409 34.611000061  -999.250000 0.1000000015 0.1000000015 0.0000000000
 1575.7500000 1.9620000124 34.554000854  -999.250000 0.1000000015 0.1000000015 0.0000000000
 1575.8750000 1.7660000324 34.497001648  -999.250000 0.1000000015 0.1000000015 0.0000000000
 1576.0000000 1.6770000458 34.494998932  -999.250000 0.1000000015 0.1000000015 0.0000000000
 1576.1250000 1.6640000343 34.436000824  -999.250000 0.1000000015 0.1000000015 0.0000000000
 1576.2500000 1.6519999504 32.833999634  -999.250000 0.1000000015 0.1000000015 0.0000000000
 1576.3750000 1.6390000582 31.695999146  -999.250000 0.1000000015 0.1000000015 0.0000000000
 1576.5000000 1.6360000372 30.972999573  -999.250000 0.1000000015 0.1000000015 0.0000000000
 1576.6250000 1.6369999647 30.582000732  -999.250000 0.1000000015 0.1000000015 0.0000000000
 1576.7500000 1.6369999647 30.177000046  -999.250000 0.1000000015 0.1000000015 0.0000000000
 1576.8750000 1.7239999771 29.767000198  -999.250000 0.1000000015 0.1000000015 0.0000000000
 1577.0000000 1.9099999666 29.466999054  -999.250000 0.1000000015 0.1000000015 0.0000000000
 1577.1250000 2.0680000782 29.094999313  -999.250000 0.1000000015 0.1000000015 0.0000000000
 1577.2500000 2.0789999962 28.799999237  -999.250000 0.1000000015 0.1000000015 0.0000000000
 1577.3750000 2.0260000229 28.516000748  -999.250000 0.1000000015 0.1000000015 0.0000000000
 1577.5000000 1.9370000362 28.138999939  -999.250000 0.1000000015 0.1000000015 0.0000000000
 1577.6250000 1.9099999666 27.936000824  -999.250000 0.1000000015 0.1000000015 0.0000000000
 1577.7500000 2.1819999218 27.604000092  -999.250000 0.1000000015 0.1000000015 0.0000000000
 1577.8750000 2.8499999046 27.184999466  -999.250000 0.1000000015 0.1000000015 0.0000000000
 1578.0000000 3.2219998837 26.628999710 4.0000000000 27.000000000 4420.0000000 1.0000000000
 1578.1250000 3.4079999924 25.997999191 4.0000000000 27.000000000 4420.0000000 1.0000000000
 1578.2500000 3.5940001011 25.357999802 4.0000000000 27.000000000 4420.0000000 1.0000000000
