# LAS format log file from PETREL
# Project units are specified as depth units
#==================================================================
~Version information
VERS.   2.0:
WRAP.   NO:
#==================================================================
~Well
STRT .m      1510.0000000 :
STOP .m      1750.0000000 :
STEP .m     0.12500000 :
NULL .        -999.250000 :
COMP.           : COMPANY
WELL.  5-0165C   : WELL
FLD.            : FIELD
LOC.            : LOCATION
SRVC.           : SERVICE COMPANY
DATE.  2020-03-08 09:25:09   : Log Export Date {yyyy-MM-dd HH:mm:ss}
PROV.           : PROVINCE
UWI.      : UNIQUE WELL ID
API.            : API NUMBER
#==================================================================
~Curve
DEPT .m                   : DEPTH
RT .ohm.m                 : RT
SP .                      : SP
Fluids .                  : Fluids
POR .m3/m3                : POR
PERM .mD                  : PERM
Lith .                    : Lith
~Parameter
#==================================================================
~Ascii
# ...
 1597.0000000 16.962999344 21.886999130 4.0000000000 27.000000000 4832.0000000 1.0000000000
 1597.1250000 17.597999573 22.034000397 4.0000000000 27.000000000 4832.0000000 1.0000000000
 1597.2500000 17.670999527 22.170999527 4.0000000000 27.000000000 4832.0000000 1.0000000000
 1597.3750000 17.756999969 22.313999176 4.0000000000 27.000000000 4832.0000000 1.0000000000
 1597.5000000 20.693000793 22.410999298 4.0000000000 27.000000000 4832.0000000 1.0000000000
 1597.6250000 21.481000900 22.159000397 4.0000000000 27.000000000 4832.0000000 1.0000000000
 1597.7500000 21.354000092 21.731000900 4.0000000000 27.000000000 4832.0000000 1.0000000000
 1597.8750000 19.593999863 21.403999329 4.0000000000 27.000000000 4832.0000000 1.0000000000
 1598.0000000 9.1870002747 21.143999100  -999.250000 0.1000000015 0.1000000015 0.0000000000
 1598.1250000 7.1279997826 21.007999420  -999.250000 0.1000000015 0.1000000015 0.0000000000
 1598.2500000 6.5240001678 21.033000946  -999.250000 0.1000000015 0.1000000015 0.0000000000
 1598.3750000 6.6409997940 21.190999985  -999.250000 0.1000000015 0.1000000015 0.0000000000
 1598.5000000 7.0970001221 21.412000656 4.0000000000 26.000000000 4026.0000000 1.0000000000
 1598.6250000 9.4989995956 21.690999985 4.0000000000 26.000000000 4026.0000000 1.0000000000
 1598.7500000 13.260999680 21.938999176 4.0000000000 26.000000000 4026.0000000 1.0000000000
 1598.8750000 15.147000313 22.148000717 4.0000000000 26.000000000 4026.0000000 1.0000000000
 1599.0000000 15.517999649 22.304000854 4.0000000000 26.000000000 4026.0000000 1.0000000000
 1599.1250000 12.135999680 22.486999512 4.0000000000 26.000000000 4026.0000000 1.0000000000
 1599.2500000 11.729999542 22.620000839 4.0000000000 26.000000000 4026.0000000 1.0000000000
 1599.3750000 12.012999535 22.635999680 4.0000000000 26.000000000 4026.0000000 1.0000000000
 1599.5000000 12.661999702 22.604000092 4.0000000000 26.000000000 4026.0000000 1.0000000000
 1599.6250000 17.725000381 22.600999832 4.0000000000 26.000000000 4026.0000000 1.0000000000
 1599.7500000 19.583000183 22.568000793 4.0000000000 26.000000000 4026.0000000 1.0000000000
 1599.8750000 20.420000076 22.503999710 4.0000000000 26.000000000 4026.0000000 1.0000000000
 1600.0000000 19.322000504 22.381999969 4.0000000000 26.000000000 4026.0000000 1.0000000000
 1600.1250000 17.770999908 22.212999344 4.0000000000 26.000000000 4026.0000000 1.0000000000
 1600.2500000 17.822000504 22.024999619 4.0000000000 26.000000000 4026.0000000 1.0000000000
 1600.3750000 18.117000580 21.784999847 4.0000000000 26.000000000 4026.0000000 1.0000000000
 1600.5000000 19.034000397 21.625000000 4.0000000000 26.000000000 4026.0000000 1.0000000000
 1600.6250000 21.516000748 21.440000534 4.0000000000 26.000000000 4026.0000000 1.0000000000
 1600.7500000 22.850000381 21.072000504 4.0000000000 26.000000000 4026.0000000 1.0000000000
 1600.8750000 24.745000839 20.406000137 4.0000000000 26.000000000 4026.0000000 1.0000000000
 1601.0000000 30.364999771 19.638000488 4.0000000000 26.000000000 4026.0000000 1.0000000000
 1601.1250000 34.721000671 19.104000092 4.0000000000 26.000000000 4026.0000000 1.0000000000
 1601.2500000 36.358001709 18.497999191 4.0000000000 26.000000000 4026.0000000 1.0000000000
 1601.3750000 38.026000977 18.222999573 4.0000000000 26.000000000 4026.0000000 1.0000000000
 1601.5000000 38.035999298 17.972000122 4.0000000000 26.000000000 4026.0000000 1.0000000000
 1601.6250000 37.652999878 17.753999710 4.0000000000 26.000000000 4026.0000000 1.0000000000
 1601.7500000 32.584999084 17.516000748 4.0000000000 26.000000000 4026.0000000 1.0000000000
 1601.8750000 29.242000580 17.270999908 4.0000000000 26.000000000 4026.0000000 1.0000000000
 1602.0000000 27.288000107 17.087999344 4.0000000000 26.000000000 4026.0000000 1.0000000000
 1602.1250000 25.489999771 16.895000458 4.0000000000 26.000000000 4026.0000000 1.0000000000
 1602.2500000 25.162000656 16.781000137 4.0000000000 26.000000000 4026.0000000 1.0000000000
 1602.3750000 26.125000000 16.680999756 4.0000000000 26.000000000 4026.0000000 1.0000000000
 1602.5000000 30.643999100 16.736999512 4.0000000000 26.000000000 4026.0000000 1.0000000000
 1602.6250000 33.165000916 16.891000748 4.0000000000 26.000000000 4026.0000000 1.0000000000
 1602.7500000 33.963001251 16.989999771 4.0000000000 26.000000000 4026.0000000 1.0000000000
 1602.8750000 34.138999939 17.076999664 4.0000000000 26.000000000 4026.0000000 1.0000000000
 1603.0000000 34.316001892 17.202999115 4.0000000000 26.000000000 4026.0000000 1.0000000000
 1603.1250000 34.513999939 17.346000671 4.0000000000 26.000000000 4026.0000000 1.0000000000
 1603.2500000 34.669998169 17.381999969 4.0000000000 26.000000000 4026.0000000 1.0000000000
 1603.3750000 34.500999451 17.427000046 4.0000000000 26.000000000 4026.0000000 1.0000000000
 1603.5000000 33.949001312 17.434999466 4.0000000000 26.000000000 4026.0000000 1.0000000000
 1603.6250000 32.741001129 17.408000946 4.0000000000 26.000000000 4026.0000000 1.0000000000
 1603.7500000 30.358999252 17.395999908 4.0000000000 26.000000000 4026.0000000 1.0000000000
 1603.8750000 28.747999191 17.330999374 4.0000000000 26.000000000 4026.0000000 1.0000000000
 1604.0000000 28.552000046 17.295000076 4.0000000000 26.000000000 4026.0000000 1.0000000000
 1604.1250000 28.993999481 17.281000137 4.0000000000 26.000000000 4026.0000000 1.0000000000
 1604.2500000 32.972000122 17.274000168 4.0000000000 26.000000000 4026.0000000 1.0000000000
 1604.3750000 33.991001129 17.274000168 4.0000000000 26.000000000 4026.0000000 1.0000000000
 1604.5000000 33.953998566 17.301000595 4.0000000000 26.000000000 4026.0000000 1.0000000000
 1604.6250000 33.645999908 17.312000275 4.0000000000 26.000000000 4026.0000000 1.0000000000
 1604.7500000 32.101001740 17.386999130 4.0000000000 26.000000000 4026.0000000 1.0000000000
 1604.8750000 29.965000153 17.506000519 4.0000000000 26.000000000 4026.0000000 1.0000000000
 1605.0000000 25.110000610 17.677000046 4.0000000000 26.000000000 4026.0000000 1.0000000000
 1605.1250000 23.763999939 17.841999054 4.0000000000 26.000000000 4026.0000000 1.0000000000
 1605.2500000 23.464000702 18.006000519 4.0000000000 26.000000000 4026.0000000 1.0000000000
 1605.3750000 23.812000275 18.170000076 4.0000000000 26.000000000 4026.0000000 1.0000000000
 1605.5000000 25.538999557 18.368999481 4.0000000000 26.000000000 4026.0000000 1.0000000000
 1605.6250000 27.163000107 18.572999954 4.0000000000 26.000000000 4026.0000000 1.0000000000
 1605.7500000 27.711000443 18.746000290 4.0000000000 26.000000000 4026.0000000 1.0000000000
 1605.8750000 27.944999695 18.906000137 4.0000000000 26.000000000 4026.0000000 1.0000000000
 1606.0000000 27.482000351 19.079000473 4.0000000000 26.000000000 4026.0000000 1.0000000000
 1606.1250000 26.819000244 19.270999908 4.0000000000 26.000000000 4026.0000000 1.0000000000
 1606.2500000 23.284000397 19.551000595 4.0000000000 26.000000000 4026.0000000 1.0000000000
 1606.3750000 22.746999741 19.774999619 4.0000000000 26.000000000 4026.0000000 1.0000000000
 1606.5000000 22.771999359 19.982999802 4.0000000000 26.000000000 4026.0000000 1.0000000000
 1606.6250000 23.455999374 20.150999069 4.0000000000 26.000000000 4026.0000000 1.0000000000
 1606.7500000 28.506999969 20.302999496 4.0000000000 26.000000000 4026.0000000 1.0000000000
 1606.8750000 30.038000107 20.465999603 4.0000000000 26.000000000 4026.0000000 1.0000000000
 1607.0000000 30.101999283 20.620000839 4.0000000000 26.000000000 4026.0000000 1.0000000000
 1607.1250000 29.774000168 20.763000488 4.0000000000 26.000000000 4026.0000000 1.0000000000
 1607.2500000 28.719999313 20.877000809 4.0000000000 26.000000000 4026.0000000 1.0000000000
 1607.3750000 27.568000793 20.941999435 4.0000000000 26.000000000 4026.0000000 1.0000000000
 1607.5000000 17.524999619 20.975999832 4.0000000000 26.000000000 4026.0000000 1.0000000000
 1607.6250000 16.761999130 21.006999969 4.0000000000 26.000000000 4026.0000000 1.0000000000
 1607.7500000 16.937000275 21.025999069 4.0000000000 26.000000000 4026.0000000 1.0000000000
