# LAS format log file from PETREL
# Project units are specified as depth units
#==================================================================
~Version information
VERS.   2.0:
WRAP.   NO:
#==================================================================
~Well
STRT .m      1420.0000000 :
STOP .m      1734.8750000 :
STEP .m     0.12500000 :
NULL .        -999.250000 :
COMP.           : COMPANY
WELL.  5-0161C   : WELL
FLD.            : FIELD
LOC.            : LOCATION
SRVC.           : SERVICE COMPANY
DATE.  2020-03-08 09:25:09   : Log Export Date {yyyy-MM-dd HH:mm:ss}
PROV.           : PROVINCE
UWI.      : UNIQUE WELL ID
API.            : API NUMBER
#==================================================================
~Curve
DEPT .m                   : DEPTH
RT .ohm.m                 : RT
SP .                      : SP
Fluids .                  : Fluids
POR .m3/m3                : POR
PERM .mD                  : PERM
Lith .                    : Lith
~Parameter
#==================================================================
~Ascii
# ...
 1626.6250000 39.564998627 -72.21099854 4.0000000000 24.000000000 2762.0000000 1.0000000000
 1626.7500000 40.229000092 -72.04900360 4.0000000000 24.000000000 2762.0000000 1.0000000000
 1626.8750000 41.092998505 -71.86599731 4.0000000000 24.000000000 2762.0000000 1.0000000000
 1627.0000000 41.513999939 -71.79000092 4.0000000000 24.000000000 2762.0000000 1.0000000000
 1627.1250000 41.368000031 -71.84999847 4.0000000000 24.000000000 2762.0000000 1.0000000000
 1627.2500000 40.812999725 -72.00299835 4.0000000000 24.000000000 2762.0000000 1.0000000000
 1627.3750000 39.724998474 -72.13300323 4.0000000000 24.000000000 2762.0000000 1.0000000000
 1627.5000000 38.290000916 -72.24900055 4.0000000000 24.000000000 2762.0000000 1.0000000000
 1627.6250000 36.950000763 -72.37599945 4.0000000000 24.000000000 2762.0000000 1.0000000000
 1627.7500000 35.263999939 -72.48999786 4.0000000000 24.000000000 2762.0000000 1.0000000000
 1627.8750000 34.166000366 -72.57499695 4.0000000000 24.000000000 2762.0000000 1.0000000000
 1628.0000000 34.345001221 -72.60299683 4.0000000000 24.000000000 2762.0000000 1.0000000000
 1628.1250000 35.334999084 -72.58399963 4.0000000000 24.000000000 2762.0000000 1.0000000000
 1628.2500000 37.589000702 -72.51300049 4.0000000000 24.000000000 2762.0000000 1.0000000000
 1628.3750000 40.520999908 -72.37500000 4.0000000000 24.000000000 2762.0000000 1.0000000000
 1628.5000000 43.759998322 -72.14700317 4.0000000000 24.000000000 2762.0000000 1.0000000000
 1628.6250000 46.321998596 -71.82499695 0.0000000000 10.000000000 124.00000000 1.0000000000
 1628.7500000 48.541999817 -71.43099976 0.0000000000 10.000000000 124.00000000 1.0000000000
 1628.8750000 49.750000000 -70.99400330 0.0000000000 10.000000000 124.00000000 1.0000000000
 1629.0000000 49.305999756 -70.48300171 0.0000000000 10.000000000 124.00000000 1.0000000000
 1629.1250000 48.442001343 -69.86100006 0.0000000000 10.000000000 124.00000000 1.0000000000
 1629.2500000 47.480998993 -69.11799622 0.0000000000 10.000000000 124.00000000 1.0000000000
 1629.3750000 46.769001007 -68.15000153 0.0000000000 10.000000000 124.00000000 1.0000000000
 1629.5000000 45.835998535 -66.91100311 0.0000000000 10.000000000 124.00000000 1.0000000000
 1629.6250000 43.880001068 -65.39800262 0.0000000000 10.000000000 124.00000000 1.0000000000
 1629.7500000 41.082000732 -63.88999939 0.0000000000 10.000000000 124.00000000 1.0000000000
 1629.8750000 37.166999817 -62.75500107 0.0000000000 10.000000000 124.00000000 1.0000000000
 1630.0000000 33.904998779 -62.27299881 0.0000000000 10.000000000 124.00000000 1.0000000000
 1630.1250000 33.573001862 -62.42800140 0.0000000000 10.000000000 124.00000000 1.0000000000
 1630.2500000 35.554000854 -63.08399963 0.0000000000 10.000000000 124.00000000 1.0000000000
 1630.3750000 39.425998688 -64.11299896 0.0000000000 10.000000000 124.00000000 1.0000000000
 1630.5000000 44.537998199 -65.38300323 0.0000000000 10.000000000 124.00000000 1.0000000000
 1630.6250000 49.129001617 -66.67199707 0.0000000000 10.000000000 124.00000000 1.0000000000
 1630.7500000 51.519001007 -67.75599670 0.0000000000 10.000000000 124.00000000 1.0000000000
 1630.8750000 52.305000305 -68.49600220 0.0000000000 10.000000000 124.00000000 1.0000000000
 1631.0000000 50.909000397 -68.80100250 0.0000000000 10.000000000 124.00000000 1.0000000000
 1631.1250000 47.844001770 -68.75099945 0.0000000000 10.000000000 124.00000000 1.0000000000
 1631.2500000 44.832000732 -68.58699799 0.0000000000 10.000000000 124.00000000 1.0000000000
 1631.3750000 41.826000214 -68.65299988 0.0000000000 10.000000000 124.00000000 1.0000000000
 1631.5000000 38.770000458 -69.12400055 0.0000000000 10.000000000 124.00000000 1.0000000000
 1631.6250000 36.471000671 -69.71399689 0.0000000000 10.000000000 124.00000000 1.0000000000
 1631.7500000 35.276000977 -70.11699677 4.0000000000 22.000000000 2428.0000000 1.0000000000
 1631.8750000 34.986999512 -70.18900299 4.0000000000 22.000000000 2428.0000000 1.0000000000
 1632.0000000 35.273998260 -70.29499817 4.0000000000 22.000000000 2428.0000000 1.0000000000
 1632.1250000 35.893001556 -70.79399872 4.0000000000 22.000000000 2428.0000000 1.0000000000
 1632.2500000 36.693000793 -71.80300140 4.0000000000 22.000000000 2428.0000000 1.0000000000
 1632.3750000 37.784000397 -73.04499817 4.0000000000 22.000000000 2428.0000000 1.0000000000
 1632.5000000 39.012001038 -74.08699799 4.0000000000 22.000000000 2428.0000000 1.0000000000
 1632.6250000 40.543998718 -74.73400116 4.0000000000 22.000000000 2428.0000000 1.0000000000
 1632.7500000 43.557998657 -75.04199982 4.0000000000 22.000000000 2428.0000000 1.0000000000
 1632.8750000 48.171001434 -75.23200226 4.0000000000 22.000000000 2428.0000000 1.0000000000
 1633.0000000 52.715999603 -75.38400269 4.0000000000 22.000000000 2428.0000000 1.0000000000
 1633.1250000 55.118000031 -75.55000305 4.0000000000 22.000000000 2428.0000000 1.0000000000
 1633.2500000 55.391998291 -75.77700043 4.0000000000 22.000000000 2428.0000000 1.0000000000
 1633.3750000 54.126998901 -76.01599884 4.0000000000 22.000000000 2428.0000000 1.0000000000
 1633.5000000 51.515998840 -76.22899628 4.0000000000 22.000000000 2428.0000000 1.0000000000
 1633.6250000 48.764999390 -76.38999939 4.0000000000 22.000000000 2428.0000000 1.0000000000
 1633.7500000 47.104000092 -76.47599792 4.0000000000 22.000000000 2428.0000000 1.0000000000
 1633.8750000 47.012001038 -76.50000000 4.0000000000 22.000000000 2428.0000000 1.0000000000
 1634.0000000 48.597999573 -76.48000336 4.0000000000 22.000000000 2428.0000000 1.0000000000
 1634.1250000 51.493999481 -76.44599915 4.0000000000 22.000000000 2428.0000000 1.0000000000
 1634.2500000 55.171001434 -76.36100006 4.0000000000 22.000000000 2428.0000000 1.0000000000
 1634.3750000 58.212001801 -76.22699738 4.0000000000 22.000000000 2428.0000000 1.0000000000
 1634.5000000 60.250999451 -76.04299927 4.0000000000 22.000000000 2428.0000000 1.0000000000
 1634.6250000 61.602001190 -75.87400055 4.0000000000 22.000000000 2428.0000000 1.0000000000
 1634.7500000 60.146999359 -75.62200165 4.0000000000 22.000000000 2428.0000000 1.0000000000
 1634.8750000 56.439998627 -75.19999695 4.0000000000 22.000000000 2428.0000000 1.0000000000
 1635.0000000 51.422000885 -74.63999939 4.0000000000 22.000000000 2428.0000000 1.0000000000
 1635.1250000 47.148998260 -74.05100250 4.0000000000 22.000000000 2428.0000000 1.0000000000
 1635.2500000 43.701000214 -73.60099792 4.0000000000 22.000000000 2428.0000000 1.0000000000
 1635.3750000 40.459999084 -73.25700378 4.0000000000 22.000000000 2428.0000000 1.0000000000
 1635.5000000 37.252998352 -72.94499969 4.0000000000 22.000000000 2428.0000000 1.0000000000
 1635.6250000 35.347999573 -72.60199738 4.0000000000 22.000000000 2428.0000000 1.0000000000
 1635.7500000 34.481998444 -72.21099854 4.0000000000 22.000000000 2428.0000000 1.0000000000
 1635.8750000 35.034999847 -71.79100037 4.0000000000 22.000000000 2428.0000000 1.0000000000
 1636.0000000 38.034000397 -71.30999756 4.0000000000 22.000000000 2428.0000000 1.0000000000
 1636.1250000 41.910999298 -70.73100281 4.0000000000 22.000000000 2428.0000000 1.0000000000
 1636.2500000 44.020999908 -70.10500336 4.0000000000 22.000000000 2428.0000000 1.0000000000
 1636.3750000 43.986000061 -69.55500031 4.0000000000 22.000000000 2428.0000000 1.0000000000
 1636.5000000 41.029998779 -69.30100250 4.0000000000 22.000000000 2428.0000000 1.0000000000
 1636.6250000 35.919998169 -69.33599854 4.0000000000 22.000000000 2428.0000000 1.0000000000
 1636.7500000 31.954999924 -69.47299957 4.0000000000 22.000000000 2428.0000000 1.0000000000
 1636.8750000 29.724000931 -69.45800018 4.0000000000 22.000000000 2428.0000000 1.0000000000
 1637.0000000 29.014999390 -69.12400055 4.0000000000 22.000000000 2428.0000000 1.0000000000
 1637.1250000 28.905000687 -68.63999939 4.0000000000 22.000000000 2428.0000000 1.0000000000
 1637.2500000 29.118000031 -68.22000122 4.0000000000 22.000000000 2428.0000000 1.0000000000
 1637.3750000 29.579000473 -67.97100067 4.0000000000 22.000000000 2428.0000000 1.0000000000
