# LAS format log file from PETREL
# Project units are specified as depth units
#==================================================================
~Version information
VERS.   2.0:
WRAP.   NO:
#==================================================================
~Well
STRT .m      1450.0000000 :
STOP .m      1760.0000000 :
STEP .m     0.12500000 :
NULL .        -999.250000 :
COMP.           : COMPANY
WELL.  5-0172C   : WELL
FLD.            : FIELD
LOC.            : LOCATION
SRVC.           : SERVICE COMPANY
DATE.  2020-03-08 09:25:09   : Log Export Date {yyyy-MM-dd HH:mm:ss}
PROV.           : PROVINCE
UWI.      : UNIQUE WELL ID
API.            : API NUMBER
#==================================================================
~Curve
DEPT .m                   : DEPTH
RT .ohm.m                 : RT
SP .                      : SP
Fluids .                  : Fluids
POR .m3/m3                : POR
PERM .mD                  : PERM
Lith .                    : Lith
~Parameter
#==================================================================
~Ascii
# ...
 1634.8750000 11.062999725 10.206999779 3.0000000000 15.000000000 385.00000000 1.0000000000
 1635.0000000 11.034000397 10.421999931 3.0000000000 15.000000000 385.00000000 1.0000000000
 1635.1250000 11.067000389 10.640000343 3.0000000000 15.000000000 385.00000000 1.0000000000
 1635.2500000 11.152000427 10.859000206 3.0000000000 15.000000000 385.00000000 1.0000000000
 1635.3750000 11.258000374 10.980999947  -999.250000 0.1000000015 0.1000000015 0.0000000000
 1635.5000000 11.364999771 11.161999702  -999.250000 0.1000000015 0.1000000015 0.0000000000
 1635.6250000 11.626999855 11.319999695  -999.250000 0.1000000015 0.1000000015 0.0000000000
 1635.7500000 11.697999954 11.468999863  -999.250000 0.1000000015 0.1000000015 0.0000000000
 1635.8750000 11.706000328 11.586999893  -999.250000 0.1000000015 0.1000000015 0.0000000000
 1636.0000000 11.609999657 11.704000473  -999.250000 0.1000000015 0.1000000015 0.0000000000
 1636.1250000 11.414999962 11.850000381  -999.250000 0.1000000015 0.1000000015 0.0000000000
 1636.2500000 11.125000000 11.965000153  -999.250000 0.1000000015 0.1000000015 0.0000000000
 1636.3750000 10.812000275 12.095999718  -999.250000 0.1000000015 0.1000000015 0.0000000000
 1636.5000000 10.498000145 12.234000206  -999.250000 0.1000000015 0.1000000015 0.0000000000
 1636.6250000 9.9610004425 12.378000259 3.0000000000 10.000000000 21.000000000 1.0000000000
 1636.7500000 9.5069999695 12.475000381 3.0000000000 10.000000000 21.000000000 1.0000000000
 1636.8750000 9.0950002670 12.531999588 3.0000000000 10.000000000 21.000000000 1.0000000000
 1637.0000000 8.7309999466 12.645000458 3.0000000000 10.000000000 21.000000000 1.0000000000
 1637.1250000 8.4659996033 12.661000252 3.0000000000 10.000000000 21.000000000 1.0000000000
 1637.2500000 8.2370004654 12.689000130 3.0000000000 10.000000000 21.000000000 1.0000000000
 1637.3750000 7.9889998436 12.717000008 3.0000000000 10.000000000 21.000000000 1.0000000000
 1637.5000000 7.7319998741 12.723999977 3.0000000000 10.000000000 21.000000000 1.0000000000
 1637.6250000 7.5920000076 12.725000381 3.0000000000 10.000000000 21.000000000 1.0000000000
 1637.7500000 7.4130001068 12.703000069 3.0000000000 10.000000000 21.000000000 1.0000000000
 1637.8750000 7.2810001373 12.680000305 3.0000000000 10.000000000 21.000000000 1.0000000000
 1638.0000000 7.1030001640 12.657999992 3.0000000000 10.000000000 21.000000000 1.0000000000
 1638.1250000 6.9970002174 12.604000092 3.0000000000 10.000000000 21.000000000 1.0000000000
 1638.2500000 6.8909997940 12.550000191 3.0000000000 10.000000000 21.000000000 1.0000000000
 1638.3750000 6.7630000114 12.496000290 3.0000000000 10.000000000 21.000000000 1.0000000000
 1638.5000000 6.7039999962 12.383999825 3.0000000000 10.000000000 21.000000000 1.0000000000
 1638.6250000 6.7160000801 12.189999580 3.0000000000 10.000000000 21.000000000 1.0000000000
 1638.7500000 6.8819999695 11.883999825 3.0000000000 10.000000000 21.000000000 1.0000000000
 1638.8750000 7.0910000801 11.487999916 3.0000000000 10.000000000 21.000000000 1.0000000000
 1639.0000000 7.2800002098 11.104999542 3.0000000000 10.000000000 21.000000000 1.0000000000
 1639.1250000 7.5970001221 10.621999741 3.0000000000 10.000000000 21.000000000 1.0000000000
 1639.2500000 7.8099999428 10.026000023 3.0000000000 10.000000000 21.000000000 1.0000000000
 1639.3750000 7.9650001526 9.1260004044 3.0000000000 10.000000000 21.000000000 1.0000000000
 1639.5000000 8.0769996643 8.4469995499 3.0000000000 10.000000000 21.000000000 1.0000000000
 1639.6250000 8.0699996948 8.1529998779 3.0000000000 10.000000000 21.000000000 1.0000000000
 1639.7500000 7.9819998741 7.9840002060 3.0000000000 10.000000000 21.000000000 1.0000000000
 1639.8750000 7.8090000153 7.8590002060 3.0000000000 10.000000000 21.000000000 1.0000000000
 1640.0000000 7.6240000725 7.7589998245 3.0000000000 10.000000000 21.000000000 1.0000000000
 1640.1250000 7.4770002365 7.7699999809  -999.250000 0.1000000015 0.1000000015 0.0000000000
 1640.2500000 7.4050002098 7.7729997635  -999.250000 0.1000000015 0.1000000015 0.0000000000
 1640.3750000 7.3489999771 7.7709999084  -999.250000 0.1000000015 0.1000000015 0.0000000000
 1640.5000000 7.3179998398 7.7690000534  -999.250000 0.1000000015 0.1000000015 0.0000000000
 1640.6250000 7.3010001183 7.7659997940  -999.250000 0.1000000015 0.1000000015 0.0000000000
 1640.7500000 7.2940001488 7.8200001717  -999.250000 0.1000000015 0.1000000015 0.0000000000
 1640.8750000 7.2899999619 7.9140000343  -999.250000 0.1000000015 0.1000000015 0.0000000000
 1641.0000000 7.5869998932 8.0450000763  -999.250000 0.1000000015 0.1000000015 0.0000000000
 1641.1250000 7.8460001945 8.1909999847  -999.250000 0.1000000015 0.1000000015 0.0000000000
 1641.2500000 8.0579996109 8.4250001907  -999.250000 0.1000000015 0.1000000015 0.0000000000
 1641.3750000 8.3520002365 8.6590003967  -999.250000 0.1000000015 0.1000000015 0.0000000000
 1641.5000000 8.8929996490 9.0810003281  -999.250000 0.1000000015 0.1000000015 0.0000000000
 1641.6250000 9.2609996796 9.9739999771  -999.250000 0.1000000015 0.1000000015 0.0000000000
 1641.7500000 9.6599998474 10.725000381  -999.250000 0.1000000015 0.1000000015 0.0000000000
 1641.8750000 10.065999985 11.369000435  -999.250000 0.1000000015 0.1000000015 0.0000000000
 1642.0000000 10.385000229 11.923999786  -999.250000 0.1000000015 0.1000000015 0.0000000000
 1642.1250000 10.626000404 12.746999741  -999.250000 0.1000000015 0.1000000015 0.0000000000
 1642.2500000 10.447999954 14.812999725  -999.250000 0.1000000015 0.1000000015 0.0000000000
 1642.3750000 9.3070001602 16.878999710  -999.250000 0.1000000015 0.1000000015 0.0000000000
 1642.5000000 8.5220003128 18.514999390  -999.250000 0.1000000015 0.1000000015 0.0000000000
 1642.6250000 7.9739999771 20.584999084  -999.250000 0.1000000015 0.1000000015 0.0000000000
 1642.7500000 7.5180001259 21.106000900  -999.250000 0.1000000015 0.1000000015 0.0000000000
 1642.8750000 7.1490001678 21.628000259  -999.250000 0.1000000015 0.1000000015 0.0000000000
 1643.0000000 6.5260000229 22.181999207  -999.250000 0.1000000015 0.1000000015 0.0000000000
 1643.1250000 5.7740001678 22.801000595  -999.250000 0.1000000015 0.1000000015 0.0000000000
 1643.2500000 5.0159997940 23.586999893  -999.250000 0.1000000015 0.1000000015 0.0000000000
 1643.3750000 4.6129999161 24.357999802  -999.250000 0.1000000015 0.1000000015 0.0000000000
 1643.5000000 4.2140002251 25.222999573  -999.250000 0.1000000015 0.1000000015 0.0000000000
 1643.6250000 3.8680000305 25.761999130  -999.250000 0.1000000015 0.1000000015 0.0000000000
 1643.7500000 3.6400001049 26.187999725  -999.250000 0.1000000015 0.1000000015 0.0000000000
 1643.8750000 3.4309999943 26.580999374  -999.250000 0.1000000015 0.1000000015 0.0000000000
 1644.0000000 3.2320001125 26.955999374  -999.250000 0.1000000015 0.1000000015 0.0000000000
 1644.1250000 3.2390000820 27.184000015  -999.250000 0.1000000015 0.1000000015 0.0000000000
 1644.2500000 3.2730000019 27.297000885  -999.250000 0.1000000015 0.1000000015 0.0000000000
 1644.3750000 3.2829999924 27.350000381  -999.250000 0.1000000015 0.1000000015 0.0000000000
 1644.5000000 3.2869999409 27.363000870  -999.250000 0.1000000015 0.1000000015 0.0000000000
 1644.6250000 3.2869999409 27.361999512  -999.250000 0.1000000015 0.1000000015 0.0000000000
 1644.7500000 3.2460000515 27.358999252  -999.250000 0.1000000015 0.1000000015 0.0000000000
 1644.8750000 3.2369999886 27.356000900  -999.250000 0.1000000015 0.1000000015 0.0000000000
 1645.0000000 3.1919999123 27.354000092  -999.250000 0.1000000015 0.1000000015 0.0000000000
 1645.1250000 3.0850000381 27.350999832  -999.250000 0.1000000015 0.1000000015 0.0000000000
 1645.2500000 2.8629999161 27.347999573  -999.250000 0.1000000015 0.1000000015 0.0000000000
 1645.3750000 2.7639999390 27.284000397  -999.250000 0.1000000015 0.1000000015 0.0000000000
 1645.5000000 2.7349998951 27.242000580  -999.250000 0.1000000015 0.1000000015 0.0000000000
 1645.6250000 2.7209999561 27.225999832  -999.250000 0.1000000015 0.1000000015 0.0000000000
