# LAS format log file from PETREL
# Project units are specified as depth units
#==================================================================
~Version information
VERS.   2.0:
WRAP.   NO:
#==================================================================
~Well
STRT .m      1338.0000000 :
STOP .m      1710.0000000 :
STEP .m     0.12500000 :
NULL .        -999.250000 :
COMP.           : COMPANY
WELL.  5-0162C2   : WELL
FLD.            : FIELD
LOC.            : LOCATION
SRVC.           : SERVICE COMPANY
DATE.  2020-03-08 09:25:09   : Log Export Date {yyyy-MM-dd HH:mm:ss}
PROV.           : PROVINCE
UWI.      : UNIQUE WELL ID
API.            : API NUMBER
#==================================================================
~Curve
DEPT .m                   : DEPTH
RT .ohm.m                 : RT
SP .                      : SP
Fluids .                  : Fluids
POR .m3/m3                : POR
PERM .mD                  : PERM
Lith .                    : Lith
~Parameter
#==================================================================
~Ascii
# ...
 1588.1250000 2.9000000954 -38.58000183  -999.250000 0.1000000015 0.1000000015 0.0000000000
 1588.2500000 2.9100000858 -38.70999908  -999.250000 0.1000000015 0.1000000015 0.0000000000
 1588.3750000 2.8399999142 -38.81999969  -999.250000 0.1000000015 0.1000000015 0.0000000000
 1588.5000000 2.7999999523 -38.90000153  -999.250000 0.1000000015 0.1000000015 0.0000000000
 1588.6250000 2.9100000858 -38.91999817  -999.250000 0.1000000015 0.1000000015 0.0000000000
 1588.7500000 3.1199998856 -38.88000107  -999.250000 0.1000000015 0.1000000015 0.0000000000
 1588.8750000 3.3299999237 -38.77000046  -999.250000 0.1000000015 0.1000000015 0.0000000000
 1589.0000000 3.4500000477 -38.59999847  -999.250000 0.1000000015 0.1000000015 0.0000000000
 1589.1250000 3.4600000381 -38.36999893  -999.250000 0.1000000015 0.1000000015 0.0000000000
 1589.2500000 3.3299999237 -38.09000015  -999.250000 0.1000000015 0.1000000015 0.0000000000
 1589.3750000 3.0599999428 -37.81000137  -999.250000 0.1000000015 0.1000000015 0.0000000000
 1589.5000000 2.7400000095 -37.52000046  -999.250000 0.1000000015 0.1000000015 0.0000000000
 1589.6250000 2.4500000477 -37.22000122  -999.250000 0.1000000015 0.1000000015 0.0000000000
 1589.7500000 2.2799999714 -36.91999817  -999.250000 0.1000000015 0.1000000015 0.0000000000
 1589.8750000 2.2200000286 -36.65000153  -999.250000 0.1000000015 0.1000000015 0.0000000000
 1590.0000000 2.2300000191 -36.43999863  -999.250000 0.1000000015 0.1000000015 0.0000000000
 1590.1250000 2.2899999619 -36.27999878  -999.250000 0.1000000015 0.1000000015 0.0000000000
 1590.2500000 2.4000000954 -36.15000153  -999.250000 0.1000000015 0.1000000015 0.0000000000
 1590.3750000 2.4800000191 -36.06999969  -999.250000 0.1000000015 0.1000000015 0.0000000000
 1590.5000000 2.5199999809 -36.06000137  -999.250000 0.1000000015 0.1000000015 0.0000000000
 1590.6250000 2.4900000095 -36.11000061  -999.250000 0.1000000015 0.1000000015 0.0000000000
 1590.7500000 2.4400000572 -36.20999908  -999.250000 0.1000000015 0.1000000015 0.0000000000
 1590.8750000 2.3800001144 -36.33000183  -999.250000 0.1000000015 0.1000000015 0.0000000000
 1591.0000000 2.3299999237 -36.43999863  -999.250000 0.1000000015 0.1000000015 0.0000000000
 1591.1250000 2.3099999428 -36.52999878  -999.250000 0.1000000015 0.1000000015 0.0000000000
 1591.2500000 2.3099999428 -36.61999893  -999.250000 0.1000000015 0.1000000015 0.0000000000
 1591.3750000 2.2999999523 -36.68000031  -999.250000 0.1000000015 0.1000000015 0.0000000000
 1591.5000000 2.2899999619 -36.70999908  -999.250000 0.1000000015 0.1000000015 0.0000000000
 1591.6250000 2.2999999523 -36.74000168  -999.250000 0.1000000015 0.1000000015 0.0000000000
 1591.7500000 2.3299999237 -36.72999954  -999.250000 0.1000000015 0.1000000015 0.0000000000
 1591.8750000 2.4000000954 -36.72000122  -999.250000 0.1000000015 0.1000000015 0.0000000000
 1592.0000000 2.4900000095 -36.70000076  -999.250000 0.1000000015 0.1000000015 0.0000000000
 1592.1250000 2.6099998951 -36.68999863  -999.250000 0.1000000015 0.1000000015 0.0000000000
 1592.2500000 2.6900000572 -36.70000076  -999.250000 0.1000000015 0.1000000015 0.0000000000
 1592.3750000 2.7100000381 -36.70999908  -999.250000 0.1000000015 0.1000000015 0.0000000000
 1592.5000000 2.6800000668 -36.70000076  -999.250000 0.1000000015 0.1000000015 0.0000000000
 1592.6250000 2.6099998951 -36.70000076  -999.250000 0.1000000015 0.1000000015 0.0000000000
 1592.7500000 2.5099999905 -36.68999863  -999.250000 0.1000000015 0.1000000015 0.0000000000
 1592.8750000 2.4300000668 -36.65000153  -999.250000 0.1000000015 0.1000000015 0.0000000000
 1593.0000000 2.4300000668 -36.59000015  -999.250000 0.1000000015 0.1000000015 0.0000000000
 1593.1250000 2.5000000000 -36.52000046  -999.250000 0.1000000015 0.1000000015 0.0000000000
 1593.2500000 2.5699999332 -36.45000076  -999.250000 0.1000000015 0.1000000015 0.0000000000
 1593.3750000 2.5899999142 -36.41999817  -999.250000 0.1000000015 0.1000000015 0.0000000000
 1593.5000000 2.5499999523 -36.41999817  -999.250000 0.1000000015 0.1000000015 0.0000000000
 1593.6250000 2.5000000000 -36.45000076  -999.250000 0.1000000015 0.1000000015 0.0000000000
 1593.7500000 2.4600000381 -36.50000000  -999.250000 0.1000000015 0.1000000015 0.0000000000
 1593.8750000 2.4900000095 -36.58000183  -999.250000 0.1000000015 0.1000000015 0.0000000000
 1594.0000000 2.5599999428 -36.65999985  -999.250000 0.1000000015 0.1000000015 0.0000000000
 1594.1250000 2.6199998856 -36.72999954  -999.250000 0.1000000015 0.1000000015 0.0000000000
 1594.2500000 2.6400001049 -36.75999832  -999.250000 0.1000000015 0.1000000015 0.0000000000
 1594.3750000 2.6300001144 -36.75999832  -999.250000 0.1000000015 0.1000000015 0.0000000000
 1594.5000000 2.5999999046 -36.75000000  -999.250000 0.1000000015 0.1000000015 0.0000000000
 1594.6250000 2.5599999428 -36.72999954  -999.250000 0.1000000015 0.1000000015 0.0000000000
 1594.7500000 2.5000000000 -36.74000168  -999.250000 0.1000000015 0.1000000015 0.0000000000
 1594.8750000 2.4500000477 -36.75999832  -999.250000 0.1000000015 0.1000000015 0.0000000000
 1595.0000000 2.4300000668 -36.81000137  -999.250000 0.1000000015 0.1000000015 0.0000000000
 1595.1250000 2.4600000381 -36.88000107  -999.250000 0.1000000015 0.1000000015 0.0000000000
 1595.2500000 2.5199999809 -36.95999908  -999.250000 0.1000000015 0.1000000015 0.0000000000
 1595.3750000 2.5699999332 -37.06000137  -999.250000 0.1000000015 0.1000000015 0.0000000000
 1595.5000000 2.5799999237 -37.15000153  -999.250000 0.1000000015 0.1000000015 0.0000000000
 1595.6250000 2.5499999523 -37.24000168  -999.250000 0.1000000015 0.1000000015 0.0000000000
 1595.7500000 2.5099999905 -37.31000137  -999.250000 0.1000000015 0.1000000015 0.0000000000
 1595.8750000 2.4500000477 -37.36999893  -999.250000 0.1000000015 0.1000000015 0.0000000000
 1596.0000000 2.4200000763 -37.41999817  -999.250000 0.1000000015 0.1000000015 0.0000000000
 1596.1250000 2.4600000381 -37.43999863  -999.250000 0.1000000015 0.1000000015 0.0000000000
 1596.2500000 2.5199999809 -37.43999863  -999.250000 0.1000000015 0.1000000015 0.0000000000
 1596.3750000 2.5199999809 -37.38000107  -999.250000 0.1000000015 0.1000000015 0.0000000000
 1596.5000000 2.4500000477 -37.29000092  -999.250000 0.1000000015 0.1000000015 0.0000000000
 1596.6250000 2.3499999046 -37.15000153  -999.250000 0.1000000015 0.1000000015 0.0000000000
 1596.7500000 2.2300000191 -36.95000076  -999.250000 0.1000000015 0.1000000015 0.0000000000
 1596.8750000 2.1199998856 -36.70000076  -999.250000 0.1000000015 0.1000000015 0.0000000000
 1597.0000000 2.0699999332 -36.43000031  -999.250000 0.1000000015 0.1000000015 0.0000000000
 1597.1250000 2.1099998951 -36.13000107  -999.250000 0.1000000015 0.1000000015 0.0000000000
 1597.2500000 2.2300000191 -35.84000015  -999.250000 0.1000000015 0.1000000015 0.0000000000
 1597.3750000 2.4000000954 -35.56999969  -999.250000 0.1000000015 0.1000000015 0.0000000000
 1597.5000000 2.5899999142 -35.33000183  -999.250000 0.1000000015 0.1000000015 0.0000000000
 1597.6250000 2.7400000095 -35.13999939  -999.250000 0.1000000015 0.1000000015 0.0000000000
 1597.7500000 2.8299999237 -35.02000046  -999.250000 0.1000000015 0.1000000015 0.0000000000
 1597.8750000 2.8299999237 -34.95999908  -999.250000 0.1000000015 0.1000000015 0.0000000000
 1598.0000000 2.7500000000 -34.95000076  -999.250000 0.1000000015 0.1000000015 0.0000000000
 1598.1250000 2.6300001144 -34.97999954  -999.250000 0.1000000015 0.1000000015 0.0000000000
 1598.2500000 2.5299999714 -35.04000092  -999.250000 0.1000000015 0.1000000015 0.0000000000
 1598.3750000 2.4500000477 -35.13000107  -999.250000 0.1000000015 0.1000000015 0.0000000000
 1598.5000000 2.3699998856 -35.22999954  -999.250000 0.1000000015 0.1000000015 0.0000000000
 1598.6250000 2.3299999237 -35.34000015  -999.250000 0.1000000015 0.1000000015 0.0000000000
 1598.7500000 2.3699998856 -35.45000076  -999.250000 0.1000000015 0.1000000015 0.0000000000
 1598.8750000 2.5099999905 -35.59000015  -999.250000 0.1000000015 0.1000000015 0.0000000000
