# LAS format log file from PETREL
# Project units are specified as depth units
#==================================================================
~Version information
VERS.   2.0:
WRAP.   NO:
#==================================================================
~Well
STRT .m      1350.0000000 :
STOP .m      1755.0000000 :
STEP .m     0.12500000 :
NULL .        -999.250000 :
COMP.           : COMPANY
WELL.  5-0165C2   : WELL
FLD.            : FIELD
LOC.            : LOCATION
SRVC.           : SERVICE COMPANY
DATE.  2020-03-08 09:25:09   : Log Export Date {yyyy-MM-dd HH:mm:ss}
PROV.           : PROVINCE
UWI.      : UNIQUE WELL ID
API.            : API NUMBER
#==================================================================
~Curve
DEPT .m                   : DEPTH
RT .ohm.m                 : RT
SP .                      : SP
Fluids .                  : Fluids
POR .m3/m3                : POR
PERM .mD                  : PERM
Lith .                    : Lith
~Parameter
#==================================================================
~Ascii
# ...
 1698.0000000 33.326999664 6.2059998512 4.0000000000 22.000000000 2283.0000000 1.0000000000
 1698.1250000 32.846000671 6.4099998474 4.0000000000 22.000000000 2283.0000000 1.0000000000
 1698.2500000 35.381999969 6.6020002365 4.0000000000 22.000000000 2283.0000000 1.0000000000
 1698.3750000 36.472000122 6.8439998627 4.0000000000 22.000000000 2283.0000000 1.0000000000
 1698.5000000 36.866001129 7.0219998360 4.0000000000 22.000000000 2283.0000000 1.0000000000
 1698.6250000 37.259998322 7.2090001106 4.0000000000 22.000000000 2283.0000000 1.0000000000
 1698.7500000 36.844001770 7.2779998779 4.0000000000 22.000000000 2283.0000000 1.0000000000
 1698.8750000 36.560001373 7.2969999313 4.0000000000 22.000000000 2283.0000000 1.0000000000
 1699.0000000 35.803001404 7.2989997864 4.0000000000 22.000000000 2283.0000000 1.0000000000
 1699.1250000 34.245998383 7.1979999542 4.0000000000 22.000000000 2283.0000000 1.0000000000
 1699.2500000 31.805000305 7.0199999809 4.0000000000 22.000000000 2283.0000000 1.0000000000
 1699.3750000 29.881999969 6.7709999084 4.0000000000 22.000000000 2283.0000000 1.0000000000
 1699.5000000 28.586000443 6.4320001602 4.0000000000 22.000000000 2283.0000000 1.0000000000
 1699.6250000 27.298999786 6.0180001259 4.0000000000 22.000000000 2283.0000000 1.0000000000
 1699.7500000 21.915000916 5.3540000916 4.0000000000 22.000000000 2283.0000000 1.0000000000
 1699.8750000 20.728000641 4.6090002060 4.0000000000 22.000000000 2283.0000000 1.0000000000
 1700.0000000 19.985000610 3.8190000057 4.0000000000 22.000000000 2283.0000000 1.0000000000
 1700.1250000 19.562999725 3.1860001087 4.0000000000 22.000000000 2283.0000000 1.0000000000
 1700.2500000 23.440999985 2.4059998989 4.0000000000 22.000000000 2283.0000000 1.0000000000
 1700.3750000 33.033000946 1.6890000105 4.0000000000 22.000000000 2283.0000000 1.0000000000
 1700.5000000 36.138000488 0.9729999900 4.0000000000 22.000000000 2283.0000000 1.0000000000
 1700.6250000 37.294998169 0.7340000272 4.0000000000 22.000000000 2283.0000000 1.0000000000
 1700.7500000 37.556999207 1.2150000334 4.0000000000 22.000000000 2283.0000000 1.0000000000
 1700.8750000 37.173000336 3.9210000038 4.0000000000 22.000000000 2283.0000000 1.0000000000
 1701.0000000 36.020999908 7.0520000458 4.0000000000 22.000000000 2283.0000000 1.0000000000
 1701.1250000 34.532001495 6.7270002365 4.0000000000 22.000000000 2283.0000000 1.0000000000
 1701.2500000 34.034000397 6.3319997787 4.0000000000 22.000000000 2283.0000000 1.0000000000
 1701.3750000 33.535999298 5.9860000610 4.0000000000 22.000000000 2283.0000000 1.0000000000
 1701.5000000 36.051998138 5.6770000458 4.0000000000 22.000000000 2283.0000000 1.0000000000
 1701.6250000 37.731998444 5.4580001831 4.0000000000 22.000000000 2283.0000000 1.0000000000
 1701.7500000 38.624000549 5.3200001717 4.0000000000 22.000000000 2283.0000000 1.0000000000
 1701.8750000 38.766998291 5.1820001602 4.0000000000 22.000000000 2283.0000000 1.0000000000
 1702.0000000 38.909999847 5.0440001488 4.0000000000 22.000000000 2283.0000000 1.0000000000
 1702.1250000 38.445999146 4.9390001297 4.0000000000 22.000000000 2283.0000000 1.0000000000
 1702.2500000 37.911998749 4.8420000076 4.0000000000 22.000000000 2283.0000000 1.0000000000
 1702.3750000 37.409000397 4.7899999619 4.0000000000 22.000000000 2283.0000000 1.0000000000
 1702.5000000 36.841999054 4.7719998360 4.0000000000 22.000000000 2283.0000000 1.0000000000
 1702.6250000 36.446998596 4.8260002136 4.0000000000 22.000000000 2283.0000000 1.0000000000
 1702.7500000 35.883998871 4.8530001640 4.0000000000 22.000000000 2283.0000000 1.0000000000
 1702.8750000 35.035999298 4.9260001183 4.0000000000 22.000000000 2283.0000000 1.0000000000
 1703.0000000 37.153999329 5.0339999199 4.0000000000 22.000000000 2283.0000000 1.0000000000
 1703.1250000 38.087001801 5.2430000305 4.0000000000 22.000000000 2283.0000000 1.0000000000
 1703.2500000 38.742000580 5.5009999275 4.0000000000 22.000000000 2283.0000000 1.0000000000
 1703.3750000 39.199001312 5.6989998817 4.0000000000 22.000000000 2283.0000000 1.0000000000
 1703.5000000 39.599998474 5.8590002060 4.0000000000 22.000000000 2283.0000000 1.0000000000
 1703.6250000 39.863998413 6.0050001144 4.0000000000 22.000000000 2283.0000000 1.0000000000
 1703.7500000 39.819999695 6.2309999466 4.0000000000 22.000000000 2283.0000000 1.0000000000
 1703.8750000 39.776000977 6.4569997787 4.0000000000 22.000000000 2283.0000000 1.0000000000
 1704.0000000 39.179000854 6.6830000877 4.0000000000 22.000000000 2283.0000000 1.0000000000
 1704.1250000 38.581001282 6.9089999199 4.0000000000 22.000000000 2283.0000000 1.0000000000
 1704.2500000 37.870998383 7.0789999962 4.0000000000 22.000000000 2283.0000000 1.0000000000
 1704.3750000 35.632999420 7.2500000000 4.0000000000 22.000000000 2283.0000000 1.0000000000
 1704.5000000 33.967998505 7.4190001488 4.0000000000 22.000000000 2283.0000000 1.0000000000
 1704.6250000 29.311000824 7.5890002251 4.0000000000 22.000000000 2283.0000000 1.0000000000
 1704.7500000 28.020000458 7.8689999580 4.0000000000 22.000000000 2283.0000000 1.0000000000
 1704.8750000 27.504999161 8.0900001526 4.0000000000 22.000000000 2283.0000000 1.0000000000
 1705.0000000 27.451999664 8.2720003128 4.0000000000 22.000000000 2283.0000000 1.0000000000
 1705.1250000 27.614000320 8.3540000916 4.0000000000 22.000000000 2283.0000000 1.0000000000
 1705.2500000 28.090000153 8.4449996948 4.0000000000 22.000000000 2283.0000000 1.0000000000
 1705.3750000 28.577999115 8.5640001297 4.0000000000 22.000000000 2283.0000000 1.0000000000
 1705.5000000 25.375000000 8.6090002060 4.0000000000 22.000000000 2283.0000000 1.0000000000
 1705.6250000 24.267000198 8.2069997787 4.0000000000 22.000000000 2283.0000000 1.0000000000
 1705.7500000 23.527999878 7.8730001450 4.0000000000 22.000000000 2283.0000000 1.0000000000
 1705.8750000 22.945999146 7.5380001068 4.0000000000 22.000000000 2283.0000000 1.0000000000
 1706.0000000 22.476999283 7.3870000839 4.0000000000 22.000000000 2283.0000000 1.0000000000
 1706.1250000 22.285999298 7.2729997635 4.0000000000 22.000000000 2283.0000000 1.0000000000
 1706.2500000 22.093999863 7.1479997635 4.0000000000 22.000000000 2283.0000000 1.0000000000
 1706.3750000 23.763000488 7.0159997940 4.0000000000 22.000000000 2283.0000000 1.0000000000
 1706.5000000 25.697999954 6.8810000420 4.0000000000 22.000000000 2283.0000000 1.0000000000
 1706.6250000 28.197999954 6.7789998055 4.0000000000 22.000000000 2283.0000000 1.0000000000
 1706.7500000 28.950000763 6.6570000648 4.0000000000 22.000000000 2283.0000000 1.0000000000
 1706.8750000 29.839000702 6.5240001678 4.0000000000 22.000000000 2283.0000000 1.0000000000
 1707.0000000 30.606000900 6.5060000420 4.0000000000 22.000000000 2283.0000000 1.0000000000
 1707.1250000 31.538999557 6.5009999275 4.0000000000 22.000000000 2283.0000000 1.0000000000
 1707.2500000 32.936000824 6.6119999886 4.0000000000 22.000000000 2283.0000000 1.0000000000
 1707.3750000 34.144001007 6.7069997787 4.0000000000 22.000000000 2283.0000000 1.0000000000
 1707.5000000 35.426998138 6.9479999542 4.0000000000 22.000000000 2283.0000000 1.0000000000
 1707.6250000 37.973999023 7.0219998360 4.0000000000 22.000000000 2283.0000000 1.0000000000
 1707.7500000 38.886001587 7.1719999313 4.0000000000 22.000000000 2283.0000000 1.0000000000
 1707.8750000 38.978000641 7.3169999123 4.0000000000 22.000000000 2283.0000000 1.0000000000
 1708.0000000 38.773998260 7.3829998970 4.0000000000 22.000000000 2283.0000000 1.0000000000
 1708.1250000 38.166999817 7.5380001068 4.0000000000 22.000000000 2283.0000000 1.0000000000
 1708.2500000 37.563999176 7.6849999428 4.0000000000 22.000000000 2283.0000000 1.0000000000
 1708.3750000 36.998001099 7.7950000763 4.0000000000 22.000000000 2283.0000000 1.0000000000
 1708.5000000 36.210998535 7.9980001450 4.0000000000 22.000000000 2283.0000000 1.0000000000
 1708.6250000 33.299999237 8.1630001068 4.0000000000 22.000000000 2283.0000000 1.0000000000
 1708.7500000 32.076999664 8.3109998703 4.0000000000 22.000000000 2283.0000000 1.0000000000
