# LAS format log file from PETREL
# Project units are specified as depth units
#==================================================================
~Version information
VERS.   2.0:
WRAP.   NO:
#==================================================================
~Well
STRT .m      1480.0000000 :
STOP .m      1820.0000000 :
STEP .m     0.12500000 :
NULL .        -999.250000 :
COMP.           : COMPANY
WELL.  5-0165   : WELL
FLD.            : FIELD
LOC.            : LOCATION
SRVC.           : SERVICE COMPANY
DATE.  2020-03-08 09:25:09   : Log Export Date {yyyy-MM-dd HH:mm:ss}
PROV.           : PROVINCE
UWI.      : UNIQUE WELL ID
API.            : API NUMBER
#==================================================================
~Curve
DEPT .m                   : DEPTH
RT .ohm.m                 : RT
SP .                      : SP
Fluids .                  : Fluids
POR .m3/m3                : POR
PERM .mD                  : PERM
Lith .                    : Lith
~Parameter
#==================================================================
~Ascii
# ...
 1675.7500000 9.1120004654 44.051998138 4.0000000000 21.000000000 1887.0000000 1.0000000000
 1675.8750000 8.6379995346 44.051998138 4.0000000000 21.000000000 1887.0000000 1.0000000000
 1676.0000000 7.8759999275 44.042999268 4.0000000000 21.000000000 1887.0000000 1.0000000000
 1676.1250000 7.1760001183 44.026000977 4.0000000000 21.000000000 1887.0000000 1.0000000000
 1676.2500000 6.2150001526 44.000000000 4.0000000000 21.000000000 1887.0000000 1.0000000000
 1676.3750000 5.4289999008 43.965000153 4.0000000000 21.000000000 1887.0000000 1.0000000000
 1676.5000000 4.7729997635 43.928001404 4.0000000000 21.000000000 1887.0000000 1.0000000000
 1676.6250000 4.6929998398 43.894001007 4.0000000000 21.000000000 1887.0000000 1.0000000000
 1676.7500000 4.5120000839 43.869998932 4.0000000000 21.000000000 1887.0000000 1.0000000000
 1676.8750000 4.4549999237 43.861000061 4.0000000000 21.000000000 1887.0000000 1.0000000000
 1677.0000000 4.9990000725 43.867000580 4.0000000000 21.000000000 1887.0000000 1.0000000000
 1677.1250000 5.5460000038 43.886001587 4.0000000000 21.000000000 1887.0000000 1.0000000000
 1677.2500000 5.7969999313 43.915000916 4.0000000000 21.000000000 1887.0000000 1.0000000000
 1677.3750000 6.0549998283 43.950000763 4.0000000000 21.000000000 1887.0000000 1.0000000000
 1677.5000000 6.3010001183 43.992000580 4.0000000000 21.000000000 1887.0000000 1.0000000000
 1677.6250000 6.4720001221 44.037998199 4.0000000000 21.000000000 1887.0000000 1.0000000000
 1677.7500000 6.6009998322 44.087001801 4.0000000000 21.000000000 1887.0000000 1.0000000000
 1677.8750000 6.4699997902 44.138999939 4.0000000000 21.000000000 1887.0000000 1.0000000000
 1678.0000000 6.3499999046 44.193000793 4.0000000000 21.000000000 1887.0000000 1.0000000000
 1678.1250000 6.0650000572 44.244998932 4.0000000000 21.000000000 1887.0000000 1.0000000000
 1678.2500000 5.2290000916 44.291000366 4.0000000000 21.000000000 1887.0000000 1.0000000000
 1678.3750000 4.7839999199 44.332000732 4.0000000000 21.000000000 1887.0000000 1.0000000000
 1678.5000000 4.6840000153 44.368000031 4.0000000000 21.000000000 1887.0000000 1.0000000000
 1678.6250000 4.4549999237 44.398998260 4.0000000000 21.000000000 1887.0000000 1.0000000000
 1678.7500000 4.3000001907 44.425998688 4.0000000000 21.000000000 1887.0000000 1.0000000000
 1678.8750000 4.0180001259 44.450000763 4.0000000000 21.000000000 1887.0000000 1.0000000000
 1679.0000000 3.7379999161 44.465000153 4.0000000000 21.000000000 1887.0000000 1.0000000000
 1679.1250000 3.8789999485 44.467998505 4.0000000000 21.000000000 1887.0000000 1.0000000000
 1679.2500000 4.4320001602 44.458000183 4.0000000000 21.000000000 1887.0000000 1.0000000000
 1679.3750000 4.9710001945 44.436000824 4.0000000000 21.000000000 1887.0000000 1.0000000000
 1679.5000000 5.4879999161 44.408000946 4.0000000000 21.000000000 1887.0000000 1.0000000000
 1679.6250000 5.8169999123 44.379001617 4.0000000000 21.000000000 1887.0000000 1.0000000000
 1679.7500000 5.8969998360 44.353000641 4.0000000000 21.000000000 1887.0000000 1.0000000000
 1679.8750000 5.7899999619 44.327999115 4.0000000000 21.000000000 1887.0000000 1.0000000000
 1680.0000000 5.6560001373 44.304000854 4.0000000000 21.000000000 1887.0000000 1.0000000000
 1680.1250000 5.7589998245 44.280998230 4.0000000000 21.000000000 1887.0000000 1.0000000000
 1680.2500000 5.8670001030 44.256000519 4.0000000000 21.000000000 1887.0000000 1.0000000000
 1680.3750000 5.9439997673 44.231998444 4.0000000000 21.000000000 1887.0000000 1.0000000000
 1680.5000000 5.9699997902 44.208999634 4.0000000000 21.000000000 1887.0000000 1.0000000000
 1680.6250000 5.8800001144 44.183998108 4.0000000000 21.000000000 1887.0000000 1.0000000000
 1680.7500000 5.7249999046 44.152999878 4.0000000000 21.000000000 1887.0000000 1.0000000000
 1680.8750000 5.5040001869 44.112998962 4.0000000000 21.000000000 1887.0000000 1.0000000000
 1681.0000000 5.3550000191 44.061000824 4.0000000000 21.000000000 1887.0000000 1.0000000000
 1681.1250000 5.2729997635 43.992000580 4.0000000000 21.000000000 1887.0000000 1.0000000000
 1681.2500000 5.5949997902 43.903999329 4.0000000000 21.000000000 1887.0000000 1.0000000000
 1681.3750000 5.7490000725 43.798000336 4.0000000000 21.000000000 1887.0000000 1.0000000000
 1681.5000000 5.9739999771 43.678001404 4.0000000000 21.000000000 1887.0000000 1.0000000000
 1681.6250000 6.2090001106 43.547000885 4.0000000000 21.000000000 1887.0000000 1.0000000000
 1681.7500000 6.4349999428 43.410999298 4.0000000000 21.000000000 1887.0000000 1.0000000000
 1681.8750000 6.5479998589 43.272998810 4.0000000000 21.000000000 1887.0000000 1.0000000000
 1682.0000000 6.5850000381 43.137001038 4.0000000000 21.000000000 1887.0000000 1.0000000000
 1682.1250000 6.6490001678 43.002998352 4.0000000000 21.000000000 1887.0000000 1.0000000000
 1682.2500000 6.6579999924 42.875000000 4.0000000000 21.000000000 1887.0000000 1.0000000000
 1682.3750000 6.5510001183 42.754001617 4.0000000000 21.000000000 1887.0000000 1.0000000000
 1682.5000000 6.4250001907 42.645999908 4.0000000000 21.000000000 1887.0000000 1.0000000000
 1682.6250000 6.3350000381 42.548999786 4.0000000000 21.000000000 1887.0000000 1.0000000000
 1682.7500000 6.2319998741 42.465999603 4.0000000000 21.000000000 1887.0000000 1.0000000000
 1682.8750000 6.0659999847 42.390998840 4.0000000000 21.000000000 1887.0000000 1.0000000000
 1683.0000000 5.9159998894 42.323001862 4.0000000000 21.000000000 1887.0000000 1.0000000000
 1683.1250000 5.7740001678 42.258998871 4.0000000000 21.000000000 1887.0000000 1.0000000000
 1683.2500000 5.5700001717 42.198001862 4.0000000000 21.000000000 1887.0000000 1.0000000000
 1683.3750000 5.3410000801 42.138000488 4.0000000000 21.000000000 1887.0000000 1.0000000000
 1683.5000000 5.1710000038 42.076999664 4.0000000000 21.000000000 1887.0000000 1.0000000000
 1683.6250000 4.9879999161 42.013000488 4.0000000000 21.000000000 1887.0000000 1.0000000000
 1683.7500000 4.8920001984 41.949001312 4.0000000000 21.000000000 1887.0000000 1.0000000000
 1683.8750000 5.0450000763 41.886001587 4.0000000000 21.000000000 1887.0000000 1.0000000000
 1684.0000000 5.3350000381 41.827999115 4.0000000000 21.000000000 1887.0000000 1.0000000000
 1684.1250000 5.5430002213 41.776000977 4.0000000000 21.000000000 1887.0000000 1.0000000000
 1684.2500000 5.7179999352 41.729000092 4.0000000000 21.000000000 1887.0000000 1.0000000000
 1684.3750000 5.9099998474 41.683998108 4.0000000000 21.000000000 1887.0000000 1.0000000000
 1684.5000000 6.0510001183 41.637001038 4.0000000000 21.000000000 1887.0000000 1.0000000000
 1684.6250000 6.1510000229 41.589000702 4.0000000000 21.000000000 1887.0000000 1.0000000000
 1684.7500000 5.7560000420 41.541999817 4.0000000000 21.000000000 1887.0000000 1.0000000000
 1684.8750000 5.5269999504 41.499000549 4.0000000000 21.000000000 1887.0000000 1.0000000000
 1685.0000000 5.6459999084 41.460998535 4.0000000000 21.000000000 1887.0000000 1.0000000000
 1685.1250000 5.9270000458 41.430000305 4.0000000000 21.000000000 1887.0000000 1.0000000000
 1685.2500000 6.2849998474 41.402000427 4.0000000000 21.000000000 1887.0000000 1.0000000000
 1685.3750000 6.6510000229 41.377998352 4.0000000000 21.000000000 1887.0000000 1.0000000000
 1685.5000000 6.6929998398 41.356998444 4.0000000000 21.000000000 1887.0000000 1.0000000000
 1685.6250000 6.3870000839 41.338001251 4.0000000000 21.000000000 1887.0000000 1.0000000000
 1685.7500000 5.7800002098 41.317001343 4.0000000000 21.000000000 1887.0000000 1.0000000000
 1685.8750000 5.3449997902 41.292999268 4.0000000000 21.000000000 1887.0000000 1.0000000000
 1686.0000000 5.1960000992 41.265998840 4.0000000000 21.000000000 1887.0000000 1.0000000000
 1686.1250000 5.2039999962 41.235000610 4.0000000000 21.000000000 1887.0000000 1.0000000000
 1686.2500000 5.4070000648 41.201999664 4.0000000000 21.000000000 1887.0000000 1.0000000000
 1686.3750000 5.7309999466 41.173000336 4.0000000000 21.000000000 1887.0000000 1.0000000000
 1686.5000000 5.9460000992 41.152999878 4.0000000000 21.000000000 1887.0000000 1.0000000000
