# LAS format log file from PETREL
# Project units are specified as depth units
#==================================================================
~Version information
VERS.   2.0:
WRAP.   NO:
#==================================================================
~Well
STRT .m      725.00000000 :
STOP .m      1752.0000000 :
STEP .m     0.12500000 :
NULL .        -999.250000 :
COMP.           : COMPANY
WELL.  5-0166   : WELL
FLD.            : FIELD
LOC.            : LOCATION
SRVC.           : SERVICE COMPANY
DATE.  2020-03-08 09:25:09   : Log Export Date {yyyy-MM-dd HH:mm:ss}
PROV.           : PROVINCE
UWI.      : UNIQUE WELL ID
API.            : API NUMBER
#==================================================================
~Curve
DEPT .m                   : DEPTH
RT .ohm.m                 : RT
SP .                      : SP
Fluids .                  : Fluids
POR .m3/m3                : POR
PERM .mD                  : PERM
Lith .                    : Lith
~Parameter
#==================================================================
~Ascii
# ...
 1616.7500000 15.809000015 -9999.000000 2.0000000000 19.000000000 309.00000000 1.0000000000
 1616.8750000 16.188499451 -9999.000000 2.0000000000 19.000000000 309.00000000 1.0000000000
 1617.0000000 16.568000793 -9999.000000 2.0000000000 19.000000000 309.00000000 1.0000000000
 1617.1250000 18.657800674 -9999.000000 2.0000000000 19.000000000 309.00000000 1.0000000000
 1617.2500000 20.747499466 -9999.000000 2.0000000000 19.000000000 309.00000000 1.0000000000
 1617.3750000 22.837299347 -9999.000000 2.0000000000 19.000000000 309.00000000 1.0000000000
 1617.5000000 24.927000046 -9999.000000 2.0000000000 19.000000000 309.00000000 1.0000000000
 1617.6250000 23.355199814 -9999.000000 2.0000000000 19.000000000 309.00000000 1.0000000000
 1617.7500000 21.783500671 -9999.000000 2.0000000000 19.000000000 309.00000000 1.0000000000
 1617.8750000 20.211700439 -9999.000000 2.0000000000 19.000000000 309.00000000 1.0000000000
 1618.0000000 18.639999390 -9999.000000 2.0000000000 19.000000000 309.00000000 1.0000000000
 1618.1250000 19.447500229 -9999.000000 2.0000000000 19.000000000 309.00000000 1.0000000000
 1618.2500000 20.254999161 -9999.000000 2.0000000000 19.000000000 309.00000000 1.0000000000
 1618.3750000 21.062500000 -9999.000000 2.0000000000 19.000000000 309.00000000 1.0000000000
 1618.5000000 21.870000839 -9999.000000 2.0000000000 19.000000000 309.00000000 1.0000000000
 1618.6250000 23.516500473 -9999.000000 2.0000000000 19.000000000 309.00000000 1.0000000000
 1618.7500000 25.163000107 -9999.000000 2.0000000000 19.000000000 309.00000000 1.0000000000
 1618.8750000 26.809499741 -9999.000000 2.0000000000 19.000000000 309.00000000 1.0000000000
 1619.0000000 28.455999374 -9999.000000 2.0000000000 19.000000000 309.00000000 1.0000000000
 1619.1250000 30.490200043 -9999.000000 2.0000000000 19.000000000 309.00000000 1.0000000000
 1619.2500000 32.524501801 -9999.000000 2.0000000000 19.000000000 309.00000000 1.0000000000
 1619.3750000 34.558700562 -9999.000000 2.0000000000 19.000000000 309.00000000 1.0000000000
 1619.5000000 36.592998505 -9999.000000 2.0000000000 19.000000000 309.00000000 1.0000000000
 1619.6250000 36.564201355 -9999.000000 2.0000000000 19.000000000 309.00000000 1.0000000000
 1619.7500000 36.535499573 -9999.000000 2.0000000000 19.000000000 309.00000000 1.0000000000
 1619.8750000 36.506801605 -9999.000000 2.0000000000 19.000000000 309.00000000 1.0000000000
 1620.0000000 36.478000641 -9999.000000 2.0000000000 19.000000000 309.00000000 1.0000000000
 1620.1250000 33.433498383 -9999.000000 2.0000000000 19.000000000 309.00000000 1.0000000000
 1620.2500000 30.388999939 -9999.000000 2.0000000000 19.000000000 309.00000000 1.0000000000
 1620.3750000 27.344499588 -9999.000000 2.0000000000 19.000000000 309.00000000 1.0000000000
 1620.5000000 24.299999237 -9999.000000 2.0000000000 19.000000000 309.00000000 1.0000000000
 1620.6250000 21.669000626 -9999.000000 2.0000000000 19.000000000 309.00000000 1.0000000000
 1620.7500000 19.038000107 -9999.000000 2.0000000000 19.000000000 309.00000000 1.0000000000
 1620.8750000 16.406999588 -9999.000000 2.0000000000 19.000000000 309.00000000 1.0000000000
 1621.0000000 13.776000023 -9999.000000 2.0000000000 19.000000000 309.00000000 1.0000000000
 1621.1250000 17.152500153 -9999.000000 2.0000000000 19.000000000 309.00000000 1.0000000000
 1621.2500000 20.528999329 -9999.000000 2.0000000000 19.000000000 309.00000000 1.0000000000
 1621.3750000 23.905500412 -9999.000000 2.0000000000 19.000000000 309.00000000 1.0000000000
 1621.5000000 27.281999588 -9999.000000 2.0000000000 19.000000000 309.00000000 1.0000000000
 1621.6250000 26.493200302 -9999.000000 2.0000000000 19.000000000 309.00000000 1.0000000000
 1621.7500000 25.704500198 -9999.000000 2.0000000000 19.000000000 309.00000000 1.0000000000
 1621.8750000 24.915800095 -9999.000000 2.0000000000 19.000000000 309.00000000 1.0000000000
 1622.0000000 24.127000809 -9999.000000 2.0000000000 19.000000000 309.00000000 1.0000000000
 1622.1250000 23.423299789 -9999.000000 2.0000000000 19.000000000 309.00000000 1.0000000000
 1622.2500000 22.719499588 -9999.000000 2.0000000000 19.000000000 309.00000000 1.0000000000
 1622.3750000 22.015800476 -9999.000000 2.0000000000 19.000000000 309.00000000 1.0000000000
 1622.5000000 21.312000275 -9999.000000 2.0000000000 19.000000000 309.00000000 1.0000000000
 1622.6250000 20.369499207 -9999.000000 2.0000000000 19.000000000 309.00000000 1.0000000000
 1622.7500000 19.427000046 -9999.000000 2.0000000000 19.000000000 309.00000000 1.0000000000
 1622.8750000 18.484500885 -9999.000000 2.0000000000 19.000000000 309.00000000 1.0000000000
 1623.0000000 17.541999817 -9999.000000 2.0000000000 19.000000000 309.00000000 1.0000000000
 1623.1250000 16.777000427 -9999.000000 2.0000000000 19.000000000 309.00000000 1.0000000000
 1623.2500000 16.011999130 -9999.000000 2.0000000000 19.000000000 309.00000000 1.0000000000
 1623.3750000 15.246999741 -9999.000000 2.0000000000 19.000000000 309.00000000 1.0000000000
 1623.5000000 14.482000351 -9999.000000 2.0000000000 19.000000000 309.00000000 1.0000000000
 1623.6250000 13.859999657 -9999.000000 2.0000000000 19.000000000 309.00000000 1.0000000000
 1623.7500000 13.237999916 -9999.000000 2.0000000000 19.000000000 309.00000000 1.0000000000
 1623.8750000 12.616000175 -9999.000000 2.0000000000 19.000000000 309.00000000 1.0000000000
 1624.0000000 11.994000435 -9999.000000 2.0000000000 19.000000000 309.00000000 1.0000000000
 1624.1250000 10.882800102 -9999.000000 2.0000000000 19.000000000 309.00000000 1.0000000000
 1624.2500000 9.7714996338 -9999.000000  -999.250000 0.1000000015 0.1000000015 0.0000000000
 1624.3750000 8.6602001190 -9999.000000  -999.250000 0.1000000015 0.1000000015 0.0000000000
 1624.5000000 7.5489997864 -9999.000000  -999.250000 0.1000000015 0.1000000015 0.0000000000
 1624.6250000 9.2472000122 -9999.000000  -999.250000 0.1000000015 0.1000000015 0.0000000000
 1624.7500000 10.945500374 -9999.000000  -999.250000 0.1000000015 0.1000000015 0.0000000000
 1624.8750000 12.643699646 -9999.000000  -999.250000 0.1000000015 0.1000000015 0.0000000000
 1625.0000000 14.342000008 -9999.000000 3.0000000000 16.000000000 123.00000000 1.0000000000
 1625.1250000 14.642999649 -9999.000000 3.0000000000 16.000000000 123.00000000 1.0000000000
 1625.2500000 14.944000244 -9999.000000 3.0000000000 16.000000000 123.00000000 1.0000000000
 1625.3750000 15.244999886 -9999.000000 3.0000000000 16.000000000 123.00000000 1.0000000000
 1625.5000000 15.545999527 -9999.000000 3.0000000000 16.000000000 123.00000000 1.0000000000
 1625.6250000 13.674699783 -9999.000000 3.0000000000 16.000000000 123.00000000 1.0000000000
 1625.7500000 11.803500175 -9999.000000  -999.250000 0.1000000015 0.1000000015 0.0000000000
 1625.8750000 9.9322004318 -9999.000000  -999.250000 0.1000000015 0.1000000015 0.0000000000
 1626.0000000 8.0609998703 -9999.000000  -999.250000 0.1000000015 0.1000000015 0.0000000000
 1626.1250000 9.5317001343 -9999.000000  -999.250000 0.1000000015 0.1000000015 0.0000000000
 1626.2500000 11.002499580 -9999.000000  -999.250000 0.1000000015 0.1000000015 0.0000000000
 1626.3750000 12.473299980 -9999.000000  -999.250000 0.1000000015 0.1000000015 0.0000000000
 1626.5000000 13.944000244 -9999.000000 3.0000000000 15.000000000 100.00000000 1.0000000000
 1626.6250000 13.848799706 -9999.000000 3.0000000000 15.000000000 100.00000000 1.0000000000
 1626.7500000 13.753499985 -9999.000000 3.0000000000 15.000000000 100.00000000 1.0000000000
 1626.8750000 13.658200264 -9999.000000 3.0000000000 15.000000000 100.00000000 1.0000000000
 1627.0000000 13.562999725 -9999.000000 3.0000000000 15.000000000 100.00000000 1.0000000000
 1627.1250000 13.792200089 -9999.000000 3.0000000000 15.000000000 100.00000000 1.0000000000
 1627.2500000 14.021499634 -9999.000000 3.0000000000 15.000000000 100.00000000 1.0000000000
 1627.3750000 14.250699997 -9999.000000 3.0000000000 15.000000000 100.00000000 1.0000000000
 1627.5000000 14.479999542 -9999.000000 3.0000000000 15.000000000 100.00000000 1.0000000000
