# LAS format log file from PETREL
# Project units are specified as depth units
#==================================================================
~Version information
VERS.   2.0:
WRAP.   NO:
#==================================================================
~Well
STRT .m      1420.0000000 :
STOP .m      1734.8750000 :
STEP .m     0.12500000 :
NULL .        -999.250000 :
COMP.           : COMPANY
WELL.  5-0161C   : WELL
FLD.            : FIELD
LOC.            : LOCATION
SRVC.           : SERVICE COMPANY
DATE.  2020-03-08 09:25:09   : Log Export Date {yyyy-MM-dd HH:mm:ss}
PROV.           : PROVINCE
UWI.      : UNIQUE WELL ID
API.            : API NUMBER
#==================================================================
~Curve
DEPT .m                   : DEPTH
RT .ohm.m                 : RT
SP .                      : SP
Fluids .                  : Fluids
POR .m3/m3                : POR
PERM .mD                  : PERM
Lith .                    : Lith
~Parameter
#==================================================================
~Ascii
# ...
 1594.0000000 10.951000214 -60.58499908 4.0000000000 17.000000000 1126.0000000 1.0000000000
 1594.1250000 10.380999565 -60.63800049 4.0000000000 17.000000000 1126.0000000 1.0000000000
 1594.2500000 9.9460000992 -61.29600143 4.0000000000 17.000000000 1126.0000000 1.0000000000
 1594.3750000 9.7810001373 -62.22800064 4.0000000000 17.000000000 1126.0000000 1.0000000000
 1594.5000000 9.6879997253 -62.88000107 4.0000000000 17.000000000 1126.0000000 1.0000000000
 1594.6250000 9.3140001297 -62.97200012 4.0000000000 17.000000000 1126.0000000 1.0000000000
 1594.7500000 8.6549997330 -62.68500137 4.0000000000 17.000000000 1126.0000000 1.0000000000
 1594.8750000 8.2299995422 -62.40800095 4.0000000000 17.000000000 1126.0000000 1.0000000000
 1595.0000000 8.6649999619 -62.41299820 4.0000000000 17.000000000 1126.0000000 1.0000000000
 1595.1250000 9.7629995346 -62.72000122 4.0000000000 17.000000000 1126.0000000 1.0000000000
 1595.2500000 10.753000259 -63.26300049 4.0000000000 17.000000000 1126.0000000 1.0000000000
 1595.3750000 11.361000061 -63.83300018 4.0000000000 17.000000000 1126.0000000 1.0000000000
 1595.5000000 11.312999725 -64.16000366 4.0000000000 17.000000000 1126.0000000 1.0000000000
 1595.6250000 10.718000412 -64.20400238 4.0000000000 17.000000000 1126.0000000 1.0000000000
 1595.7500000 10.222000122 -64.15499878 4.0000000000 17.000000000 1126.0000000 1.0000000000
 1595.8750000 10.112999916 -64.14600372 4.0000000000 17.000000000 1126.0000000 1.0000000000
 1596.0000000 10.232000351 -64.02899933 4.0000000000 17.000000000 1126.0000000 1.0000000000
 1596.1250000 10.239000320 -63.63999939 4.0000000000 17.000000000 1126.0000000 1.0000000000
 1596.2500000 9.9099998474 -63.11600113 4.0000000000 17.000000000 1126.0000000 1.0000000000
 1596.3750000 9.5649995804 -62.90800095 4.0000000000 17.000000000 1126.0000000 1.0000000000
 1596.5000000 9.5229997635 -63.41899872 4.0000000000 17.000000000 1126.0000000 1.0000000000
 1596.6250000 9.8950004578 -64.54900360 4.0000000000 17.000000000 1126.0000000 1.0000000000
 1596.7500000 10.326999664 -65.75099945 4.0000000000 17.000000000 1126.0000000 1.0000000000
 1596.8750000 10.435000420 -66.49099731 4.0000000000 17.000000000 1126.0000000 1.0000000000
 1597.0000000 10.032999992 -66.69000244 4.0000000000 17.000000000 1126.0000000 1.0000000000
 1597.1250000 9.3210000992 -66.70600128 4.0000000000 17.000000000 1126.0000000 1.0000000000
 1597.2500000 8.8290004730 -66.77100372 4.0000000000 17.000000000 1126.0000000 1.0000000000
 1597.3750000 8.7849998474 -66.83100128 4.0000000000 17.000000000 1126.0000000 1.0000000000
 1597.5000000 9.0120000839 -66.64199829  -999.250000 0.1000000015 0.1000000015 0.0000000000
 1597.6250000 9.3990001678 -66.13700104  -999.250000 0.1000000015 0.1000000015 0.0000000000
 1597.7500000 9.5950002670 -65.44799805  -999.250000 0.1000000015 0.1000000015 0.0000000000
 1597.8750000 9.4799995422 -64.70500183  -999.250000 0.1000000015 0.1000000015 0.0000000000
 1598.0000000 9.3950004578 -64.14700317  -999.250000 0.1000000015 0.1000000015 0.0000000000
 1598.1250000 9.6040000916 -63.94599915  -999.250000 0.1000000015 0.1000000015 0.0000000000
 1598.2500000 9.9479999542 -64.04799652  -999.250000 0.1000000015 0.1000000015 0.0000000000
 1598.3750000 10.380000114 -64.23000336  -999.250000 0.1000000015 0.1000000015 0.0000000000
 1598.5000000 10.692000389 -64.36699677  -999.250000 0.1000000015 0.1000000015 0.0000000000
 1598.6250000 10.864999771 -64.62100220  -999.250000 0.1000000015 0.1000000015 0.0000000000
 1598.7500000 10.968999863 -65.12100220  -999.250000 0.1000000015 0.1000000015 0.0000000000
 1598.8750000 11.041000366 -65.76599884  -999.250000 0.1000000015 0.1000000015 0.0000000000
 1599.0000000 11.177000046 -66.37500000  -999.250000 0.1000000015 0.1000000015 0.0000000000
 1599.1250000 11.529999733 -66.74700165  -999.250000 0.1000000015 0.1000000015 0.0000000000
 1599.2500000 12.225000381 -66.83999634  -999.250000 0.1000000015 0.1000000015 0.0000000000
 1599.3750000 12.968999863 -66.74099731  -999.250000 0.1000000015 0.1000000015 0.0000000000
 1599.5000000 13.571999550 -66.66400146 4.0000000000 27.000000000 4245.0000000 1.0000000000
 1599.6250000 13.586000443 -66.89199829 4.0000000000 27.000000000 4245.0000000 1.0000000000
 1599.7500000 12.390999794 -67.59300232 4.0000000000 27.000000000 4245.0000000 1.0000000000
 1599.8750000 10.800000191 -68.59300232 4.0000000000 27.000000000 4245.0000000 1.0000000000
 1600.0000000 9.8900003433 -69.43499756 4.0000000000 27.000000000 4245.0000000 1.0000000000
 1600.1250000 9.8369998932 -69.74700165 4.0000000000 27.000000000 4245.0000000 1.0000000000
 1600.2500000 11.003999710 -69.50000000 4.0000000000 27.000000000 4245.0000000 1.0000000000
 1600.3750000 12.970000267 -68.90299988 4.0000000000 27.000000000 4245.0000000 1.0000000000
 1600.5000000 15.164999962 -68.12599945 4.0000000000 27.000000000 4245.0000000 1.0000000000
 1600.6250000 17.222999573 -67.21700287 4.0000000000 27.000000000 4245.0000000 1.0000000000
 1600.7500000 19.871999741 -66.19599915 4.0000000000 27.000000000 4245.0000000 1.0000000000
 1600.8750000 22.006999969 -65.09700012 4.0000000000 27.000000000 4245.0000000 1.0000000000
 1601.0000000 22.596000671 -63.96799850  -999.250000 0.1000000015 0.1000000015 0.0000000000
 1601.1250000 21.864999771 -62.79600143  -999.250000 0.1000000015 0.1000000015 0.0000000000
 1601.2500000 19.971000671 -61.48699951  -999.250000 0.1000000015 0.1000000015 0.0000000000
 1601.3750000 17.753999710 -60.07300186  -999.250000 0.1000000015 0.1000000015 0.0000000000
 1601.5000000 15.911999702 -58.95399857 4.0000000000 25.000000000 3230.0000000 1.0000000000
 1601.6250000 14.659999847 -58.76100159 4.0000000000 25.000000000 3230.0000000 1.0000000000
 1601.7500000 13.166000366 -59.84000015 4.0000000000 25.000000000 3230.0000000 1.0000000000
 1601.8750000 11.557999611 -61.82300186 4.0000000000 25.000000000 3230.0000000 1.0000000000
 1602.0000000 10.017999649 -63.77299881 4.0000000000 25.000000000 3230.0000000 1.0000000000
 1602.1250000 8.7939996719 -64.88200378 4.0000000000 25.000000000 3230.0000000 1.0000000000
 1602.2500000 8.1510000229 -64.95999908 4.0000000000 25.000000000 3230.0000000 1.0000000000
 1602.3750000 7.5859999657 -64.49099731 4.0000000000 25.000000000 3230.0000000 1.0000000000
 1602.5000000 7.7220001221 -64.09300232 4.0000000000 25.000000000 3230.0000000 1.0000000000
 1602.6250000 8.4860000610 -64.05400085  -999.250000 0.1000000015 0.1000000015 0.0000000000
 1602.7500000 8.8760004044 -64.30000305  -999.250000 0.1000000015 0.1000000015 0.0000000000
 1602.8750000 8.8170003891 -64.58899689  -999.250000 0.1000000015 0.1000000015 0.0000000000
 1603.0000000 8.1940002441 -64.65299988  -999.250000 0.1000000015 0.1000000015 0.0000000000
 1603.1250000 7.1890001297 -64.23400116  -999.250000 0.1000000015 0.1000000015 0.0000000000
 1603.2500000 6.8720002174 -63.30199814  -999.250000 0.1000000015 0.1000000015 0.0000000000
 1603.3750000 6.8060002327 -61.98600006  -999.250000 0.1000000015 0.1000000015 0.0000000000
 1603.5000000 6.4600000381 -60.52999878  -999.250000 0.1000000015 0.1000000015 0.0000000000
 1603.6250000 6.0419998169 -59.09999847  -999.250000 0.1000000015 0.1000000015 0.0000000000
 1603.7500000 5.7579998970 -57.81399918  -999.250000 0.1000000015 0.1000000015 0.0000000000
 1603.8750000 5.6830000877 -56.87599945  -999.250000 0.1000000015 0.1000000015 0.0000000000
 1604.0000000 5.7829999924 -56.51200104  -999.250000 0.1000000015 0.1000000015 0.0000000000
 1604.1250000 5.8010001183 -56.83599854  -999.250000 0.1000000015 0.1000000015 0.0000000000
 1604.2500000 5.3949999809 -57.50000000  -999.250000 0.1000000015 0.1000000015 0.0000000000
 1604.3750000 4.8200001717 -57.65100098  -999.250000 0.1000000015 0.1000000015 0.0000000000
 1604.5000000 4.3260002136 -56.99100113  -999.250000 0.1000000015 0.1000000015 0.0000000000
 1604.6250000 3.8029999733 -55.88800049  -999.250000 0.1000000015 0.1000000015 0.0000000000
 1604.7500000 3.3670001030 -55.02099991  -999.250000 0.1000000015 0.1000000015 0.0000000000
