# LAS format log file from PETREL
# Project units are specified as depth units
#==================================================================
~Version information
VERS.   2.0:
WRAP.   NO:
#==================================================================
~Well
STRT .m      725.00000000 :
STOP .m      1752.0000000 :
STEP .m     0.12500000 :
NULL .        -999.250000 :
COMP.           : COMPANY
WELL.  5-0166   : WELL
FLD.            : FIELD
LOC.            : LOCATION
SRVC.           : SERVICE COMPANY
DATE.  2020-03-08 09:25:09   : Log Export Date {yyyy-MM-dd HH:mm:ss}
PROV.           : PROVINCE
UWI.      : UNIQUE WELL ID
API.            : API NUMBER
#==================================================================
~Curve
DEPT .m                   : DEPTH
RT .ohm.m                 : RT
SP .                      : SP
Fluids .                  : Fluids
POR .m3/m3                : POR
PERM .mD                  : PERM
Lith .                    : Lith
~Parameter
#==================================================================
~Ascii
# ...
 1638.5000000 2.6900000572 -9999.000000  -999.250000 0.1000000015 0.1000000015 0.0000000000
 1638.6250000 2.8894999027 -9999.000000  -999.250000 0.1000000015 0.1000000015 0.0000000000
 1638.7500000 3.0889999866 -9999.000000  -999.250000 0.1000000015 0.1000000015 0.0000000000
 1638.8750000 3.2885000706 -9999.000000  -999.250000 0.1000000015 0.1000000015 0.0000000000
 1639.0000000 3.4879999161 -9999.000000  -999.250000 0.1000000015 0.1000000015 0.0000000000
 1639.1250000 3.3596999645 -9999.000000  -999.250000 0.1000000015 0.1000000015 0.0000000000
 1639.2500000 3.2314999104 -9999.000000  -999.250000 0.1000000015 0.1000000015 0.0000000000
 1639.3750000 3.1031999588 -9999.000000  -999.250000 0.1000000015 0.1000000015 0.0000000000
 1639.5000000 2.9749999046 -9999.000000  -999.250000 0.1000000015 0.1000000015 0.0000000000
 1639.6250000 3.0155000687 -9999.000000  -999.250000 0.1000000015 0.1000000015 0.0000000000
 1639.7500000 3.0559999943 -9999.000000  -999.250000 0.1000000015 0.1000000015 0.0000000000
 1639.8750000 3.0964999199 -9999.000000  -999.250000 0.1000000015 0.1000000015 0.0000000000
 1640.0000000 3.1370000839 -9999.000000  -999.250000 0.1000000015 0.1000000015 0.0000000000
 1640.1250000 3.0638000965 -9999.000000  -999.250000 0.1000000015 0.1000000015 0.0000000000
 1640.2500000 2.9904999733 -9999.000000  -999.250000 0.1000000015 0.1000000015 0.0000000000
 1640.3750000 2.9172999859 -9999.000000  -999.250000 0.1000000015 0.1000000015 0.0000000000
 1640.5000000 2.8440001011 -9999.000000  -999.250000 0.1000000015 0.1000000015 0.0000000000
 1640.6250000 2.8968000412 -9999.000000  -999.250000 0.1000000015 0.1000000015 0.0000000000
 1640.7500000 2.9495000839 -9999.000000  -999.250000 0.1000000015 0.1000000015 0.0000000000
 1640.8750000 3.0023000240 -9999.000000  -999.250000 0.1000000015 0.1000000015 0.0000000000
 1641.0000000 3.0550000668 -9999.000000  -999.250000 0.1000000015 0.1000000015 0.0000000000
 1641.1250000 2.9820001125 -9999.000000  -999.250000 0.1000000015 0.1000000015 0.0000000000
 1641.2500000 2.9089999199 -9999.000000  -999.250000 0.1000000015 0.1000000015 0.0000000000
 1641.3750000 2.8359999657 -9999.000000  -999.250000 0.1000000015 0.1000000015 0.0000000000
 1641.5000000 2.7630000114 -9999.000000  -999.250000 0.1000000015 0.1000000015 0.0000000000
 1641.6250000 2.7697000504 -9999.000000  -999.250000 0.1000000015 0.1000000015 0.0000000000
 1641.7500000 2.7764999866 -9999.000000  -999.250000 0.1000000015 0.1000000015 0.0000000000
 1641.8750000 2.7832000256 -9999.000000  -999.250000 0.1000000015 0.1000000015 0.0000000000
 1642.0000000 2.7899999619 -9999.000000  -999.250000 0.1000000015 0.1000000015 0.0000000000
 1642.1250000 2.8039999008 -9999.000000  -999.250000 0.1000000015 0.1000000015 0.0000000000
 1642.2500000 2.8180000782 -9999.000000  -999.250000 0.1000000015 0.1000000015 0.0000000000
 1642.3750000 2.8320000172 -9999.000000  -999.250000 0.1000000015 0.1000000015 0.0000000000
 1642.5000000 2.8459999561 -9999.000000  -999.250000 0.1000000015 0.1000000015 0.0000000000
 1642.6250000 2.8794999123 -9999.000000  -999.250000 0.1000000015 0.1000000015 0.0000000000
 1642.7500000 2.9130001068 -9999.000000  -999.250000 0.1000000015 0.1000000015 0.0000000000
 1642.8750000 2.9465000629 -9999.000000  -999.250000 0.1000000015 0.1000000015 0.0000000000
 1643.0000000 2.9800000191 -9999.000000  -999.250000 0.1000000015 0.1000000015 0.0000000000
 1643.1250000 2.8759999275 -9999.000000  -999.250000 0.1000000015 0.1000000015 0.0000000000
 1643.2500000 2.7720000744 -9999.000000  -999.250000 0.1000000015 0.1000000015 0.0000000000
 1643.3750000 2.6679999828 -9999.000000  -999.250000 0.1000000015 0.1000000015 0.0000000000
 1643.5000000 2.5639998913 -9999.000000  -999.250000 0.1000000015 0.1000000015 0.0000000000
 1643.6250000 2.6122000217 -9999.000000  -999.250000 0.1000000015 0.1000000015 0.0000000000
 1643.7500000 2.6605000496 -9999.000000  -999.250000 0.1000000015 0.1000000015 0.0000000000
 1643.8750000 2.7086999416 -9999.000000  -999.250000 0.1000000015 0.1000000015 0.0000000000
 1644.0000000 2.7569999695 -9999.000000  -999.250000 0.1000000015 0.1000000015 0.0000000000
 1644.1250000 2.8800001144 -9999.000000  -999.250000 0.1000000015 0.1000000015 0.0000000000
 1644.2500000 3.0030000210 -9999.000000  -999.250000 0.1000000015 0.1000000015 0.0000000000
 1644.3750000 3.1259999275 -9999.000000  -999.250000 0.1000000015 0.1000000015 0.0000000000
 1644.5000000 3.2490000725 -9999.000000  -999.250000 0.1000000015 0.1000000015 0.0000000000
 1644.6250000 3.0829999447 -9999.000000  -999.250000 0.1000000015 0.1000000015 0.0000000000
 1644.7500000 2.9170000553 -9999.000000  -999.250000 0.1000000015 0.1000000015 0.0000000000
 1644.8750000 2.7509999275 -9999.000000  -999.250000 0.1000000015 0.1000000015 0.0000000000
 1645.0000000 2.5850000381 -9999.000000  -999.250000 0.1000000015 0.1000000015 0.0000000000
 1645.1250000 2.5425000191 -9999.000000  -999.250000 0.1000000015 0.1000000015 0.0000000000
 1645.2500000 2.5000000000 -9999.000000  -999.250000 0.1000000015 0.1000000015 0.0000000000
 1645.3750000 2.4574999809 -9999.000000  -999.250000 0.1000000015 0.1000000015 0.0000000000
 1645.5000000 2.4149999619 -9999.000000  -999.250000 0.1000000015 0.1000000015 0.0000000000
 1645.6250000 2.5827000141 -9999.000000  -999.250000 0.1000000015 0.1000000015 0.0000000000
 1645.7500000 2.7504999638 -9999.000000  -999.250000 0.1000000015 0.1000000015 0.0000000000
 1645.8750000 2.9182000160 -9999.000000  -999.250000 0.1000000015 0.1000000015 0.0000000000
 1646.0000000 3.0859999657 -9999.000000  -999.250000 0.1000000015 0.1000000015 0.0000000000
 1646.1250000 3.1621999741 -9999.000000  -999.250000 0.1000000015 0.1000000015 0.0000000000
 1646.2500000 3.2385001183 -9999.000000  -999.250000 0.1000000015 0.1000000015 0.0000000000
 1646.3750000 3.3148000240 -9999.000000  -999.250000 0.1000000015 0.1000000015 0.0000000000
 1646.5000000 3.3910000324 -9999.000000  -999.250000 0.1000000015 0.1000000015 0.0000000000
 1646.6250000 3.5007998943 -9999.000000  -999.250000 0.1000000015 0.1000000015 0.0000000000
 1646.7500000 3.6105000973 -9999.000000  -999.250000 0.1000000015 0.1000000015 0.0000000000
 1646.8750000 3.7202000618 -9999.000000  -999.250000 0.1000000015 0.1000000015 0.0000000000
 1647.0000000 3.8299999237 -9999.000000  -999.250000 0.1000000015 0.1000000015 0.0000000000
 1647.1250000 4.7709999084 -9999.000000  -999.250000 0.1000000015 0.1000000015 0.0000000000
 1647.2500000 5.7119998932 -9999.000000  -999.250000 0.1000000015 0.1000000015 0.0000000000
 1647.3750000 6.6529998779 -9999.000000  -999.250000 0.1000000015 0.1000000015 0.0000000000
 1647.5000000 7.5939998627 -9999.000000  -999.250000 0.1000000015 0.1000000015 0.0000000000
 1647.6250000 7.3227000237 -9999.000000  -999.250000 0.1000000015 0.1000000015 0.0000000000
 1647.7500000 7.0514998436 -9999.000000  -999.250000 0.1000000015 0.1000000015 0.0000000000
 1647.8750000 6.7802000046 -9999.000000  -999.250000 0.1000000015 0.1000000015 0.0000000000
 1648.0000000 6.5089998245 -9999.000000  -999.250000 0.1000000015 0.1000000015 0.0000000000
 1648.1250000 6.4840002060 -9999.000000  -999.250000 0.1000000015 0.1000000015 0.0000000000
 1648.2500000 6.4590001106 -9999.000000  -999.250000 0.1000000015 0.1000000015 0.0000000000
 1648.3750000 6.4340000153 -9999.000000  -999.250000 0.1000000015 0.1000000015 0.0000000000
 1648.5000000 6.4089999199 -9999.000000  -999.250000 0.1000000015 0.1000000015 0.0000000000
 1648.6250000 8.1187000275 -9999.000000  -999.250000 0.1000000015 0.1000000015 0.0000000000
 1648.7500000 9.8284997940 -9999.000000  -999.250000 0.1000000015 0.1000000015 0.0000000000
 1648.8750000 11.538299561 -9999.000000  -999.250000 0.1000000015 0.1000000015 0.0000000000
 1649.0000000 13.248000145 -9999.000000 4.0000000000 19.000000000 270.00000000 1.0000000000
 1649.1250000 15.057700157 -9999.000000 4.0000000000 19.000000000 270.00000000 1.0000000000
 1649.2500000 16.867500305 -9999.000000 4.0000000000 19.000000000 270.00000000 1.0000000000
