# LAS format log file from PETREL
# Project units are specified as depth units
#==================================================================
~Version information
VERS.   2.0:
WRAP.   NO:
#==================================================================
~Well
STRT .m      1480.0000000 :
STOP .m      1820.0000000 :
STEP .m     0.12500000 :
NULL .        -999.250000 :
COMP.           : COMPANY
WELL.  5-0165   : WELL
FLD.            : FIELD
LOC.            : LOCATION
SRVC.           : SERVICE COMPANY
DATE.  2020-03-08 09:25:09   : Log Export Date {yyyy-MM-dd HH:mm:ss}
PROV.           : PROVINCE
UWI.      : UNIQUE WELL ID
API.            : API NUMBER
#==================================================================
~Curve
DEPT .m                   : DEPTH
RT .ohm.m                 : RT
SP .                      : SP
Fluids .                  : Fluids
POR .m3/m3                : POR
PERM .mD                  : PERM
Lith .                    : Lith
~Parameter
#==================================================================
~Ascii
# ...
 1708.3750000 6.9450001717 44.979000092 4.0000000000 21.000000000 1887.0000000 1.0000000000
 1708.5000000 7.1609997749 44.912998199 4.0000000000 21.000000000 1887.0000000 1.0000000000
 1708.6250000 7.3340001106 44.847000122 4.0000000000 21.000000000 1887.0000000 1.0000000000
 1708.7500000 7.3810000420 44.780998230 4.0000000000 21.000000000 1887.0000000 1.0000000000
 1708.8750000 7.3369998932 44.715000153 4.0000000000 21.000000000 1887.0000000 1.0000000000
 1709.0000000 7.1979999542 44.650001526 4.0000000000 21.000000000 1887.0000000 1.0000000000
 1709.1250000 6.9889998436 44.585998535 4.0000000000 21.000000000 1887.0000000 1.0000000000
 1709.2500000 6.9000000954 44.526000977 4.0000000000 21.000000000 1887.0000000 1.0000000000
 1709.3750000 6.8870000839 44.469001770 4.0000000000 21.000000000 1887.0000000 1.0000000000
 1709.5000000 7.0040001869 44.416999817 4.0000000000 21.000000000 1887.0000000 1.0000000000
 1709.6250000 7.6960000992 44.370998383 4.0000000000 21.000000000 1887.0000000 1.0000000000
 1709.7500000 8.0979995728 44.333000183 4.0000000000 21.000000000 1887.0000000 1.0000000000
 1709.8750000 8.2930002213 44.305999756 4.0000000000 21.000000000 1887.0000000 1.0000000000
 1710.0000000 8.4420003891 44.289001465 4.0000000000 21.000000000 1887.0000000 1.0000000000
 1710.1250000 8.5349998474 44.278999329 4.0000000000 21.000000000 1887.0000000 1.0000000000
 1710.2500000 8.1899995804 44.271999359 4.0000000000 21.000000000 1887.0000000 1.0000000000
 1710.3750000 7.9289999008 44.264999390 4.0000000000 21.000000000 1887.0000000 1.0000000000
 1710.5000000 7.9039998055 44.252998352 4.0000000000 21.000000000 1887.0000000 1.0000000000
 1710.6250000 7.8610000610 44.238998413 4.0000000000 21.000000000 1887.0000000 1.0000000000
 1710.7500000 7.2639999390 44.224998474 4.0000000000 21.000000000 1887.0000000 1.0000000000
 1710.8750000 6.9140000343 44.209999084 4.0000000000 21.000000000 1887.0000000 1.0000000000
 1711.0000000 6.4340000153 44.199001312 4.0000000000 21.000000000 1887.0000000 1.0000000000
 1711.1250000 5.3699998856 44.188999176 4.0000000000 21.000000000 1887.0000000 1.0000000000
 1711.2500000 4.0710000992 44.185001373 4.0000000000 21.000000000 1887.0000000 1.0000000000
 1711.3750000 3.4979999065 44.186000824 4.0000000000 21.000000000 1887.0000000 1.0000000000
 1711.5000000 2.9560000896 44.191001892 4.0000000000 21.000000000 1887.0000000 1.0000000000
 1711.6250000 2.4010000229 44.199001312 4.0000000000 21.000000000 1887.0000000 1.0000000000
 1711.7500000 1.8819999695 44.205001831 4.0000000000 21.000000000 1887.0000000 1.0000000000
 1711.8750000 1.6380000114 44.201000214  -999.250000 0.1000000015 0.1000000015 0.0000000000
 1712.0000000 1.6169999838 44.182998657  -999.250000 0.1000000015 0.1000000015 0.0000000000
 1712.1250000 1.9220000505 44.148998260 4.0000000000 18.000000000 513.00000000 1.0000000000
 1712.2500000 2.6740000248 44.102001190 4.0000000000 18.000000000 513.00000000 1.0000000000
 1712.3750000 3.1700000763 44.039001465 4.0000000000 18.000000000 513.00000000 1.0000000000
 1712.5000000 3.6570000648 43.958000183 4.0000000000 18.000000000 513.00000000 1.0000000000
 1712.6250000 3.9230000973 43.854999542 4.0000000000 18.000000000 513.00000000 1.0000000000
 1712.7500000 4.1479997635 43.727001190 4.0000000000 18.000000000 513.00000000 1.0000000000
 1712.8750000 4.6360001564 43.575000763 4.0000000000 18.000000000 513.00000000 1.0000000000
 1713.0000000 4.8200001717 43.402999878 4.0000000000 18.000000000 513.00000000 1.0000000000
 1713.1250000 4.5729999542 43.217998505 4.0000000000 18.000000000 513.00000000 1.0000000000
 1713.2500000 2.6659998894 43.027000427 4.0000000000 18.000000000 513.00000000 1.0000000000
 1713.3750000 2.5239999294 42.840000153 4.0000000000 18.000000000 513.00000000 1.0000000000
 1713.5000000 1.2990000248 42.664001465  -999.250000 0.1000000015 0.1000000015 0.0000000000
 1713.6250000 0.9610000253 42.508998871  -999.250000 0.1000000015 0.1000000015 0.0000000000
 1713.7500000 0.7810000181 42.384998322  -999.250000 0.1000000015 0.1000000015 0.0000000000
 1713.8750000 0.7239999771 42.301998138  -999.250000 0.1000000015 0.1000000015 0.0000000000
 1714.0000000 0.6919999719 42.265998840  -999.250000 0.1000000015 0.1000000015 0.0000000000
 1714.1250000 0.6690000296 42.278999329  -999.250000 0.1000000015 0.1000000015 0.0000000000
 1714.2500000 0.6750000119 42.338001251  -999.250000 0.1000000015 0.1000000015 0.0000000000
 1714.3750000 0.7409999967 42.433998108  -999.250000 0.1000000015 0.1000000015 0.0000000000
 1714.5000000 0.8130000234 42.558998108  -999.250000 0.1000000015 0.1000000015 0.0000000000
 1714.6250000 0.8510000110 42.702999115  -999.250000 0.1000000015 0.1000000015 0.0000000000
 1714.7500000 0.8730000257 42.856998444  -999.250000 0.1000000015 0.1000000015 0.0000000000
 1714.8750000 0.8880000114 43.015998840  -999.250000 0.1000000015 0.1000000015 0.0000000000
 1715.0000000 0.8889999986 43.173999786  -999.250000 0.1000000015 0.1000000015 0.0000000000
 1715.1250000 0.8889999986 43.330001831  -999.250000 0.1000000015 0.1000000015 0.0000000000
 1715.2500000 0.8889999986 43.480998993  -999.250000 0.1000000015 0.1000000015 0.0000000000
 1715.3750000 0.8960000277 43.626998901  -999.250000 0.1000000015 0.1000000015 0.0000000000
 1715.5000000 0.9240000248 43.766998291  -999.250000 0.1000000015 0.1000000015 0.0000000000
 1715.6250000 0.9599999785 43.900001526  -999.250000 0.1000000015 0.1000000015 0.0000000000
 1715.7500000 0.9950000048 44.026000977  -999.250000 0.1000000015 0.1000000015 0.0000000000
 1715.8750000 0.9570000172 44.137001038  -999.250000 0.1000000015 0.1000000015 0.0000000000
 1716.0000000 0.8960000277 44.224998474  -999.250000 0.1000000015 0.1000000015 0.0000000000
 1716.1250000 0.8690000176 44.282001495  -999.250000 0.1000000015 0.1000000015 0.0000000000
 1716.2500000 0.9259999990 44.305000305  -999.250000 0.1000000015 0.1000000015 0.0000000000
 1716.3750000 1.0180000067 44.293998718  -999.250000 0.1000000015 0.1000000015 0.0000000000
 1716.5000000 1.0889999866 44.258998871  -999.250000 0.1000000015 0.1000000015 0.0000000000
 1716.6250000 1.1529999971 44.206001282  -999.250000 0.1000000015 0.1000000015 0.0000000000
 1716.7500000 1.1940000057 44.143001556  -999.250000 0.1000000015 0.1000000015 0.0000000000
 1716.8750000 1.1979999542 44.074001312  -999.250000 0.1000000015 0.1000000015 0.0000000000
 1717.0000000 1.1579999924 43.995998383  -999.250000 0.1000000015 0.1000000015 0.0000000000
 1717.1250000 1.1419999599 43.904998779  -999.250000 0.1000000015 0.1000000015 0.0000000000
 1717.2500000 1.1369999647 43.797000885  -999.250000 0.1000000015 0.1000000015 0.0000000000
 1717.3750000 1.1449999809 43.673999786  -999.250000 0.1000000015 0.1000000015 0.0000000000
 1717.5000000 1.1480000019 43.539001465  -999.250000 0.1000000015 0.1000000015 0.0000000000
 1717.6250000 1.1180000305 43.394001007  -999.250000 0.1000000015 0.1000000015 0.0000000000
 1717.7500000 1.0490000248 43.243000031  -999.250000 0.1000000015 0.1000000015 0.0000000000
 1717.8750000 0.9779999852 43.090999603  -999.250000 0.1000000015 0.1000000015 0.0000000000
 1718.0000000 0.9179999828 42.941001892  -999.250000 0.1000000015 0.1000000015 0.0000000000
 1718.1250000 0.8750000000 42.799999237  -999.250000 0.1000000015 0.1000000015 0.0000000000
 1718.2500000 0.8429999948 42.673999786  -999.250000 0.1000000015 0.1000000015 0.0000000000
 1718.3750000 0.8149999976 42.569999695  -999.250000 0.1000000015 0.1000000015 0.0000000000
 1718.5000000 0.7919999957 42.487998962  -999.250000 0.1000000015 0.1000000015 0.0000000000
 1718.6250000 0.7670000196 42.425998688  -999.250000 0.1000000015 0.1000000015 0.0000000000
 1718.7500000 0.7409999967 42.376998901  -999.250000 0.1000000015 0.1000000015 0.0000000000
 1718.8750000 0.7329999804 42.335998535  -999.250000 0.1000000015 0.1000000015 0.0000000000
 1719.0000000 0.6909999847 42.296001434  -999.250000 0.1000000015 0.1000000015 0.0000000000
 1719.1250000 0.7070000172 42.255001068  -999.250000 0.1000000015 0.1000000015 0.0000000000
