# LAS format log file from PETREL
# Project units are specified as depth units
#==================================================================
~Version information
VERS.   2.0:
WRAP.   NO:
#==================================================================
~Well
STRT .m      1350.0000000 :
STOP .m      1755.0000000 :
STEP .m     0.12500000 :
NULL .        -999.250000 :
COMP.           : COMPANY
WELL.  5-0165C2   : WELL
FLD.            : FIELD
LOC.            : LOCATION
SRVC.           : SERVICE COMPANY
DATE.  2020-03-08 09:25:09   : Log Export Date {yyyy-MM-dd HH:mm:ss}
PROV.           : PROVINCE
UWI.      : UNIQUE WELL ID
API.            : API NUMBER
#==================================================================
~Curve
DEPT .m                   : DEPTH
RT .ohm.m                 : RT
SP .                      : SP
Fluids .                  : Fluids
POR .m3/m3                : POR
PERM .mD                  : PERM
Lith .                    : Lith
~Parameter
#==================================================================
~Ascii
# ...
 1719.7500000 0.0000000000 0.1529999971 4.0000000000 19.000000000 1208.0000000 1.0000000000
 1719.8750000 0.0000000000 0.4659999907 4.0000000000 19.000000000 1208.0000000 1.0000000000
 1720.0000000 0.0000000000 0.6830000281 4.0000000000 19.000000000 1208.0000000 1.0000000000
 1720.1250000 0.0000000000 0.9380000234 4.0000000000 19.000000000 1208.0000000 1.0000000000
 1720.2500000 0.0000000000 1.2150000334 4.0000000000 19.000000000 1208.0000000 1.0000000000
 1720.3750000 0.0000000000 1.5779999495 4.0000000000 19.000000000 1208.0000000 1.0000000000
 1720.5000000 0.0000000000 1.9839999676 4.0000000000 19.000000000 1208.0000000 1.0000000000
 1720.6250000 0.0000000000 2.4709999561 4.0000000000 19.000000000 1208.0000000 1.0000000000
 1720.7500000 0.0000000000 2.9990000725 4.0000000000 19.000000000 1208.0000000 1.0000000000
 1720.8750000 0.0000000000 3.6349999905 4.0000000000 19.000000000 1208.0000000 1.0000000000
 1721.0000000 0.0000000000 4.0700001717 4.0000000000 19.000000000 1208.0000000 1.0000000000
 1721.1250000 0.0000000000 4.6680002213 4.0000000000 19.000000000 1208.0000000 1.0000000000
 1721.2500000 0.0000000000 5.2439999580 4.0000000000 19.000000000 1208.0000000 1.0000000000
 1721.3750000 0.0000000000 6.0089998245 4.0000000000 19.000000000 1208.0000000 1.0000000000
 1721.5000000 0.0000000000 6.6510000229 4.0000000000 19.000000000 1208.0000000 1.0000000000
 1721.6250000 0.0000000000 7.3239998817 4.0000000000 19.000000000 1208.0000000 1.0000000000
 1721.7500000 0.0000000000 8.0930004120 4.0000000000 19.000000000 1208.0000000 1.0000000000
 1721.8750000 0.0000000000 8.8249998093 4.0000000000 19.000000000 1208.0000000 1.0000000000
 1722.0000000 0.0000000000 9.3509998322 4.0000000000 19.000000000 1208.0000000 1.0000000000
 1722.1250000 0.0000000000 10.076999664 4.0000000000 19.000000000 1208.0000000 1.0000000000
 1722.2500000 0.0000000000 10.687000275 4.0000000000 19.000000000 1208.0000000 1.0000000000
 1722.3750000 0.0000000000 11.458999634 4.0000000000 19.000000000 1208.0000000 1.0000000000
 1722.5000000 0.0000000000 12.043999672 4.0000000000 19.000000000 1208.0000000 1.0000000000
 1722.6250000 0.0000000000 12.413000107 4.0000000000 19.000000000 1208.0000000 1.0000000000
 1722.7500000 0.0000000000 12.812000275 4.0000000000 19.000000000 1208.0000000 1.0000000000
 1722.8750000 0.0000000000 13.314999580 4.0000000000 19.000000000 1208.0000000 1.0000000000
 1723.0000000 0.0000000000 13.864999771 4.0000000000 19.000000000 1208.0000000 1.0000000000
 1723.1250000 0.0000000000 14.076999664 4.0000000000 19.000000000 1208.0000000 1.0000000000
 1723.2500000 0.0000000000 14.444999695 4.0000000000 19.000000000 1208.0000000 1.0000000000
 1723.3750000 0.0000000000 14.730999947 4.0000000000 19.000000000 1208.0000000 1.0000000000
 1723.5000000 0.0000000000 15.017000198 4.0000000000 19.000000000 1208.0000000 1.0000000000
 1723.6250000 0.0000000000 15.434000015 4.0000000000 19.000000000 1208.0000000 1.0000000000
 1723.7500000 0.0000000000 15.779000282 4.0000000000 19.000000000 1208.0000000 1.0000000000
 1723.8750000 0.0000000000 16.173000336 4.0000000000 19.000000000 1208.0000000 1.0000000000
 1724.0000000 0.0000000000 16.381000519 4.0000000000 19.000000000 1208.0000000 1.0000000000
 1724.1250000 0.0000000000 16.658000946 4.0000000000 19.000000000 1208.0000000 1.0000000000
 1724.2500000 0.0000000000 16.940000534 4.0000000000 19.000000000 1208.0000000 1.0000000000
 1724.3750000 0.0000000000 17.222000122 4.0000000000 19.000000000 1208.0000000 1.0000000000
 1724.5000000 29.847999573 17.444999695 4.0000000000 19.000000000 1208.0000000 1.0000000000
 1724.6250000 37.152000427 17.695999146 4.0000000000 19.000000000 1208.0000000 1.0000000000
 1724.7500000 32.140998840 17.888999939 4.0000000000 19.000000000 1208.0000000 1.0000000000
 1724.8750000 29.636999130 18.079000473 4.0000000000 19.000000000 1208.0000000 1.0000000000
 1725.0000000 28.364999771 18.243999481 4.0000000000 19.000000000 1208.0000000 1.0000000000
 1725.1250000 27.597999573 18.393999100 4.0000000000 19.000000000 1208.0000000 1.0000000000
 1725.2500000 36.770000458 18.500999451 4.0000000000 19.000000000 1208.0000000 1.0000000000
 1725.3750000 38.631000519 18.545000076 4.0000000000 19.000000000 1208.0000000 1.0000000000
 1725.5000000 39.365001678 18.656999588 4.0000000000 19.000000000 1208.0000000 1.0000000000
 1725.6250000 39.512001038 18.861000061 4.0000000000 19.000000000 1208.0000000 1.0000000000
 1725.7500000 39.333000183 18.997999191 4.0000000000 19.000000000 1208.0000000 1.0000000000
 1725.8750000 39.152999878 18.628999710 4.0000000000 19.000000000 1208.0000000 1.0000000000
 1726.0000000 38.473999023 17.752000809 4.0000000000 19.000000000 1208.0000000 1.0000000000
 1726.1250000 28.035999298 16.906000137 4.0000000000 19.000000000 1208.0000000 1.0000000000
 1726.2500000 25.000999451 16.252000809 4.0000000000 19.000000000 1208.0000000 1.0000000000
 1726.3750000 23.600999832 15.887999535 4.0000000000 19.000000000 1208.0000000 1.0000000000
 1726.5000000 21.274999619 15.696000099 4.0000000000 19.000000000 1208.0000000 1.0000000000
 1726.6250000 19.686000824 15.338000298 4.0000000000 19.000000000 1208.0000000 1.0000000000
 1726.7500000 18.711999893 15.123000145 4.0000000000 19.000000000 1208.0000000 1.0000000000
 1726.8750000 18.253000259 14.949000359 4.0000000000 19.000000000 1208.0000000 1.0000000000
 1727.0000000 17.815999985 14.833999634 4.0000000000 19.000000000 1208.0000000 1.0000000000
 1727.1250000 17.466999054 14.706000328 4.0000000000 19.000000000 1208.0000000 1.0000000000
 1727.2500000 17.110000610 14.604000092 4.0000000000 19.000000000 1208.0000000 1.0000000000
 1727.3750000 16.709999084 14.555000305 4.0000000000 19.000000000 1208.0000000 1.0000000000
 1727.5000000 0.0000000000 14.536999702 4.0000000000 19.000000000 1208.0000000 1.0000000000
 1727.6250000 0.0000000000 14.921999931 4.0000000000 19.000000000 1208.0000000 1.0000000000
 1727.7500000 0.0000000000 15.472999573 4.0000000000 19.000000000 1208.0000000 1.0000000000
 1727.8750000 0.0000000000 16.031999588 4.0000000000 19.000000000 1208.0000000 1.0000000000
 1728.0000000 0.0000000000 16.596000671 4.0000000000 19.000000000 1208.0000000 1.0000000000
 1728.1250000 0.0000000000 17.087999344 4.0000000000 19.000000000 1208.0000000 1.0000000000
 1728.2500000 0.0000000000 17.708999634 4.0000000000 19.000000000 1208.0000000 1.0000000000
 1728.3750000 0.0000000000 18.392999649 4.0000000000 19.000000000 1208.0000000 1.0000000000
 1728.5000000 0.0000000000 19.233999252 4.0000000000 19.000000000 1208.0000000 1.0000000000
 1728.6250000 0.0000000000 20.158000946 4.0000000000 19.000000000 1208.0000000 1.0000000000
 1728.7500000 0.0000000000 21.128000259 4.0000000000 19.000000000 1208.0000000 1.0000000000
 1728.8750000 0.0000000000 22.224000931 4.0000000000 19.000000000 1208.0000000 1.0000000000
 1729.0000000 0.0000000000 23.436000824  -999.250000  -999.250000  -999.250000  -999.250000
 1729.1250000 0.0000000000 24.770999908  -999.250000  -999.250000  -999.250000  -999.250000
 1729.2500000 0.0000000000 26.361000061  -999.250000  -999.250000  -999.250000  -999.250000
 1729.3750000 0.0000000000 28.298000336  -999.250000  -999.250000  -999.250000  -999.250000
 1729.5000000 0.0000000000 30.235000610  -999.250000  -999.250000  -999.250000  -999.250000
 1729.6250000 0.0000000000 31.788000107  -999.250000  -999.250000  -999.250000  -999.250000
 1729.7500000 0.0000000000 33.359001160  -999.250000  -999.250000  -999.250000  -999.250000
 1729.8750000 0.0000000000 34.939998627  -999.250000  -999.250000  -999.250000  -999.250000
 1730.0000000 0.0000000000 36.852001190  -999.250000  -999.250000  -999.250000  -999.250000
 1730.1250000 0.0000000000 38.039001465  -999.250000  -999.250000  -999.250000  -999.250000
 1730.2500000 0.0000000000 37.687000275  -999.250000  -999.250000  -999.250000  -999.250000
 1730.3750000 0.0000000000 36.689998627  -999.250000  -999.250000  -999.250000  -999.250000
 1730.5000000 0.0000000000 10.887000084  -999.250000  -999.250000  -999.250000  -999.250000
