# LAS format log file from PETREL
# Project units are specified as depth units
#==================================================================
~Version information
VERS.   2.0:
WRAP.   NO:
#==================================================================
~Well
STRT .m      1450.0000000 :
STOP .m      1594.0000000 :
STEP .m     0.12500000 :
NULL .        -999.250000 :
COMP.           : COMPANY
WELL.  5-0161   : WELL
FLD.            : FIELD
LOC.            : LOCATION
SRVC.           : SERVICE COMPANY
DATE.  2020-03-08 09:25:09   : Log Export Date {yyyy-MM-dd HH:mm:ss}
PROV.           : PROVINCE
UWI.      : UNIQUE WELL ID
API.            : API NUMBER
#==================================================================
~Curve
DEPT .m                   : DEPTH
RT .ohm.m                 : RT
SP .                      : SP
Fluids .                  : Fluids
POR .m3/m3                : POR
PERM .mD                  : PERM
Lith .                    : Lith
~Parameter
#==================================================================
~Ascii
# ...
 1580.5000000 8.8900003433 23.309999466 4.0000000000 19.000000000 1366.0000000 1.0000000000
 1580.6250000 12.800000191 23.360000610 4.0000000000 19.000000000 1366.0000000 1.0000000000
 1580.7500000 21.090000153 23.260000229 4.0000000000 19.000000000 1366.0000000 1.0000000000
 1580.8750000 24.670000076 23.059999466 4.0000000000 19.000000000 1366.0000000 1.0000000000
 1581.0000000 21.860000610 22.790000916 4.0000000000 19.000000000 1366.0000000 1.0000000000
 1581.1250000 18.309999466 22.510000229 4.0000000000 19.000000000 1366.0000000 1.0000000000
 1581.2500000 11.949999809 22.209999084 4.0000000000 19.000000000 1366.0000000 1.0000000000
 1581.3750000 7.7100000381 21.899999619 4.0000000000 19.000000000 1366.0000000 1.0000000000
 1581.5000000 13.090000153 21.649999619 4.0000000000 19.000000000 1366.0000000 1.0000000000
 1581.6250000 15.369999886 21.510000229 4.0000000000 19.000000000 1366.0000000 1.0000000000
 1581.7500000 18.510000229 21.340000153 4.0000000000 19.000000000 1366.0000000 1.0000000000
 1581.8750000 21.180000305 21.129999161 4.0000000000 19.000000000 1366.0000000 1.0000000000
 1582.0000000 12.569999695 21.020000458 4.0000000000 19.000000000 1366.0000000 1.0000000000
 1582.1250000 12.680000305 20.940000534 4.0000000000 19.000000000 1366.0000000 1.0000000000
 1582.2500000 15.079999924 20.860000610 4.0000000000 19.000000000 1366.0000000 1.0000000000
 1582.3750000 17.170000076 20.719999313 4.0000000000 19.000000000 1366.0000000 1.0000000000
 1582.5000000 21.209999084 20.579999924 4.0000000000 19.000000000 1366.0000000 1.0000000000
 1582.6250000 24.870000839 20.479999542 4.0000000000 19.000000000 1366.0000000 1.0000000000
 1582.7500000 30.629999161 20.459999084 4.0000000000 19.000000000 1366.0000000 1.0000000000
 1582.8750000 30.799999237 20.719999313 4.0000000000 19.000000000 1366.0000000 1.0000000000
 1583.0000000 26.459999084 21.010000229 4.0000000000 19.000000000 1366.0000000 1.0000000000
 1583.1250000 11.789999962 21.280000687 4.0000000000 19.000000000 1366.0000000 1.0000000000
 1583.2500000 11.260000229 21.399999619 4.0000000000 19.000000000 1366.0000000 1.0000000000
 1583.3750000 10.779999733 21.520000458 4.0000000000 19.000000000 1366.0000000 1.0000000000
 1583.5000000 11.250000000 21.649999619 4.0000000000 19.000000000 1366.0000000 1.0000000000
 1583.6250000 12.829999924 21.770000458 4.0000000000 19.000000000 1366.0000000 1.0000000000
 1583.7500000 15.560000420 21.860000610 4.0000000000 19.000000000 1366.0000000 1.0000000000
 1583.8750000 16.360000610 21.809999466 4.0000000000 19.000000000 1366.0000000 1.0000000000
 1584.0000000 11.640000343 21.760000229 4.0000000000 19.000000000 1366.0000000 1.0000000000
 1584.1250000 10.069999695 21.700000763 4.0000000000 19.000000000 1366.0000000 1.0000000000
 1584.2500000 11.270000458 21.610000610 4.0000000000 19.000000000 1366.0000000 1.0000000000
 1584.3750000 12.550000191 21.520000458 4.0000000000 19.000000000 1366.0000000 1.0000000000
 1584.5000000 14.260000229 21.420000076 4.0000000000 19.000000000 1366.0000000 1.0000000000
 1584.6250000 15.300000191 21.329999924 4.0000000000 19.000000000 1366.0000000 1.0000000000
 1584.7500000 13.229999542 21.229999542 4.0000000000 19.000000000 1366.0000000 1.0000000000
 1584.8750000 10.609999657 21.170000076 4.0000000000 19.000000000 1366.0000000 1.0000000000
 1585.0000000 8.4200000763 21.149999619 4.0000000000 19.000000000 1366.0000000 1.0000000000
 1585.1250000 9.0399999619 21.270000458 4.0000000000 19.000000000 1366.0000000 1.0000000000
 1585.2500000 12.640000343 21.389999390 4.0000000000 19.000000000 1366.0000000 1.0000000000
 1585.3750000 17.409999847 21.569999695 4.0000000000 19.000000000 1366.0000000 1.0000000000
 1585.5000000 19.260000229 21.739999771 4.0000000000 19.000000000 1366.0000000 1.0000000000
 1585.6250000 17.959999084 21.899999619 4.0000000000 19.000000000 1366.0000000 1.0000000000
 1585.7500000 13.189999580 22.010000229 4.0000000000 19.000000000 1366.0000000 1.0000000000
 1585.8750000 11.090000153 22.129999161 4.0000000000 19.000000000 1366.0000000 1.0000000000
 1586.0000000 12.390000343 22.159999847 4.0000000000 19.000000000 1366.0000000 1.0000000000
 1586.1250000 13.670000076 22.139999390 4.0000000000 19.000000000 1366.0000000 1.0000000000
 1586.2500000 10.659999847 22.149999619 4.0000000000 19.000000000 1366.0000000 1.0000000000
 1586.3750000 15.079999924 22.270000458 4.0000000000 19.000000000 1366.0000000 1.0000000000
 1586.5000000 18.649999619 22.549999237 4.0000000000 19.000000000 1366.0000000 1.0000000000
 1586.6250000 22.450000763 22.829999924 4.0000000000 19.000000000 1366.0000000 1.0000000000
 1586.7500000 25.770000458 23.110000610 4.0000000000 19.000000000 1366.0000000 1.0000000000
 1586.8750000 14.130000114 23.379999161 4.0000000000 19.000000000 1366.0000000 1.0000000000
 1587.0000000 9.6599998474 23.659999847 4.0000000000 19.000000000 1366.0000000 1.0000000000
 1587.1250000 6.6100001335 23.649999619 4.0000000000 19.000000000 1366.0000000 1.0000000000
 1587.2500000 7.6799998283 23.399999619 4.0000000000 19.000000000 1366.0000000 1.0000000000
 1587.3750000 10.979999542 23.149999619 4.0000000000 19.000000000 1366.0000000 1.0000000000
 1587.5000000 13.670000076 22.889999390 4.0000000000 19.000000000 1366.0000000 1.0000000000
 1587.6250000 15.420000076 22.590000153 4.0000000000 19.000000000 1366.0000000 1.0000000000
 1587.7500000 17.040000916 22.319999695 4.0000000000 19.000000000 1366.0000000 1.0000000000
 1587.8750000 13.579999924 22.120000839 4.0000000000 19.000000000 1366.0000000 1.0000000000
 1588.0000000 8.7399997711 21.950000763 4.0000000000 19.000000000 1366.0000000 1.0000000000
 1588.1250000 8.2399997711 21.889999390 4.0000000000 19.000000000 1366.0000000 1.0000000000
 1588.2500000 9.1099996567 21.860000610 4.0000000000 19.000000000 1366.0000000 1.0000000000
 1588.3750000 11.739999771 21.790000916 4.0000000000 19.000000000 1366.0000000 1.0000000000
 1588.5000000 15.220000267 21.680000305 4.0000000000 19.000000000 1366.0000000 1.0000000000
 1588.6250000 24.760000229 21.440000534 4.0000000000 19.000000000 1366.0000000 1.0000000000
 1588.7500000 27.840000153 21.100000381 4.0000000000 19.000000000 1366.0000000 1.0000000000
 1588.8750000 25.180000305 21.000000000 4.0000000000 19.000000000 1366.0000000 1.0000000000
 1589.0000000 21.229999542 21.110000610 4.0000000000 19.000000000 1366.0000000 1.0000000000
 1589.1250000 14.130000114 21.270000458 4.0000000000 19.000000000 1366.0000000 1.0000000000
 1589.2500000 11.119999886 21.420000076 4.0000000000 19.000000000 1366.0000000 1.0000000000
 1589.3750000 9.5500001907 21.510000229 4.0000000000 19.000000000 1366.0000000 1.0000000000
 1589.5000000 9.6499996185 21.600000381 4.0000000000 19.000000000 1366.0000000 1.0000000000
 1589.6250000 8.8999996185 21.690000534 4.0000000000 19.000000000 1366.0000000 1.0000000000
 1589.7500000 7.9899997711 21.700000763 4.0000000000 19.000000000 1366.0000000 1.0000000000
 1589.8750000 9.5200004578 21.719999313 4.0000000000 19.000000000 1366.0000000 1.0000000000
 1590.0000000 13.210000038 21.350000381 4.0000000000 19.000000000 1366.0000000 1.0000000000
 1590.1250000 17.010000229 20.770000458 4.0000000000 19.000000000 1366.0000000 1.0000000000
 1590.2500000 20.700000763 20.139999390 4.0000000000 19.000000000 1366.0000000 1.0000000000
 1590.3750000 22.319999695 19.340000153 4.0000000000 19.000000000 1366.0000000 1.0000000000
 1590.5000000 17.229999542 18.649999619 4.0000000000 19.000000000 1366.0000000 1.0000000000
 1590.6250000 11.310000420 18.049999237 4.0000000000 19.000000000 1366.0000000 1.0000000000
 1590.7500000 10.300000191 17.500000000 4.0000000000 19.000000000 1366.0000000 1.0000000000
 1590.8750000 13.279999733 17.159999847 4.0000000000 19.000000000 1366.0000000 1.0000000000
 1591.0000000 15.029999733 16.850000381 4.0000000000 19.000000000 1366.0000000 1.0000000000
 1591.1250000 16.540000916 16.659999847 4.0000000000 19.000000000 1366.0000000 1.0000000000
 1591.2500000 18.540000916 16.889999390 4.0000000000 19.000000000 1366.0000000 1.0000000000
