# LAS format log file from PETREL
# Project units are specified as depth units
#==================================================================
~Version information
VERS.   2.0:
WRAP.   NO:
#==================================================================
~Well
STRT .m      1420.0000000 :
STOP .m      1734.8750000 :
STEP .m     0.12500000 :
NULL .        -999.250000 :
COMP.           : COMPANY
WELL.  5-0161C   : WELL
FLD.            : FIELD
LOC.            : LOCATION
SRVC.           : SERVICE COMPANY
DATE.  2020-03-08 09:25:09   : Log Export Date {yyyy-MM-dd HH:mm:ss}
PROV.           : PROVINCE
UWI.      : UNIQUE WELL ID
API.            : API NUMBER
#==================================================================
~Curve
DEPT .m                   : DEPTH
RT .ohm.m                 : RT
SP .                      : SP
Fluids .                  : Fluids
POR .m3/m3                : POR
PERM .mD                  : PERM
Lith .                    : Lith
~Parameter
#==================================================================
~Ascii
# ...
 1604.8750000 3.1229999065 -54.56900024  -999.250000 0.1000000015 0.1000000015 0.0000000000
 1605.0000000 3.0409998894 -54.40299988  -999.250000 0.1000000015 0.1000000015 0.0000000000
 1605.1250000 2.9700000286 -54.43799973  -999.250000 0.1000000015 0.1000000015 0.0000000000
 1605.2500000 2.9690001011 -54.58700180  -999.250000 0.1000000015 0.1000000015 0.0000000000
 1605.3750000 3.3269999027 -54.74700165  -999.250000 0.1000000015 0.1000000015 0.0000000000
 1605.5000000 3.9779999256 -54.80899811  -999.250000 0.1000000015 0.1000000015 0.0000000000
 1605.6250000 4.3559999466 -54.59099960  -999.250000 0.1000000015 0.1000000015 0.0000000000
 1605.7500000 4.4730000496 -53.98199844  -999.250000 0.1000000015 0.1000000015 0.0000000000
 1605.8750000 4.0859999657 -53.16500092  -999.250000 0.1000000015 0.1000000015 0.0000000000
 1606.0000000 3.1080000401 -52.43799973  -999.250000 0.1000000015 0.1000000015 0.0000000000
 1606.1250000 2.3289999962 -52.03200150  -999.250000 0.1000000015 0.1000000015 0.0000000000
 1606.2500000 2.0599999428 -51.89599991  -999.250000 0.1000000015 0.1000000015 0.0000000000
 1606.3750000 1.9600000381 -51.93899918  -999.250000 0.1000000015 0.1000000015 0.0000000000
 1606.5000000 1.9839999676 -52.05899811  -999.250000 0.1000000015 0.1000000015 0.0000000000
 1606.6250000 2.0369999409 -52.17399979  -999.250000 0.1000000015 0.1000000015 0.0000000000
 1606.7500000 2.0450000763 -52.22100067  -999.250000 0.1000000015 0.1000000015 0.0000000000
 1606.8750000 2.0090000629 -52.21500015  -999.250000 0.1000000015 0.1000000015 0.0000000000
 1607.0000000 1.9550000429 -52.24800110  -999.250000 0.1000000015 0.1000000015 0.0000000000
 1607.1250000 1.9140000343 -52.39699936  -999.250000 0.1000000015 0.1000000015 0.0000000000
 1607.2500000 2.1359999180 -52.60900116  -999.250000 0.1000000015 0.1000000015 0.0000000000
 1607.3750000 2.7609999180 -52.64400101  -999.250000 0.1000000015 0.1000000015 0.0000000000
 1607.5000000 3.4760000706 -52.42900085  -999.250000 0.1000000015 0.1000000015 0.0000000000
 1607.6250000 3.9519999027 -52.10100174  -999.250000 0.1000000015 0.1000000015 0.0000000000
 1607.7500000 4.3959999084 -51.89199829  -999.250000 0.1000000015 0.1000000015 0.0000000000
 1607.8750000 4.3109998703 -51.88000107  -999.250000 0.1000000015 0.1000000015 0.0000000000
 1608.0000000 3.8329999447 -51.96200180  -999.250000 0.1000000015 0.1000000015 0.0000000000
 1608.1250000 3.7639999390 -52.02899933  -999.250000 0.1000000015 0.1000000015 0.0000000000
 1608.2500000 3.6319999695 -52.00199890  -999.250000 0.1000000015 0.1000000015 0.0000000000
 1608.3750000 3.3570001125 -51.91199875  -999.250000 0.1000000015 0.1000000015 0.0000000000
 1608.5000000 2.9370000362 -51.83499908  -999.250000 0.1000000015 0.1000000015 0.0000000000
 1608.6250000 2.4519999027 -51.84600067  -999.250000 0.1000000015 0.1000000015 0.0000000000
 1608.7500000 2.0469999313 -51.92200089  -999.250000 0.1000000015 0.1000000015 0.0000000000
 1608.8750000 1.8880000114 -52.01599884  -999.250000 0.1000000015 0.1000000015 0.0000000000
 1609.0000000 1.9279999733 -52.13499832  -999.250000 0.1000000015 0.1000000015 0.0000000000
 1609.1250000 1.9769999981 -52.29000092  -999.250000 0.1000000015 0.1000000015 0.0000000000
 1609.2500000 1.9670000076 -52.54199982  -999.250000 0.1000000015 0.1000000015 0.0000000000
 1609.3750000 1.8509999514 -52.89300156  -999.250000 0.1000000015 0.1000000015 0.0000000000
 1609.5000000 1.6759999990 -53.31600189  -999.250000 0.1000000015 0.1000000015 0.0000000000
 1609.6250000 1.5800000429 -53.64899826  -999.250000 0.1000000015 0.1000000015 0.0000000000
 1609.7500000 1.5549999475 -53.81299973  -999.250000 0.1000000015 0.1000000015 0.0000000000
 1609.8750000 1.6549999714 -53.89799881  -999.250000 0.1000000015 0.1000000015 0.0000000000
 1610.0000000 1.8899999857 -53.89099884  -999.250000 0.1000000015 0.1000000015 0.0000000000
 1610.1250000 2.1749999523 -53.65999985  -999.250000 0.1000000015 0.1000000015 0.0000000000
 1610.2500000 2.6630001068 -53.19400024  -999.250000 0.1000000015 0.1000000015 0.0000000000
 1610.3750000 3.0069999695 -52.76100159  -999.250000 0.1000000015 0.1000000015 0.0000000000
 1610.5000000 3.0810000896 -52.60499954  -999.250000 0.1000000015 0.1000000015 0.0000000000
 1610.6250000 3.0869998932 -52.63600159  -999.250000 0.1000000015 0.1000000015 0.0000000000
 1610.7500000 3.0789999962 -52.65399933  -999.250000 0.1000000015 0.1000000015 0.0000000000
 1610.8750000 3.2360000610 -52.51599884  -999.250000 0.1000000015 0.1000000015 0.0000000000
 1611.0000000 3.3619999886 -52.32899857  -999.250000 0.1000000015 0.1000000015 0.0000000000
 1611.1250000 3.2850000858 -52.19499969  -999.250000 0.1000000015 0.1000000015 0.0000000000
 1611.2500000 3.0220000744 -52.18999863  -999.250000 0.1000000015 0.1000000015 0.0000000000
 1611.3750000 2.5739998817 -52.23500061  -999.250000 0.1000000015 0.1000000015 0.0000000000
 1611.5000000 2.1370000839 -52.28400040  -999.250000 0.1000000015 0.1000000015 0.0000000000
 1611.6250000 1.8869999647 -52.28300095  -999.250000 0.1000000015 0.1000000015 0.0000000000
 1611.7500000 1.7990000248 -52.20299911  -999.250000 0.1000000015 0.1000000015 0.0000000000
 1611.8750000 1.7139999866 -52.06000137  -999.250000 0.1000000015 0.1000000015 0.0000000000
 1612.0000000 1.6089999676 -52.00099945  -999.250000 0.1000000015 0.1000000015 0.0000000000
 1612.1250000 1.6260000467 -52.12699890  -999.250000 0.1000000015 0.1000000015 0.0000000000
 1612.2500000 1.7960000038 -52.52700043  -999.250000 0.1000000015 0.1000000015 0.0000000000
 1612.3750000 1.9960000515 -53.17800140  -999.250000 0.1000000015 0.1000000015 0.0000000000
 1612.5000000 2.3239998817 -53.97399902  -999.250000 0.1000000015 0.1000000015 0.0000000000
 1612.6250000 2.7349998951 -54.68000031  -999.250000 0.1000000015 0.1000000015 0.0000000000
 1612.7500000 3.1380000114 -54.93199921  -999.250000 0.1000000015 0.1000000015 0.0000000000
 1612.8750000 3.4230000973 -54.52799988  -999.250000 0.1000000015 0.1000000015 0.0000000000
 1613.0000000 3.7669999599 -53.71500015  -999.250000 0.1000000015 0.1000000015 0.0000000000
 1613.1250000 4.0450000763 -53.06800079  -999.250000 0.1000000015 0.1000000015 0.0000000000
 1613.2500000 4.1119999886 -52.94900131  -999.250000 0.1000000015 0.1000000015 0.0000000000
 1613.3750000 3.9930000305 -53.22399902  -999.250000 0.1000000015 0.1000000015 0.0000000000
 1613.5000000 3.7980000973 -53.76699829  -999.250000 0.1000000015 0.1000000015 0.0000000000
 1613.6250000 3.6110000610 -54.72999954 3.0000000000 18.000000000 507.00000000 1.0000000000
 1613.7500000 3.5759999752 -56.37799835 3.0000000000 18.000000000 507.00000000 1.0000000000
 1613.8750000 3.7090001106 -58.64599991 3.0000000000 18.000000000 507.00000000 1.0000000000
 1614.0000000 3.8870000839 -61.05400085 3.0000000000 18.000000000 507.00000000 1.0000000000
 1614.1250000 4.0859999657 -63.17399979 3.0000000000 18.000000000 507.00000000 1.0000000000
 1614.2500000 4.2729997635 -64.63600159 3.0000000000 18.000000000 507.00000000 1.0000000000
 1614.3750000 4.4169998169 -65.36599731 3.0000000000 18.000000000 507.00000000 1.0000000000
 1614.5000000 4.5029997826 -65.23600006  -999.250000 0.1000000015 0.1000000015 0.0000000000
 1614.6250000 4.5720000267 -64.24299622  -999.250000 0.1000000015 0.1000000015 0.0000000000
 1614.7500000 4.7630000114 -62.60400009  -999.250000 0.1000000015 0.1000000015 0.0000000000
 1614.8750000 5.2170000076 -60.79999924  -999.250000 0.1000000015 0.1000000015 0.0000000000
 1615.0000000 5.7439999580 -59.41600037  -999.250000 0.1000000015 0.1000000015 0.0000000000
 1615.1250000 6.4159998894 -58.96200180  -999.250000 0.1000000015 0.1000000015 0.0000000000
 1615.2500000 7.1669998169 -59.67499924 4.0000000000 26.000000000 4044.0000000 1.0000000000
 1615.3750000 7.7930002213 -61.45500183 4.0000000000 26.000000000 4044.0000000 1.0000000000
 1615.5000000 8.2770004272 -63.53400040 4.0000000000 26.000000000 4044.0000000 1.0000000000
 1615.6250000 8.6820001602 -65.05699921 4.0000000000 26.000000000 4044.0000000 1.0000000000
