# LAS format log file from PETREL
# Project units are specified as depth units
#==================================================================
~Version information
VERS.   2.0:
WRAP.   NO:
#==================================================================
~Well
STRT .m      1350.0000000 :
STOP .m      1755.0000000 :
STEP .m     0.12500000 :
NULL .        -999.250000 :
COMP.           : COMPANY
WELL.  5-0165C2   : WELL
FLD.            : FIELD
LOC.            : LOCATION
SRVC.           : SERVICE COMPANY
DATE.  2020-03-08 09:25:09   : Log Export Date {yyyy-MM-dd HH:mm:ss}
PROV.           : PROVINCE
UWI.      : UNIQUE WELL ID
API.            : API NUMBER
#==================================================================
~Curve
DEPT .m                   : DEPTH
RT .ohm.m                 : RT
SP .                      : SP
Fluids .                  : Fluids
POR .m3/m3                : POR
PERM .mD                  : PERM
Lith .                    : Lith
~Parameter
#==================================================================
~Ascii
# ...
 1654.5000000 12.053000450 23.271999359 0.0000000000 13.000000000 78.000000000 1.0000000000
 1654.6250000 10.366999626 23.701999664 0.0000000000 13.000000000 78.000000000 1.0000000000
 1654.7500000 8.6800003052 24.083999634 0.0000000000 13.000000000 78.000000000 1.0000000000
 1654.8750000 7.9369997978 24.395999908 0.0000000000 13.000000000 78.000000000 1.0000000000
 1655.0000000 7.3340001106 24.614999771  -999.250000 0.1000000015 0.1000000015 0.0000000000
 1655.1250000 6.8420000076 24.757999420  -999.250000 0.1000000015 0.1000000015 0.0000000000
 1655.2500000 6.3569998741 24.899999619  -999.250000 0.1000000015 0.1000000015 0.0000000000
 1655.3750000 4.2540001869 25.013000488  -999.250000 0.1000000015 0.1000000015 0.0000000000
 1655.5000000 3.9040000439 25.063999176  -999.250000 0.1000000015 0.1000000015 0.0000000000
 1655.6250000 3.6800000668 25.114000320  -999.250000 0.1000000015 0.1000000015 0.0000000000
 1655.7500000 3.4960000515 25.170999527  -999.250000 0.1000000015 0.1000000015 0.0000000000
 1655.8750000 3.5420000553 25.228000641  -999.250000 0.1000000015 0.1000000015 0.0000000000
 1656.0000000 4.1389999390 25.298000336  -999.250000 0.1000000015 0.1000000015 0.0000000000
 1656.1250000 6.2519998550 25.382999420  -999.250000 0.1000000015 0.1000000015 0.0000000000
 1656.2500000 6.6100001335 25.468999863  -999.250000 0.1000000015 0.1000000015 0.0000000000
 1656.3750000 6.8109998703 25.638000488  -999.250000 0.1000000015 0.1000000015 0.0000000000
 1656.5000000 7.0359997749 25.808000565  -999.250000 0.1000000015 0.1000000015 0.0000000000
 1656.6250000 7.2389998436 26.159999847  -999.250000 0.1000000015 0.1000000015 0.0000000000
 1656.7500000 7.4299998283 26.472999573  -999.250000 0.1000000015 0.1000000015 0.0000000000
 1656.8750000 7.5190000534 26.673000336  -999.250000 0.1000000015 0.1000000015 0.0000000000
 1657.0000000 7.4390001297 26.943000793  -999.250000 0.1000000015 0.1000000015 0.0000000000
 1657.1250000 7.3270001411 27.313999176  -999.250000 0.1000000015 0.1000000015 0.0000000000
 1657.2500000 7.2849998474 27.610000610  -999.250000 0.1000000015 0.1000000015 0.0000000000
 1657.3750000 7.2290000916 28.083000183  -999.250000 0.1000000015 0.1000000015 0.0000000000
 1657.5000000 7.3169999123 28.629999161  -999.250000 0.1000000015 0.1000000015 0.0000000000
 1657.6250000 7.4239997864 29.624000549  -999.250000 0.1000000015 0.1000000015 0.0000000000
 1657.7500000 7.1929998398 30.590000153  -999.250000 0.1000000015 0.1000000015 0.0000000000
 1657.8750000 6.9089999199 31.718000412  -999.250000 0.1000000015 0.1000000015 0.0000000000
 1658.0000000 6.6640000343 32.603000641  -999.250000 0.1000000015 0.1000000015 0.0000000000
 1658.1250000 6.3340001106 33.368999481  -999.250000 0.1000000015 0.1000000015 0.0000000000
 1658.2500000 4.7360000610 34.002998352  -999.250000 0.1000000015 0.1000000015 0.0000000000
 1658.3750000 3.9159998894 34.638000488  -999.250000 0.1000000015 0.1000000015 0.0000000000
 1658.5000000 3.6159999371 35.276000977  -999.250000 0.1000000015 0.1000000015 0.0000000000
 1658.6250000 3.5920000076 35.803001404  -999.250000 0.1000000015 0.1000000015 0.0000000000
 1658.7500000 3.7170000076 36.269001007  -999.250000 0.1000000015 0.1000000015 0.0000000000
 1658.8750000 4.9860000610 36.592998505  -999.250000 0.1000000015 0.1000000015 0.0000000000
 1659.0000000 5.1550002098 36.891998291  -999.250000 0.1000000015 0.1000000015 0.0000000000
 1659.1250000 4.9889998436 37.033000946  -999.250000 0.1000000015 0.1000000015 0.0000000000
 1659.2500000 4.8229999542 37.173999786  -999.250000 0.1000000015 0.1000000015 0.0000000000
 1659.3750000 4.5529999733 37.219001770  -999.250000 0.1000000015 0.1000000015 0.0000000000
 1659.5000000 4.2010002136 37.224998474  -999.250000 0.1000000015 0.1000000015 0.0000000000
 1659.6250000 3.7720000744 37.228000641  -999.250000 0.1000000015 0.1000000015 0.0000000000
 1659.7500000 3.3440001011 37.229999542  -999.250000 0.1000000015 0.1000000015 0.0000000000
 1659.8750000 3.3389999866 37.301998138  -999.250000 0.1000000015 0.1000000015 0.0000000000
 1660.0000000 3.1789999008 37.414001465  -999.250000 0.1000000015 0.1000000015 0.0000000000
 1660.1250000 2.8280000687 37.513999939  -999.250000 0.1000000015 0.1000000015 0.0000000000
 1660.2500000 2.2579998970 37.637001038  -999.250000 0.1000000015 0.1000000015 0.0000000000
 1660.3750000 1.8739999533 37.738998413  -999.250000 0.1000000015 0.1000000015 0.0000000000
 1660.5000000 1.5829999447 37.897998810  -999.250000 0.1000000015 0.1000000015 0.0000000000
 1660.6250000 1.3289999962 38.048999786  -999.250000 0.1000000015 0.1000000015 0.0000000000
 1660.7500000 1.6109999418 38.162998199  -999.250000 0.1000000015 0.1000000015 0.0000000000
 1660.8750000 1.8930000067 38.320999146  -999.250000 0.1000000015 0.1000000015 0.0000000000
 1661.0000000 2.2330000401 38.479000092  -999.250000 0.1000000015 0.1000000015 0.0000000000
 1661.1250000 2.5220000744 38.702999115  -999.250000 0.1000000015 0.1000000015 0.0000000000
 1661.2500000 2.7839999199 38.928001404  -999.250000 0.1000000015 0.1000000015 0.0000000000
 1661.3750000 2.5650000572 39.098999023  -999.250000 0.1000000015 0.1000000015 0.0000000000
 1661.5000000 2.3929998875 39.270000458  -999.250000 0.1000000015 0.1000000015 0.0000000000
 1661.6250000 2.2219998837 39.368999481  -999.250000 0.1000000015 0.1000000015 0.0000000000
 1661.7500000 2.2390000820 39.464000702  -999.250000 0.1000000015 0.1000000015 0.0000000000
 1661.8750000 2.2560000420 39.589000702  -999.250000 0.1000000015 0.1000000015 0.0000000000
 1662.0000000 2.6089999676 39.831001282  -999.250000 0.1000000015 0.1000000015 0.0000000000
 1662.1250000 2.7890000343 39.935001373  -999.250000 0.1000000015 0.1000000015 0.0000000000
 1662.2500000 2.8259999752 40.067001343  -999.250000 0.1000000015 0.1000000015 0.0000000000
 1662.3750000 2.7460000515 40.076999664  -999.250000 0.1000000015 0.1000000015 0.0000000000
 1662.5000000 2.5290000439 39.879001617 3.0000000000 12.000000000 49.000000000 1.0000000000
 1662.6250000 1.9559999704 39.501998901 3.0000000000 12.000000000 49.000000000 1.0000000000
 1662.7500000 1.4299999475 39.125999451 3.0000000000 12.000000000 49.000000000 1.0000000000
 1662.8750000 0.9739999771 38.589000702 3.0000000000 12.000000000 49.000000000 1.0000000000
 1663.0000000 0.6880000234 38.115001678 3.0000000000 12.000000000 49.000000000 1.0000000000
 1663.1250000 0.6439999938 37.588001251 3.0000000000 12.000000000 49.000000000 1.0000000000
 1663.2500000 0.6029999852 36.777000427 3.0000000000 12.000000000 49.000000000 1.0000000000
 1663.3750000 0.5630000234 35.807998657 3.0000000000 12.000000000 49.000000000 1.0000000000
 1663.5000000 0.5490000248 34.846000671 3.0000000000 12.000000000 49.000000000 1.0000000000
 1663.6250000 0.5419999957 33.589000702 3.0000000000 12.000000000 49.000000000 1.0000000000
 1663.7500000 0.5730000138 32.486999512 3.0000000000 12.000000000 49.000000000 1.0000000000
 1663.8750000 0.6230000257 31.780000687 3.0000000000 12.000000000 49.000000000 1.0000000000
 1664.0000000 0.7670000196 31.020999908  -999.250000 0.1000000015 0.1000000015 0.0000000000
 1664.1250000 0.8980000019 30.229000092  -999.250000 0.1000000015 0.1000000015 0.0000000000
 1664.2500000 0.9319999814 29.656999588  -999.250000 0.1000000015 0.1000000015 0.0000000000
 1664.3750000 0.8550000191 29.028999329  -999.250000 0.1000000015 0.1000000015 0.0000000000
 1664.5000000 0.7779999971 28.367000580  -999.250000 0.1000000015 0.1000000015 0.0000000000
 1664.6250000 0.6359999776 27.690000534  -999.250000 0.1000000015 0.1000000015 0.0000000000
 1664.7500000 0.7720000148 27.004999161  -999.250000 0.1000000015 0.1000000015 0.0000000000
 1664.8750000 1.4199999571 26.601999283 3.0000000000 12.000000000 107.00000000 1.0000000000
 1665.0000000 2.0669999123 26.200000763 3.0000000000 12.000000000 107.00000000 1.0000000000
 1665.1250000 3.2850000858 25.976999283 3.0000000000 12.000000000 107.00000000 1.0000000000
 1665.2500000 5.5729999542 25.868999481 3.0000000000 12.000000000 107.00000000 1.0000000000
