# LAS format log file from PETREL
# Project units are specified as depth units
#==================================================================
~Version information
VERS.   2.0:
WRAP.   NO:
#==================================================================
~Well
STRT .m      1480.0000000 :
STOP .m      1820.0000000 :
STEP .m     0.12500000 :
NULL .        -999.250000 :
COMP.           : COMPANY
WELL.  5-0165   : WELL
FLD.            : FIELD
LOC.            : LOCATION
SRVC.           : SERVICE COMPANY
DATE.  2020-03-08 09:25:09   : Log Export Date {yyyy-MM-dd HH:mm:ss}
PROV.           : PROVINCE
UWI.      : UNIQUE WELL ID
API.            : API NUMBER
#==================================================================
~Curve
DEPT .m                   : DEPTH
RT .ohm.m                 : RT
SP .                      : SP
Fluids .                  : Fluids
POR .m3/m3                : POR
PERM .mD                  : PERM
Lith .                    : Lith
~Parameter
#==================================================================
~Ascii
# ...
 1719.2500000 1.1510000229 42.212001801  -999.250000 0.1000000015 0.1000000015 0.0000000000
 1719.3750000 1.5269999504 42.171001434 0.0000000000 6.0000000000 2.0000000000 1.0000000000
 1719.5000000 1.9609999657 42.136001587 0.0000000000 6.0000000000 2.0000000000 1.0000000000
 1719.6250000 2.2509999275 42.110000610 0.0000000000 6.0000000000 2.0000000000 1.0000000000
 1719.7500000 2.2439999580 42.096000671 0.0000000000 6.0000000000 2.0000000000 1.0000000000
 1719.8750000 2.1740000248 42.096000671 0.0000000000 6.0000000000 2.0000000000 1.0000000000
 1720.0000000 2.1029999256 42.111000061 0.0000000000 6.0000000000 2.0000000000 1.0000000000
 1720.1250000 1.9429999590 42.139999390 0.0000000000 6.0000000000 2.0000000000 1.0000000000
 1720.2500000 1.7380000353 42.182998657 0.0000000000 6.0000000000 2.0000000000 1.0000000000
 1720.3750000 1.5000000000 42.235000610 0.0000000000 6.0000000000 2.0000000000 1.0000000000
 1720.5000000 1.3049999475 42.291999817 0.0000000000 6.0000000000 2.0000000000 1.0000000000
 1720.6250000 1.1239999533 42.347000122 0.0000000000 6.0000000000 2.0000000000 1.0000000000
 1720.7500000 1.0019999743 42.400001526 0.0000000000 6.0000000000 2.0000000000 1.0000000000
 1720.8750000 1.0529999733 42.445999146 0.0000000000 6.0000000000 2.0000000000 1.0000000000
 1721.0000000 1.0679999590 42.484001160 0.0000000000 6.0000000000 2.0000000000 1.0000000000
 1721.1250000 0.8949999809 42.511001587  -999.250000 0.1000000015 0.1000000015 0.0000000000
 1721.2500000 0.7699999809 42.527000427  -999.250000 0.1000000015 0.1000000015 0.0000000000
 1721.3750000 0.6830000281 42.529998779  -999.250000 0.1000000015 0.1000000015 0.0000000000
 1721.5000000 0.6159999967 42.520000458  -999.250000 0.1000000015 0.1000000015 0.0000000000
 1721.6250000 0.5550000072 42.497001648  -999.250000 0.1000000015 0.1000000015 0.0000000000
 1721.7500000 0.5519999862 42.465000153  -999.250000 0.1000000015 0.1000000015 0.0000000000
 1721.8750000 0.5619999766 42.423999786  -999.250000 0.1000000015 0.1000000015 0.0000000000
 1722.0000000 0.5809999704 42.374000549  -999.250000 0.1000000015 0.1000000015 0.0000000000
 1722.1250000 0.6050000191 42.312999725  -999.250000 0.1000000015 0.1000000015 0.0000000000
 1722.2500000 0.6340000033 42.242000580  -999.250000 0.1000000015 0.1000000015 0.0000000000
 1722.3750000 0.6679999828 42.155998230  -999.250000 0.1000000015 0.1000000015 0.0000000000
 1722.5000000 0.7049999833 42.055000305  -999.250000 0.1000000015 0.1000000015 0.0000000000
 1722.6250000 0.7409999967 41.936000824  -999.250000 0.1000000015 0.1000000015 0.0000000000
 1722.7500000 0.7870000005 41.798000336  -999.250000 0.1000000015 0.1000000015 0.0000000000
 1722.8750000 0.8360000253 41.643001556  -999.250000 0.1000000015 0.1000000015 0.0000000000
 1723.0000000 0.9219999909 41.470001221 4.0000000000 6.0000000000 1.0000000000 1.0000000000
 1723.1250000 1.1440000534 41.284999847 4.0000000000 6.0000000000 1.0000000000 1.0000000000
 1723.2500000 1.4490000010 41.096000671 4.0000000000 6.0000000000 1.0000000000 1.0000000000
 1723.3750000 1.7400000095 40.910999298 4.0000000000 6.0000000000 1.0000000000 1.0000000000
 1723.5000000 2.0329999924 40.743000031 4.0000000000 6.0000000000 1.0000000000 1.0000000000
 1723.6250000 1.6699999571 40.602001190 4.0000000000 6.0000000000 1.0000000000 1.0000000000
 1723.7500000 1.2960000038 40.495998383 4.0000000000 6.0000000000 1.0000000000 1.0000000000
 1723.8750000 0.9670000076 40.426998138 4.0000000000 6.0000000000 1.0000000000 1.0000000000
 1724.0000000 0.7580000162 40.395999908  -999.250000 0.1000000015 0.1000000015 0.0000000000
 1724.1250000 0.6259999871 40.396999359  -999.250000 0.1000000015 0.1000000015 0.0000000000
 1724.2500000 0.7030000091 40.422000885  -999.250000 0.1000000015 0.1000000015 0.0000000000
 1724.3750000 0.7459999919 40.465000153  -999.250000 0.1000000015 0.1000000015 0.0000000000
 1724.5000000 0.7170000076 40.516998291  -999.250000 0.1000000015 0.1000000015 0.0000000000
 1724.6250000 0.6719999909 40.573001862  -999.250000 0.1000000015 0.1000000015 0.0000000000
 1724.7500000 0.6460000277 40.633998871  -999.250000 0.1000000015 0.1000000015 0.0000000000
 1724.8750000 0.7950000167 40.696998596  -999.250000 0.1000000015 0.1000000015 0.0000000000
 1725.0000000 1.0670000315 40.762001038 4.0000000000 7.0000000000 3.0000000000 1.0000000000
 1725.1250000 1.4309999943 40.827999115 4.0000000000 7.0000000000 3.0000000000 1.0000000000
 1725.2500000 1.8940000534 40.895000458 4.0000000000 7.0000000000 3.0000000000 1.0000000000
 1725.3750000 2.1099998951 40.963001251 4.0000000000 7.0000000000 3.0000000000 1.0000000000
 1725.5000000 2.1259999275 41.034999847 4.0000000000 7.0000000000 3.0000000000 1.0000000000
 1725.6250000 1.1759999990 41.109001160  -999.250000  -999.250000  -999.250000  -999.250000
 1725.7500000 0.7659999728 41.188999176  -999.250000  -999.250000  -999.250000  -999.250000
 1725.8750000 0.5509999990 41.273998260  -999.250000  -999.250000  -999.250000  -999.250000
 1726.0000000 0.4720000029 41.368999481  -999.250000  -999.250000  -999.250000  -999.250000
 1726.1250000 0.4629999995 41.477001190  -999.250000  -999.250000  -999.250000  -999.250000
 1726.2500000 0.4970000088 41.599998474  -999.250000  -999.250000  -999.250000  -999.250000
 1726.3750000 0.5410000086 41.736000061  -999.250000  -999.250000  -999.250000  -999.250000
 1726.5000000 0.5799999833 41.882999420  -999.250000  -999.250000  -999.250000  -999.250000
 1726.6250000 0.6039999723 42.030998230  -999.250000  -999.250000  -999.250000  -999.250000
 1726.7500000 0.6219999790 42.173999786  -999.250000  -999.250000  -999.250000  -999.250000
 1726.8750000 0.6240000129 42.308998108  -999.250000  -999.250000  -999.250000  -999.250000
 1727.0000000 0.5970000029 42.435001373  -999.250000  -999.250000  -999.250000  -999.250000
 1727.1250000 0.5460000038 42.554000854  -999.250000  -999.250000  -999.250000  -999.250000
 1727.2500000 0.4990000129 42.668998718  -999.250000  -999.250000  -999.250000  -999.250000
 1727.3750000 0.4629999995 42.780998230  -999.250000  -999.250000  -999.250000  -999.250000
 1727.5000000 0.4440000057 42.889999390  -999.250000  -999.250000  -999.250000  -999.250000
 1727.6250000 0.5230000019 42.997001648  -999.250000  -999.250000  -999.250000  -999.250000
 1727.7500000 0.5899999738 43.103000641  -999.250000  -999.250000  -999.250000  -999.250000
 1727.8750000 0.6299999952 43.208999634  -999.250000  -999.250000  -999.250000  -999.250000
 1728.0000000 0.6079999804 43.313999176  -999.250000  -999.250000  -999.250000  -999.250000
 1728.1250000 0.5839999914 43.416999817  -999.250000  -999.250000  -999.250000  -999.250000
 1728.2500000 0.5609999895 43.514999390  -999.250000  -999.250000  -999.250000  -999.250000
 1728.3750000 0.5410000086 43.604000092  -999.250000  -999.250000  -999.250000  -999.250000
 1728.5000000 0.5889999866 43.687000275  -999.250000  -999.250000  -999.250000  -999.250000
 1728.6250000 0.7020000219 43.763000488  -999.250000  -999.250000  -999.250000  -999.250000
 1728.7500000 0.7900000215 43.837001801  -999.250000  -999.250000  -999.250000  -999.250000
 1728.8750000 0.8410000205 43.915000916  -999.250000  -999.250000  -999.250000  -999.250000
 1729.0000000 0.8230000138 43.999000549  -999.250000  -999.250000  -999.250000  -999.250000
 1729.1250000 0.7340000272 44.095001221  -999.250000  -999.250000  -999.250000  -999.250000
 1729.2500000 0.6549999714 44.205001831  -999.250000  -999.250000  -999.250000  -999.250000
 1729.3750000 0.6039999723 44.327999115  -999.250000  -999.250000  -999.250000  -999.250000
 1729.5000000 0.5680000186 44.464000702  -999.250000  -999.250000  -999.250000  -999.250000
 1729.6250000 0.5509999990 44.610000610  -999.250000  -999.250000  -999.250000  -999.250000
 1729.7500000 0.5500000119 44.763999939  -999.250000  -999.250000  -999.250000  -999.250000
 1729.8750000 0.5529999733 44.924999237  -999.250000  -999.250000  -999.250000  -999.250000
 1730.0000000 0.5559999943 45.091999054  -999.250000  -999.250000  -999.250000  -999.250000
