# LAS format log file from PETREL
# Project units are specified as depth units
#==================================================================
~Version information
VERS.   2.0:
WRAP.   NO:
#==================================================================
~Well
STRT .m      1350.0000000 :
STOP .m      1755.0000000 :
STEP .m     0.12500000 :
NULL .        -999.250000 :
COMP.           : COMPANY
WELL.  5-0165C2   : WELL
FLD.            : FIELD
LOC.            : LOCATION
SRVC.           : SERVICE COMPANY
DATE.  2020-03-08 09:25:09   : Log Export Date {yyyy-MM-dd HH:mm:ss}
PROV.           : PROVINCE
UWI.      : UNIQUE WELL ID
API.            : API NUMBER
#==================================================================
~Curve
DEPT .m                   : DEPTH
RT .ohm.m                 : RT
SP .                      : SP
Fluids .                  : Fluids
POR .m3/m3                : POR
PERM .mD                  : PERM
Lith .                    : Lith
~Parameter
#==================================================================
~Ascii
# ...
 1578.3750000 3.3570001125 24.617000580 4.0000000000 27.000000000 4420.0000000 1.0000000000
 1578.5000000 3.2400000095 23.736999512 4.0000000000 27.000000000 4420.0000000 1.0000000000
 1578.6250000 3.1770000458 22.799999237 4.0000000000 27.000000000 4420.0000000 1.0000000000
 1578.7500000 3.1770000458 22.073999405 4.0000000000 27.000000000 4420.0000000 1.0000000000
 1578.8750000 3.2490000725 21.347999573 4.0000000000 27.000000000 4420.0000000 1.0000000000
 1579.0000000 3.3970000744 20.718999863 4.0000000000 27.000000000 4420.0000000 1.0000000000
 1579.1250000 4.0019998550 20.191999435 4.0000000000 27.000000000 4420.0000000 1.0000000000
 1579.2500000 4.5430002213 19.666000366 4.0000000000 27.000000000 4420.0000000 1.0000000000
 1579.3750000 5.0939998627 18.912000656 4.0000000000 27.000000000 4420.0000000 1.0000000000
 1579.5000000 5.4879999161 18.195999146 4.0000000000 27.000000000 4420.0000000 1.0000000000
 1579.6250000 5.6820001602 17.325000763 4.0000000000 27.000000000 4420.0000000 1.0000000000
 1579.7500000 5.6919999123 16.191999435 4.0000000000 27.000000000 4420.0000000 1.0000000000
 1579.8750000 5.6690001488 15.508000374 4.0000000000 27.000000000 4420.0000000 1.0000000000
 1580.0000000 5.6890001297 14.725000381 4.0000000000 27.000000000 4420.0000000 1.0000000000
 1580.1250000 5.8070001602 13.906000137 4.0000000000 27.000000000 4420.0000000 1.0000000000
 1580.2500000 6.8489999771 13.291000366 4.0000000000 27.000000000 4420.0000000 1.0000000000
 1580.3750000 14.387999535 13.026000023 4.0000000000 27.000000000 4420.0000000 1.0000000000
 1580.5000000 21.927000046 12.958000183 4.0000000000 27.000000000 4420.0000000 1.0000000000
 1580.6250000 21.669000626 12.930000305 4.0000000000 27.000000000 4420.0000000 1.0000000000
 1580.7500000 21.420000076 12.923000336 4.0000000000 27.000000000 4420.0000000 1.0000000000
 1580.8750000 21.097999573 12.920999527 4.0000000000 27.000000000 4420.0000000 1.0000000000
 1581.0000000 20.700000763 12.921999931 4.0000000000 27.000000000 4420.0000000 1.0000000000
 1581.1250000 20.447999954 12.923000336 4.0000000000 27.000000000 4420.0000000 1.0000000000
 1581.2500000 20.172000885 12.925000191 4.0000000000 27.000000000 4420.0000000 1.0000000000
 1581.3750000 20.400999069 12.925999641 4.0000000000 27.000000000 4420.0000000 1.0000000000
 1581.5000000 27.131000519 12.928000450 4.0000000000 27.000000000 4420.0000000 1.0000000000
 1581.6250000 28.684000015 12.928999901 4.0000000000 27.000000000 4420.0000000 1.0000000000
 1581.7500000 28.827999115 13.196000099 4.0000000000 27.000000000 4420.0000000 1.0000000000
 1581.8750000 28.931999207 13.413000107 4.0000000000 27.000000000 4420.0000000 1.0000000000
 1582.0000000 29.076000214 13.661000252 4.0000000000 27.000000000 4420.0000000 1.0000000000
 1582.1250000 29.277999878 13.852000237 4.0000000000 27.000000000 4420.0000000 1.0000000000
 1582.2500000 29.836999893 14.012999535 4.0000000000 27.000000000 4420.0000000 1.0000000000
 1582.3750000 32.972999573 14.362999916 4.0000000000 27.000000000 4420.0000000 1.0000000000
 1582.5000000 36.770999908 14.565999985 4.0000000000 27.000000000 4420.0000000 1.0000000000
 1582.6250000 37.851001740 15.027999878 4.0000000000 27.000000000 4420.0000000 1.0000000000
 1582.7500000 38.227001190 15.411999702 4.0000000000 27.000000000 4420.0000000 1.0000000000
 1582.8750000 38.601001740 15.824999809 4.0000000000 27.000000000 4420.0000000 1.0000000000
 1583.0000000 39.002998352 16.114999771  -999.250000 0.1000000015 0.1000000015 0.0000000000
 1583.1250000 39.423000336 16.405000687  -999.250000 0.1000000015 0.1000000015 0.0000000000
 1583.2500000 39.738998413 16.885999680  -999.250000 0.1000000015 0.1000000015 0.0000000000
 1583.3750000 40.006000519 17.336999893  -999.250000 0.1000000015 0.1000000015 0.0000000000
 1583.5000000 40.217998505 17.670000076  -999.250000 0.1000000015 0.1000000015 0.0000000000
 1583.6250000 40.321998596 18.051000595  -999.250000 0.1000000015 0.1000000015 0.0000000000
 1583.7500000 40.131999969 18.430000305  -999.250000 0.1000000015 0.1000000015 0.0000000000
 1583.8750000 39.958999634 18.832000732  -999.250000 0.1000000015 0.1000000015 0.0000000000
 1584.0000000 39.754001617 19.247999191  -999.250000 0.1000000015 0.1000000015 0.0000000000
 1584.1250000 39.469001770 19.569000244  -999.250000 0.1000000015 0.1000000015 0.0000000000
 1584.2500000 39.034999847 19.920000076  -999.250000 0.1000000015 0.1000000015 0.0000000000
 1584.3750000 21.962999344 20.169000626  -999.250000 0.1000000015 0.1000000015 0.0000000000
 1584.5000000 20.649000168 20.368999481 4.0000000000 22.000000000 2310.0000000 1.0000000000
 1584.6250000 19.933000565 20.611999512 4.0000000000 22.000000000 2310.0000000 1.0000000000
 1584.7500000 19.298999786 20.878000259 4.0000000000 22.000000000 2310.0000000 1.0000000000
 1584.8750000 18.743000031 21.056999207 4.0000000000 22.000000000 2310.0000000 1.0000000000
 1585.0000000 18.264999390 21.160999298 4.0000000000 22.000000000 2310.0000000 1.0000000000
 1585.1250000 17.746000290 21.291000366 4.0000000000 22.000000000 2310.0000000 1.0000000000
 1585.2500000 17.027999878 21.304000854 4.0000000000 22.000000000 2310.0000000 1.0000000000
 1585.3750000 9.9189996719 21.195999146 4.0000000000 22.000000000 2310.0000000 1.0000000000
 1585.5000000 6.4079999924 21.011999130 4.0000000000 22.000000000 2310.0000000 1.0000000000
 1585.6250000 5.1729998589 20.781000137 4.0000000000 22.000000000 2310.0000000 1.0000000000
 1585.7500000 4.4530000687 20.520000458 4.0000000000 22.000000000 2310.0000000 1.0000000000
 1585.8750000 4.0859999657 20.114000320 4.0000000000 22.000000000 2310.0000000 1.0000000000
 1586.0000000 4.0310001373 19.549999237 4.0000000000 22.000000000 2310.0000000 1.0000000000
 1586.1250000 4.1510000229 18.819000244 4.0000000000 22.000000000 2310.0000000 1.0000000000
 1586.2500000 4.3369998932 18.309000015 4.0000000000 22.000000000 2310.0000000 1.0000000000
 1586.3750000 4.5949997902 17.774000168 4.0000000000 22.000000000 2310.0000000 1.0000000000
 1586.5000000 4.9310002327 17.226999283 4.0000000000 22.000000000 2310.0000000 1.0000000000
 1586.6250000 5.5879998207 16.676000595 4.0000000000 22.000000000 2310.0000000 1.0000000000
 1586.7500000 6.1960000992 16.181999207 4.0000000000 22.000000000 2310.0000000 1.0000000000
 1586.8750000 7.6420001984 15.661000252 4.0000000000 22.000000000 2310.0000000 1.0000000000
 1587.0000000 9.1180000305 15.125000000 4.0000000000 22.000000000 2310.0000000 1.0000000000
 1587.1250000 10.723999977 14.737999916 4.0000000000 22.000000000 2310.0000000 1.0000000000
 1587.2500000 12.064999580 14.241999626 4.0000000000 22.000000000 2310.0000000 1.0000000000
 1587.3750000 14.998000145 13.810000420 4.0000000000 22.000000000 2310.0000000 1.0000000000
 1587.5000000 16.343999863 13.616999626 4.0000000000 22.000000000 2310.0000000 1.0000000000
 1587.6250000 21.194999695 13.361000061 4.0000000000 22.000000000 2310.0000000 1.0000000000
 1587.7500000 22.361000061 13.151000023 4.0000000000 22.000000000 2310.0000000 1.0000000000
 1587.8750000 22.537000656 12.980999947 4.0000000000 22.000000000 2310.0000000 1.0000000000
 1588.0000000 22.430000305 12.744999886 4.0000000000 22.000000000 2310.0000000 1.0000000000
 1588.1250000 21.919000626 12.623999596 4.0000000000 22.000000000 2310.0000000 1.0000000000
 1588.2500000 21.207000732 12.493000031 4.0000000000 22.000000000 2310.0000000 1.0000000000
 1588.3750000 16.972000122 12.357000351 4.0000000000 22.000000000 2310.0000000 1.0000000000
 1588.5000000 12.737000465 12.192999840 4.0000000000 22.000000000 2310.0000000 1.0000000000
 1588.6250000 12.769000053 12.029000282 4.0000000000 22.000000000 2310.0000000 1.0000000000
 1588.7500000 12.800000191 11.888999939 4.0000000000 22.000000000 2310.0000000 1.0000000000
 1588.8750000 13.262999535 11.821000099 4.0000000000 22.000000000 2310.0000000 1.0000000000
 1589.0000000 14.074999809 11.793999672 4.0000000000 22.000000000 2310.0000000 1.0000000000
 1589.1250000 21.198999405 11.692000389 4.0000000000 22.000000000 2310.0000000 1.0000000000
