# LAS format log file from PETREL
# Project units are specified as depth units
#==================================================================
~Version information
VERS.   2.0:
WRAP.   NO:
#==================================================================
~Well
STRT .m      730.00000000 :
STOP .m      1729.5000000 :
STEP .m     0.12500000 :
NULL .        -999.250000 :
COMP.           : COMPANY
WELL.  5-0163   : WELL
FLD.            : FIELD
LOC.            : LOCATION
SRVC.           : SERVICE COMPANY
DATE.  2020-03-08 09:25:09   : Log Export Date {yyyy-MM-dd HH:mm:ss}
PROV.           : PROVINCE
UWI.      : UNIQUE WELL ID
API.            : API NUMBER
#==================================================================
~Curve
DEPT .m                   : DEPTH
RT .ohm.m                 : RT
SP .                      : SP
Fluids .                  : Fluids
POR .m3/m3                : POR
PERM .mD                  : PERM
Lith .                    : Lith
~Parameter
#==================================================================
~Ascii
# ...
 1621.7500000 20.957000732 -9999.000000 2.0000000000 16.000000000 192.00000000 1.0000000000
 1621.8750000 20.342500687 -9999.000000 2.0000000000 16.000000000 192.00000000 1.0000000000
 1622.0000000 19.728000641 -9999.000000 2.0000000000 16.000000000 192.00000000 1.0000000000
 1622.1250000 19.510299683 -9999.000000 2.0000000000 16.000000000 192.00000000 1.0000000000
 1622.2500000 19.292499542 -9999.000000 2.0000000000 16.000000000 192.00000000 1.0000000000
 1622.3750000 19.074800491 -9999.000000 2.0000000000 16.000000000 192.00000000 1.0000000000
 1622.5000000 18.857000351 -9999.000000 2.0000000000 16.000000000 192.00000000 1.0000000000
 1622.6250000 19.192499161 -9999.000000 2.0000000000 16.000000000 192.00000000 1.0000000000
 1622.7500000 19.527999878 -9999.000000 2.0000000000 16.000000000 192.00000000 1.0000000000
 1622.8750000 19.863500595 -9999.000000 2.0000000000 16.000000000 192.00000000 1.0000000000
 1623.0000000 20.198999405 -9999.000000 2.0000000000 16.000000000 192.00000000 1.0000000000
 1623.1250000 19.263999939 -9999.000000 2.0000000000 16.000000000 192.00000000 1.0000000000
 1623.2500000 18.329000473 -9999.000000 2.0000000000 16.000000000 192.00000000 1.0000000000
 1623.3750000 17.393999100 -9999.000000 2.0000000000 16.000000000 192.00000000 1.0000000000
 1623.5000000 16.458999634 -9999.000000 2.0000000000 16.000000000 192.00000000 1.0000000000
 1623.6250000 16.756200790 -9999.000000 2.0000000000 16.000000000 192.00000000 1.0000000000
 1623.7500000 17.053499222 -9999.000000 2.0000000000 16.000000000 192.00000000 1.0000000000
 1623.8750000 17.350799561 -9999.000000 2.0000000000 16.000000000 192.00000000 1.0000000000
 1624.0000000 17.648000717 -9999.000000 2.0000000000 16.000000000 192.00000000 1.0000000000
 1624.1250000 18.887800217 -9999.000000 2.0000000000 16.000000000 192.00000000 1.0000000000
 1624.2500000 20.127500534 -9999.000000 2.0000000000 16.000000000 192.00000000 1.0000000000
 1624.3750000 21.367300034 -9999.000000 2.0000000000 16.000000000 192.00000000 1.0000000000
 1624.5000000 22.607000351 -9999.000000 2.0000000000 16.000000000 192.00000000 1.0000000000
 1624.6250000 22.882499695 -9999.000000 2.0000000000 16.000000000 192.00000000 1.0000000000
 1624.7500000 23.158000946 -9999.000000 2.0000000000 16.000000000 192.00000000 1.0000000000
 1624.8750000 23.433500290 -9999.000000 2.0000000000 16.000000000 192.00000000 1.0000000000
 1625.0000000 23.708999634 -9999.000000 2.0000000000 16.000000000 192.00000000 1.0000000000
 1625.1250000 23.931999207 -9999.000000 2.0000000000 16.000000000 192.00000000 1.0000000000
 1625.2500000 24.155000687 -9999.000000 2.0000000000 16.000000000 192.00000000 1.0000000000
 1625.3750000 24.378000259 -9999.000000 2.0000000000 16.000000000 192.00000000 1.0000000000
 1625.5000000 24.600999832 -9999.000000 2.0000000000 16.000000000 192.00000000 1.0000000000
 1625.6250000 22.037000656 -9999.000000 2.0000000000 16.000000000 192.00000000 1.0000000000
 1625.7500000 19.472999573 -9999.000000 2.0000000000 16.000000000 192.00000000 1.0000000000
 1625.8750000 16.909000397 -9999.000000 2.0000000000 16.000000000 192.00000000 1.0000000000
 1626.0000000 14.345000267 -9999.000000 2.0000000000 16.000000000 192.00000000 1.0000000000
 1626.1250000 15.648799896 -9999.000000 2.0000000000 16.000000000 192.00000000 1.0000000000
 1626.2500000 16.952499390 -9999.000000 2.0000000000 16.000000000 192.00000000 1.0000000000
 1626.3750000 18.256200790 -9999.000000 2.0000000000 16.000000000 192.00000000 1.0000000000
 1626.5000000 19.559999466 -9999.000000 2.0000000000 16.000000000 192.00000000 1.0000000000
 1626.6250000 22.395500183 -9999.000000 2.0000000000 16.000000000 192.00000000 1.0000000000
 1626.7500000 25.231000900 -9999.000000 2.0000000000 16.000000000 192.00000000 1.0000000000
 1626.8750000 28.066499710 -9999.000000 2.0000000000 16.000000000 192.00000000 1.0000000000
 1627.0000000 30.902000427 -9999.000000 2.0000000000 16.000000000 192.00000000 1.0000000000
 1627.1250000 29.373800278 -9999.000000 2.0000000000 16.000000000 192.00000000 1.0000000000
 1627.2500000 27.845500946 -9999.000000 2.0000000000 16.000000000 192.00000000 1.0000000000
 1627.3750000 26.317199707 -9999.000000 2.0000000000 16.000000000 192.00000000 1.0000000000
 1627.5000000 24.788999557 -9999.000000 2.0000000000 16.000000000 192.00000000 1.0000000000
 1627.6250000 23.402000427 -9999.000000 2.0000000000 16.000000000 192.00000000 1.0000000000
 1627.7500000 22.014999390 -9999.000000 2.0000000000 16.000000000 192.00000000 1.0000000000
 1627.8750000 20.628000259 -9999.000000 2.0000000000 16.000000000 192.00000000 1.0000000000
 1628.0000000 19.240999222 -9999.000000 2.0000000000 16.000000000 192.00000000 1.0000000000
 1628.1250000 19.948999405 -9999.000000 2.0000000000 16.000000000 192.00000000 1.0000000000
 1628.2500000 20.656999588 -9999.000000 2.0000000000 16.000000000 192.00000000 1.0000000000
 1628.3750000 21.364999771 -9999.000000 2.0000000000 16.000000000 192.00000000 1.0000000000
 1628.5000000 22.072999954 -9999.000000 2.0000000000 16.000000000 192.00000000 1.0000000000
 1628.6250000 22.047000885 -9999.000000 2.0000000000 16.000000000 192.00000000 1.0000000000
 1628.7500000 22.020999908 -9999.000000 2.0000000000 16.000000000 192.00000000 1.0000000000
 1628.8750000 21.995000839 -9999.000000 2.0000000000 16.000000000 192.00000000 1.0000000000
 1629.0000000 21.968999863 -9999.000000 2.0000000000 16.000000000 192.00000000 1.0000000000
 1629.1250000 22.388500214 -9999.000000 2.0000000000 16.000000000 192.00000000 1.0000000000
 1629.2500000 22.808000565 -9999.000000 2.0000000000 16.000000000 192.00000000 1.0000000000
 1629.3750000 23.227500916 -9999.000000 2.0000000000 16.000000000 192.00000000 1.0000000000
 1629.5000000 23.646999359 -9999.000000 2.0000000000 16.000000000 192.00000000 1.0000000000
 1629.6250000 23.320699692 -9999.000000 2.0000000000 16.000000000 192.00000000 1.0000000000
 1629.7500000 22.994499207 -9999.000000 2.0000000000 16.000000000 192.00000000 1.0000000000
 1629.8750000 22.668199539 -9999.000000 2.0000000000 16.000000000 192.00000000 1.0000000000
 1630.0000000 22.341999054 -9999.000000 2.0000000000 16.000000000 192.00000000 1.0000000000
 1630.1250000 22.847700119 -9999.000000 2.0000000000 16.000000000 192.00000000 1.0000000000
 1630.2500000 23.353500366 -9999.000000 2.0000000000 16.000000000 192.00000000 1.0000000000
 1630.3750000 23.859199524 -9999.000000 2.0000000000 16.000000000 192.00000000 1.0000000000
 1630.5000000 24.364999771 -9999.000000 2.0000000000 16.000000000 192.00000000 1.0000000000
 1630.6250000 24.547500610 -9999.000000 2.0000000000 16.000000000 192.00000000 1.0000000000
 1630.7500000 24.729999542 -9999.000000 2.0000000000 16.000000000 192.00000000 1.0000000000
 1630.8750000 24.912500381 -9999.000000 2.0000000000 16.000000000 192.00000000 1.0000000000
 1631.0000000 25.094999313 -9999.000000 2.0000000000 16.000000000 192.00000000 1.0000000000
 1631.1250000 24.989200592 -9999.000000 2.0000000000 16.000000000 192.00000000 1.0000000000
 1631.2500000 24.883499146 -9999.000000 2.0000000000 16.000000000 192.00000000 1.0000000000
 1631.3750000 24.777799606 -9999.000000 2.0000000000 16.000000000 192.00000000 1.0000000000
 1631.5000000 24.672000885 -9999.000000 2.0000000000 16.000000000 192.00000000 1.0000000000
 1631.6250000 25.201499939 -9999.000000 2.0000000000 16.000000000 192.00000000 1.0000000000
 1631.7500000 25.731000900 -9999.000000 2.0000000000 16.000000000 192.00000000 1.0000000000
 1631.8750000 26.260499954 -9999.000000 2.0000000000 16.000000000 192.00000000 1.0000000000
 1632.0000000 26.790000916 -9999.000000 2.0000000000 16.000000000 192.00000000 1.0000000000
 1632.1250000 23.671499252 -9999.000000 2.0000000000 16.000000000 192.00000000 1.0000000000
 1632.2500000 20.552999496 -9999.000000 2.0000000000 16.000000000 192.00000000 1.0000000000
 1632.3750000 17.434499741 -9999.000000 2.0000000000 16.000000000 192.00000000 1.0000000000
 1632.5000000 14.315999985 -9999.000000 2.0000000000 16.000000000 192.00000000 1.0000000000
