# LAS format log file from PETREL
# Project units are specified as depth units
#==================================================================
~Version information
VERS.   2.0:
WRAP.   NO:
#==================================================================
~Well
STRT .m      1450.0000000 :
STOP .m      1760.0000000 :
STEP .m     0.12500000 :
NULL .        -999.250000 :
COMP.           : COMPANY
WELL.  5-0172C   : WELL
FLD.            : FIELD
LOC.            : LOCATION
SRVC.           : SERVICE COMPANY
DATE.  2020-03-08 09:25:09   : Log Export Date {yyyy-MM-dd HH:mm:ss}
PROV.           : PROVINCE
UWI.      : UNIQUE WELL ID
API.            : API NUMBER
#==================================================================
~Curve
DEPT .m                   : DEPTH
RT .ohm.m                 : RT
SP .                      : SP
Fluids .                  : Fluids
POR .m3/m3                : POR
PERM .mD                  : PERM
Lith .                    : Lith
~Parameter
#==================================================================
~Ascii
# ...
 1624.0000000 38.676998138 6.1149997711 4.0000000000 27.000000000 7270.0000000 1.0000000000
 1624.1250000 38.773998260 6.1119999886 4.0000000000 27.000000000 7270.0000000 1.0000000000
 1624.2500000 38.859001160 6.1090002060 4.0000000000 27.000000000 7270.0000000 1.0000000000
 1624.3750000 38.842998505 6.0710000992 4.0000000000 27.000000000 7270.0000000 1.0000000000
 1624.5000000 38.660999298 6.0510001183 4.0000000000 27.000000000 7270.0000000 1.0000000000
 1624.6250000 38.210998535 6.0409998894 4.0000000000 27.000000000 7270.0000000 1.0000000000
 1624.7500000 37.416999817 6.0359997749 4.0000000000 27.000000000 7270.0000000 1.0000000000
 1624.8750000 36.638000488 6.0320000648 4.0000000000 27.000000000 7270.0000000 1.0000000000
 1625.0000000 35.869998932 6.0289998055 4.0000000000 27.000000000 7270.0000000 1.0000000000
 1625.1250000 35.356998444 6.0260000229 4.0000000000 27.000000000 7270.0000000 1.0000000000
 1625.2500000 34.242000580 6.0729999542 4.0000000000 27.000000000 7270.0000000 1.0000000000
 1625.3750000 33.097999573 6.1209998131 4.0000000000 27.000000000 7270.0000000 1.0000000000
 1625.5000000 30.454999924 6.1319999695 4.0000000000 27.000000000 7270.0000000 1.0000000000
 1625.6250000 29.795999527 6.1350002289 4.0000000000 27.000000000 7270.0000000 1.0000000000
 1625.7500000 29.545000076 6.1339998245 4.0000000000 27.000000000 7270.0000000 1.0000000000
 1625.8750000 29.476999283 6.1319999695 4.0000000000 27.000000000 7270.0000000 1.0000000000
 1626.0000000 29.444999695 6.1300001144 4.0000000000 27.000000000 7270.0000000 1.0000000000
 1626.1250000 29.392999649 6.1269998550 4.0000000000 27.000000000 7270.0000000 1.0000000000
 1626.2500000 29.283000946 6.1589999199 4.0000000000 27.000000000 7270.0000000 1.0000000000
 1626.3750000 29.122999191 6.2119998932 4.0000000000 27.000000000 7270.0000000 1.0000000000
 1626.5000000 28.955999374 6.2610001564 4.0000000000 27.000000000 7270.0000000 1.0000000000
 1626.6250000 28.711000443 6.3600001335 4.0000000000 27.000000000 7270.0000000 1.0000000000
 1626.7500000 28.419000626 6.4580001831 4.0000000000 27.000000000 7270.0000000 1.0000000000
 1626.8750000 28.103000641 6.5799999237 4.0000000000 27.000000000 7270.0000000 1.0000000000
 1627.0000000 27.836000443 6.6859998703 4.0000000000 27.000000000 7270.0000000 1.0000000000
 1627.1250000 27.329000473 6.8470001221 4.0000000000 27.000000000 7270.0000000 1.0000000000
 1627.2500000 26.107000351 6.9679999352 4.0000000000 27.000000000 7270.0000000 1.0000000000
 1627.3750000 24.754999161 7.1009998322 4.0000000000 27.000000000 7270.0000000 1.0000000000
 1627.5000000 24.024999619 7.2039999962 4.0000000000 27.000000000 7270.0000000 1.0000000000
 1627.6250000 23.565999985 7.2699999809 4.0000000000 27.000000000 7270.0000000 1.0000000000
 1627.7500000 23.260000229 7.3400001526 4.0000000000 27.000000000 7270.0000000 1.0000000000
 1627.8750000 22.981000900 7.4109997749  -999.250000 0.1000000015 0.1000000015 0.0000000000
 1628.0000000 22.666999817 7.4829998016  -999.250000 0.1000000015 0.1000000015 0.0000000000
 1628.1250000 22.273000717 7.5359997749 3.0000000000 15.000000000 385.00000000 1.0000000000
 1628.2500000 21.759000778 7.6009998322 3.0000000000 15.000000000 385.00000000 1.0000000000
 1628.3750000 21.610000610 7.6710000038 3.0000000000 15.000000000 385.00000000 1.0000000000
 1628.5000000 21.621000290 7.7220001221 3.0000000000 15.000000000 385.00000000 1.0000000000
 1628.6250000 21.787000656 7.7360000610 3.0000000000 15.000000000 385.00000000 1.0000000000
 1628.7500000 22.142999649 7.7360000610 3.0000000000 15.000000000 385.00000000 1.0000000000
 1628.8750000 23.209999084 7.7329998016 3.0000000000 15.000000000 385.00000000 1.0000000000
 1629.0000000 23.561000824 7.6880002022 3.0000000000 15.000000000 385.00000000 1.0000000000
 1629.1250000 23.989999771 7.5980000496 3.0000000000 15.000000000 385.00000000 1.0000000000
 1629.2500000 24.357000351 7.4699997902 3.0000000000 15.000000000 385.00000000 1.0000000000
 1629.3750000 24.542999268 7.3220000267 3.0000000000 15.000000000 385.00000000 1.0000000000
 1629.5000000 24.694999695 7.2270002365 3.0000000000 15.000000000 385.00000000 1.0000000000
 1629.6250000 24.531000137 7.1209998131 3.0000000000 15.000000000 385.00000000 1.0000000000
 1629.7500000 23.767999649 6.9739999771 3.0000000000 15.000000000 385.00000000 1.0000000000
 1629.8750000 22.410999298 6.9079999924 3.0000000000 15.000000000 385.00000000 1.0000000000
 1630.0000000 18.978000641 6.8429999352 3.0000000000 15.000000000 385.00000000 1.0000000000
 1630.1250000 16.940999985 6.7630000114 3.0000000000 15.000000000 385.00000000 1.0000000000
 1630.2500000 15.293000221 6.7259998322 3.0000000000 15.000000000 385.00000000 1.0000000000
 1630.3750000 14.659999847 6.6620001793 3.0000000000 15.000000000 385.00000000 1.0000000000
 1630.5000000 14.286000252 6.5850000381 3.0000000000 15.000000000 385.00000000 1.0000000000
 1630.6250000 14.043000221 6.5789999962 3.0000000000 15.000000000 385.00000000 1.0000000000
 1630.7500000 13.831000328 6.5749998093 3.0000000000 15.000000000 385.00000000 1.0000000000
 1630.8750000 13.755999565 6.5720000267 3.0000000000 15.000000000 385.00000000 1.0000000000
 1631.0000000 13.727000237 6.5130000114 3.0000000000 15.000000000 385.00000000 1.0000000000
 1631.1250000 13.762999535 6.4780001640 3.0000000000 15.000000000 385.00000000 1.0000000000
 1631.2500000 13.968000412 6.4429998398 3.0000000000 15.000000000 385.00000000 1.0000000000
 1631.3750000 14.173999786 6.4369997978 3.0000000000 15.000000000 385.00000000 1.0000000000
 1631.5000000 14.451000214 6.4340000153 3.0000000000 15.000000000 385.00000000 1.0000000000
 1631.6250000 14.826999664 6.4310002327 3.0000000000 15.000000000 385.00000000 1.0000000000
 1631.7500000 15.218000412 6.4800000191 3.0000000000 15.000000000 385.00000000 1.0000000000
 1631.8750000 15.586000443 6.4840002060 3.0000000000 15.000000000 385.00000000 1.0000000000
 1632.0000000 15.942999840 6.5339999199 3.0000000000 15.000000000 385.00000000 1.0000000000
 1632.1250000 16.451000214 6.5419998169 3.0000000000 15.000000000 385.00000000 1.0000000000
 1632.2500000 16.878000259 6.6869997978 3.0000000000 15.000000000 385.00000000 1.0000000000
 1632.3750000 16.847999573 6.8020000458 3.0000000000 15.000000000 385.00000000 1.0000000000
 1632.5000000 16.818000793 6.9660000801 3.0000000000 15.000000000 385.00000000 1.0000000000
 1632.6250000 16.413000107 7.1220002174 3.0000000000 15.000000000 385.00000000 1.0000000000
 1632.7500000 15.935999870 7.2719998360 3.0000000000 15.000000000 385.00000000 1.0000000000
 1632.8750000 15.465000153 7.4200000763 3.0000000000 15.000000000 385.00000000 1.0000000000
 1633.0000000 14.996999741 7.5669999123 3.0000000000 15.000000000 385.00000000 1.0000000000
 1633.1250000 14.567000389 7.7140002251 3.0000000000 15.000000000 385.00000000 1.0000000000
 1633.2500000 14.194000244 7.9010000229 3.0000000000 15.000000000 385.00000000 1.0000000000
 1633.3750000 13.807999611 8.1079998016 3.0000000000 15.000000000 385.00000000 1.0000000000
 1633.5000000 13.461999893 8.2309999466 3.0000000000 15.000000000 385.00000000 1.0000000000
 1633.6250000 13.100000381 8.4099998474 3.0000000000 15.000000000 385.00000000 1.0000000000
 1633.7500000 12.793999672 8.5190000534 3.0000000000 15.000000000 385.00000000 1.0000000000
 1633.8750000 12.472999573 8.6599998474 3.0000000000 15.000000000 385.00000000 1.0000000000
 1634.0000000 12.279000282 8.8050003052 3.0000000000 15.000000000 385.00000000 1.0000000000
 1634.1250000 12.085000038 9.0039997101 3.0000000000 15.000000000 385.00000000 1.0000000000
 1634.2500000 11.831000328 9.2550001144 3.0000000000 15.000000000 385.00000000 1.0000000000
 1634.3750000 11.607999802 9.4139995575 3.0000000000 15.000000000 385.00000000 1.0000000000
 1634.5000000 11.449999809 9.5729999542 3.0000000000 15.000000000 385.00000000 1.0000000000
 1634.6250000 11.307000160 9.7559995651 3.0000000000 15.000000000 385.00000000 1.0000000000
 1634.7500000 11.133999825 9.9969997406 3.0000000000 15.000000000 385.00000000 1.0000000000
