# LAS format log file from PETREL
# Project units are specified as depth units
#==================================================================
~Version information
VERS.   2.0:
WRAP.   NO:
#==================================================================
~Well
STRT .m      1450.0000000 :
STOP .m      1760.0000000 :
STEP .m     0.12500000 :
NULL .        -999.250000 :
COMP.           : COMPANY
WELL.  5-0172C   : WELL
FLD.            : FIELD
LOC.            : LOCATION
SRVC.           : SERVICE COMPANY
DATE.  2020-03-08 09:25:09   : Log Export Date {yyyy-MM-dd HH:mm:ss}
PROV.           : PROVINCE
UWI.      : UNIQUE WELL ID
API.            : API NUMBER
#==================================================================
~Curve
DEPT .m                   : DEPTH
RT .ohm.m                 : RT
SP .                      : SP
Fluids .                  : Fluids
POR .m3/m3                : POR
PERM .mD                  : PERM
Lith .                    : Lith
~Parameter
#==================================================================
~Ascii
# ...
 1667.5000000 55.914001465 9.5850000381 4.0000000000 23.000000000 3152.0000000 1.0000000000
 1667.6250000 56.001998901 9.6859998703 4.0000000000 23.000000000 3152.0000000 1.0000000000
 1667.7500000 56.118999481 9.7880001068 4.0000000000 23.000000000 3152.0000000 1.0000000000
 1667.8750000 56.215999603 9.8459997177 4.0000000000 23.000000000 3152.0000000 1.0000000000
 1668.0000000 56.430999756 9.9040002823 4.0000000000 23.000000000 3152.0000000 1.0000000000
 1668.1250000 56.436000824 9.9040002823 4.0000000000 23.000000000 3152.0000000 1.0000000000
 1668.2500000 56.442001343 9.9580001831 4.0000000000 23.000000000 3152.0000000 1.0000000000
 1668.3750000 56.249000549 10.006999969 4.0000000000 23.000000000 3152.0000000 1.0000000000
 1668.5000000 56.020000458 10.053999901 4.0000000000 23.000000000 3152.0000000 1.0000000000
 1668.6250000 55.791000366 10.067000389 4.0000000000 23.000000000 3152.0000000 1.0000000000
 1668.7500000 55.549999237 10.071999550 4.0000000000 23.000000000 3152.0000000 1.0000000000
 1668.8750000 55.298000336 10.071000099 4.0000000000 23.000000000 3152.0000000 1.0000000000
 1669.0000000 54.937000275 10.069000244 4.0000000000 23.000000000 3152.0000000 1.0000000000
 1669.1250000 54.290000916 10.067000389 4.0000000000 23.000000000 3152.0000000 1.0000000000
 1669.2500000 53.472999573 10.064000130 4.0000000000 23.000000000 3152.0000000 1.0000000000
 1669.3750000 52.991001129 10.060999870 4.0000000000 23.000000000 3152.0000000 1.0000000000
 1669.5000000 52.727001190 10.057999611 4.0000000000 23.000000000 3152.0000000 1.0000000000
 1669.6250000 52.539001465 10.055000305 4.0000000000 23.000000000 3152.0000000 1.0000000000
 1669.7500000 52.446998596 10.052000046 4.0000000000 23.000000000 3152.0000000 1.0000000000
 1669.8750000 52.407001495 10.048999786 4.0000000000 23.000000000 3152.0000000 1.0000000000
 1670.0000000 52.327999115 10.046999931 4.0000000000 23.000000000 3152.0000000 1.0000000000
 1670.1250000 52.423000336 10.083999634 4.0000000000 23.000000000 3152.0000000 1.0000000000
 1670.2500000 52.574001312 10.128999710 4.0000000000 23.000000000 3152.0000000 1.0000000000
 1670.3750000 52.699001312 10.144000053 4.0000000000 23.000000000 3152.0000000 1.0000000000
 1670.5000000 52.799999237 10.151000023 4.0000000000 23.000000000 3152.0000000 1.0000000000
 1670.6250000 52.959999084 10.192000389 4.0000000000 23.000000000 3152.0000000 1.0000000000
 1670.7500000 53.083000183 10.251000404 4.0000000000 23.000000000 3152.0000000 1.0000000000
 1670.8750000 53.308998108 10.302000046 4.0000000000 23.000000000 3152.0000000 1.0000000000
 1671.0000000 52.979999542 10.406999588 4.0000000000 23.000000000 3152.0000000 1.0000000000
 1671.1250000 52.567001343 10.491000175 4.0000000000 23.000000000 3152.0000000 1.0000000000
 1671.2500000 52.262001038 10.505000114 4.0000000000 23.000000000 3152.0000000 1.0000000000
 1671.3750000 51.805000305 10.555000305 4.0000000000 23.000000000 3152.0000000 1.0000000000
 1671.5000000 51.062000275 10.621999741 4.0000000000 23.000000000 3152.0000000 1.0000000000
 1671.6250000 50.585998535 10.708000183 4.0000000000 23.000000000 3152.0000000 1.0000000000
 1671.7500000 50.203998566 10.795000076 4.0000000000 23.000000000 3152.0000000 1.0000000000
 1671.8750000 49.992000580 10.902000427 4.0000000000 23.000000000 3152.0000000 1.0000000000
 1672.0000000 49.792999268 10.973999977 4.0000000000 23.000000000 3152.0000000 1.0000000000
 1672.1250000 49.825000763 11.045999527 4.0000000000 23.000000000 3152.0000000 1.0000000000
 1672.2500000 49.958999634 11.104000092 4.0000000000 23.000000000 3152.0000000 1.0000000000
 1672.3750000 50.201999664 11.161999702 4.0000000000 23.000000000 3152.0000000 1.0000000000
 1672.5000000 50.521999359 11.220000267 4.0000000000 23.000000000 3152.0000000 1.0000000000
 1672.6250000 50.841999054 11.277000427 4.0000000000 23.000000000 3152.0000000 1.0000000000
 1672.7500000 51.354999542 11.279000282 4.0000000000 23.000000000 3152.0000000 1.0000000000
 1672.8750000 52.201999664 11.237999916 4.0000000000 23.000000000 3152.0000000 1.0000000000
 1673.0000000 53.174999237 11.173999786 4.0000000000 23.000000000 3152.0000000 1.0000000000
 1673.1250000 53.630001068 11.098999977 4.0000000000 23.000000000 3152.0000000 1.0000000000
 1673.2500000 53.952999115 10.996000290 4.0000000000 23.000000000 3152.0000000 1.0000000000
 1673.3750000 54.104000092 10.854999542 4.0000000000 23.000000000 3152.0000000 1.0000000000
 1673.5000000 54.048999786 10.602999687 4.0000000000 23.000000000 3152.0000000 1.0000000000
 1673.6250000 53.895999908 10.359999657 4.0000000000 23.000000000 3152.0000000 1.0000000000
 1673.7500000 53.777000427 10.145000458 4.0000000000 23.000000000 3152.0000000 1.0000000000
 1673.8750000 53.658000946 9.8540000916 4.0000000000 23.000000000 3152.0000000 1.0000000000
 1674.0000000 53.816001892 9.6890001297 4.0000000000 23.000000000 3152.0000000 1.0000000000
 1674.1250000 54.076000214 9.5279998779 4.0000000000 23.000000000 3152.0000000 1.0000000000
 1674.2500000 54.390998840 9.3680000305 4.0000000000 23.000000000 3152.0000000 1.0000000000
 1674.3750000 54.787998199 9.2519998550 4.0000000000 23.000000000 3152.0000000 1.0000000000
 1674.5000000 55.340999603 9.1090002060 4.0000000000 23.000000000 3152.0000000 1.0000000000
 1674.6250000 56.205001831 9.0139999390 4.0000000000 23.000000000 3152.0000000 1.0000000000
 1674.7500000 56.955001831 8.9490003586 4.0000000000 23.000000000 3152.0000000 1.0000000000
 1674.8750000 57.881999969 8.8830003738 4.0000000000 23.000000000 3152.0000000 1.0000000000
 1675.0000000 58.691001892 8.8409996033 4.0000000000 23.000000000 3152.0000000 1.0000000000
 1675.1250000 60.780998230 8.8240003586 4.0000000000 23.000000000 3152.0000000 1.0000000000
 1675.2500000 61.816001892 8.8140001297 4.0000000000 23.000000000 3152.0000000 1.0000000000
 1675.3750000 61.930999756 8.8400001526 4.0000000000 23.000000000 3152.0000000 1.0000000000
 1675.5000000 62.046001434 8.8529996872 4.0000000000 23.000000000 3152.0000000 1.0000000000
 1675.6250000 61.922000885 8.8970003128 4.0000000000 23.000000000 3152.0000000 1.0000000000
 1675.7500000 61.660999298 8.9580001831 4.0000000000 23.000000000 3152.0000000 1.0000000000
 1675.8750000 61.402000427 9.0270004272 4.0000000000 23.000000000 3152.0000000 1.0000000000
 1676.0000000 61.125999451 9.0780000687 4.0000000000 23.000000000 3152.0000000 1.0000000000
 1676.1250000 60.840999603 9.1429996490 4.0000000000 23.000000000 3152.0000000 1.0000000000
 1676.2500000 60.478000641 9.2139997482 4.0000000000 23.000000000 3152.0000000 1.0000000000
 1676.3750000 60.089000702 9.2629995346 4.0000000000 23.000000000 3152.0000000 1.0000000000
 1676.5000000 59.916999817 9.3290004730 4.0000000000 23.000000000 3152.0000000 1.0000000000
 1676.6250000 59.915000916 9.3879995346 4.0000000000 23.000000000 3152.0000000 1.0000000000
 1676.7500000 60.063999176 9.4460000992 4.0000000000 23.000000000 3152.0000000 1.0000000000
 1676.8750000 60.287998199 9.4829998016 4.0000000000 23.000000000 3152.0000000 1.0000000000
 1677.0000000 60.668998718 9.5260000229 4.0000000000 23.000000000 3152.0000000 1.0000000000
 1677.1250000 61.374000549 9.5719995499 4.0000000000 23.000000000 3152.0000000 1.0000000000
 1677.2500000 62.013000488 9.6180000305 4.0000000000 23.000000000 3152.0000000 1.0000000000
 1677.3750000 62.513000488 9.6850004196 4.0000000000 23.000000000 3152.0000000 1.0000000000
 1677.5000000 62.965999603 9.6840000153 4.0000000000 23.000000000 3152.0000000 1.0000000000
 1677.6250000 63.240001678 9.7229995728 4.0000000000 23.000000000 3152.0000000 1.0000000000
 1677.7500000 63.416999817 9.7679996490 4.0000000000 23.000000000 3152.0000000 1.0000000000
 1677.8750000 63.553001404 9.7880001068 4.0000000000 23.000000000 3152.0000000 1.0000000000
 1678.0000000 63.617000580 9.7910003662 4.0000000000 23.000000000 3152.0000000 1.0000000000
 1678.1250000 63.477001190 9.7919998169 4.0000000000 23.000000000 3152.0000000 1.0000000000
 1678.2500000 62.888000488 9.7899999619 4.0000000000 23.000000000 3152.0000000 1.0000000000
