# LAS format log file from PETREL
# Project units are specified as depth units
#==================================================================
~Version information
VERS.   2.0:
WRAP.   NO:
#==================================================================
~Well
STRT .m      1338.0000000 :
STOP .m      1710.0000000 :
STEP .m     0.12500000 :
NULL .        -999.250000 :
COMP.           : COMPANY
WELL.  5-0162C2   : WELL
FLD.            : FIELD
LOC.            : LOCATION
SRVC.           : SERVICE COMPANY
DATE.  2020-03-08 09:25:09   : Log Export Date {yyyy-MM-dd HH:mm:ss}
PROV.           : PROVINCE
UWI.      : UNIQUE WELL ID
API.            : API NUMBER
#==================================================================
~Curve
DEPT .m                   : DEPTH
RT .ohm.m                 : RT
SP .                      : SP
Fluids .                  : Fluids
POR .m3/m3                : POR
PERM .mD                  : PERM
Lith .                    : Lith
~Parameter
#==================================================================
~Ascii
# ...
 1599.0000000 2.6500000954 -35.74000168  -999.250000 0.1000000015 0.1000000015 0.0000000000
 1599.1250000 2.7500000000 -35.86999893  -999.250000 0.1000000015 0.1000000015 0.0000000000
 1599.2500000 2.8099999428 -35.97999954  -999.250000 0.1000000015 0.1000000015 0.0000000000
 1599.3750000 2.8499999046 -36.06000137  -999.250000 0.1000000015 0.1000000015 0.0000000000
 1599.5000000 2.7899999619 -36.11999893  -999.250000 0.1000000015 0.1000000015 0.0000000000
 1599.6250000 2.6700000763 -36.15000153  -999.250000 0.1000000015 0.1000000015 0.0000000000
 1599.7500000 2.5799999237 -36.16999817  -999.250000 0.1000000015 0.1000000015 0.0000000000
 1599.8750000 2.5599999428 -36.18000031  -999.250000 0.1000000015 0.1000000015 0.0000000000
 1600.0000000 2.5699999332 -36.20000076  -999.250000 0.1000000015 0.1000000015 0.0000000000
 1600.1250000 2.5299999714 -36.25000000  -999.250000 0.1000000015 0.1000000015 0.0000000000
 1600.2500000 2.4900000095 -36.33000183  -999.250000 0.1000000015 0.1000000015 0.0000000000
 1600.3750000 2.4300000668 -36.49000168  -999.250000 0.1000000015 0.1000000015 0.0000000000
 1600.5000000 2.3699998856 -36.72999954  -999.250000 0.1000000015 0.1000000015 0.0000000000
 1600.6250000 2.3399999142 -37.06999969  -999.250000 0.1000000015 0.1000000015 0.0000000000
 1600.7500000 2.3800001144 -37.50999832  -999.250000 0.1000000015 0.1000000015 0.0000000000
 1600.8750000 2.4700000286 -38.00999832  -999.250000 0.1000000015 0.1000000015 0.0000000000
 1601.0000000 2.5699999332 -38.58000183  -999.250000 0.1000000015 0.1000000015 0.0000000000
 1601.1250000 2.7100000381 -39.25000000  -999.250000 0.1000000015 0.1000000015 0.0000000000
 1601.2500000 2.8900001049 -39.99000168  -999.250000 0.1000000015 0.1000000015 0.0000000000
 1601.3750000 3.1400001049 -40.77999878  -999.250000 0.1000000015 0.1000000015 0.0000000000
 1601.5000000 3.5899999142 -41.56999969  -999.250000 0.1000000015 0.1000000015 0.0000000000
 1601.6250000 4.3099999428 -42.36000061  -999.250000 0.1000000015 0.1000000015 0.0000000000
 1601.7500000 5.3000001907 -43.18999863  -999.250000 0.1000000015 0.1000000015 0.0000000000
 1601.8750000 6.3699998856 -44.02000046  -999.250000 0.1000000015 0.1000000015 0.0000000000
 1602.0000000 7.0799999237 -44.77000046  -999.250000 0.1000000015 0.1000000015 0.0000000000
 1602.1250000 7.1700000763 -45.41999817  -999.250000 0.1000000015 0.1000000015 0.0000000000
 1602.2500000 6.8499999046 -46.02000046  -999.250000 0.1000000015 0.1000000015 0.0000000000
 1602.3750000 6.4899997711 -46.63999939  -999.250000 0.1000000015 0.1000000015 0.0000000000
 1602.5000000 6.2399997711 -47.27999878  -999.250000 0.1000000015 0.1000000015 0.0000000000
 1602.6250000 6.4299998283 -47.93999863  -999.250000 0.1000000015 0.1000000015 0.0000000000
 1602.7500000 7.5500001907 -48.61999893 3.0000000000 18.000000000 344.00000000 1.0000000000
 1602.8750000 9.4700002670 -49.33000183 3.0000000000 18.000000000 344.00000000 1.0000000000
 1603.0000000 11.470000267 -50.00999832 3.0000000000 18.000000000 344.00000000 1.0000000000
 1603.1250000 13.380000114 -50.59000015 3.0000000000 18.000000000 344.00000000 1.0000000000
 1603.2500000 15.149999619 -50.97999954 3.0000000000 18.000000000 344.00000000 1.0000000000
 1603.3750000 16.239999771 -51.16999817 3.0000000000 18.000000000 344.00000000 1.0000000000
 1603.5000000 15.569999695 -51.15000153 3.0000000000 18.000000000 344.00000000 1.0000000000
 1603.6250000 12.850000381 -50.93999863 3.0000000000 18.000000000 344.00000000 1.0000000000
 1603.7500000 9.3299999237 -50.58000183 3.0000000000 18.000000000 344.00000000 1.0000000000
 1603.8750000 6.3600001335 -50.20999908  -999.250000 0.1000000015 0.1000000015 0.0000000000
 1604.0000000 4.7600002289 -49.93999863  -999.250000 0.1000000015 0.1000000015 0.0000000000
 1604.1250000 4.3400001526 -49.81000137  -999.250000 0.1000000015 0.1000000015 0.0000000000
 1604.2500000 4.9200000763 -49.86000061  -999.250000 0.1000000015 0.1000000015 0.0000000000
 1604.3750000 6.3899998665 -50.11999893  -999.250000 0.1000000015 0.1000000015 0.0000000000
 1604.5000000 8.3199996948 -50.56000137 3.0000000000 13.000000000 88.000000000 1.0000000000
 1604.6250000 10.189999580 -51.13999939 3.0000000000 13.000000000 88.000000000 1.0000000000
 1604.7500000 11.300000191 -51.77000046 3.0000000000 13.000000000 88.000000000 1.0000000000
 1604.8750000 11.210000038 -52.36999893 3.0000000000 13.000000000 88.000000000 1.0000000000
 1605.0000000 10.079999924 -52.91999817 3.0000000000 13.000000000 88.000000000 1.0000000000
 1605.1250000 8.8999996185 -53.41999817 3.0000000000 13.000000000 88.000000000 1.0000000000
 1605.2500000 8.1999998093 -53.86000061 3.0000000000 13.000000000 88.000000000 1.0000000000
 1605.3750000 7.6700000763 -54.29999924 3.0000000000 13.000000000 88.000000000 1.0000000000
 1605.5000000 7.1399998665 -54.83000183  -999.250000 0.1000000015 0.1000000015 0.0000000000
 1605.6250000 7.0300002098 -55.50999832  -999.250000 0.1000000015 0.1000000015 0.0000000000
 1605.7500000 7.6399998665 -56.34000015  -999.250000 0.1000000015 0.1000000015 0.0000000000
 1605.8750000 9.0100002289 -57.31999969  -999.250000 0.1000000015 0.1000000015 0.0000000000
 1606.0000000 11.229999542 -58.43999863 3.0000000000 19.000000000 277.00000000 1.0000000000
 1606.1250000 13.729999542 -59.66999817 3.0000000000 19.000000000 277.00000000 1.0000000000
 1606.2500000 15.340000153 -60.97000122 3.0000000000 19.000000000 277.00000000 1.0000000000
 1606.3750000 15.439999580 -62.31000137 3.0000000000 19.000000000 277.00000000 1.0000000000
 1606.5000000 15.140000343 -63.65000153 3.0000000000 19.000000000 277.00000000 1.0000000000
 1606.6250000 16.020000458 -64.94000244 3.0000000000 19.000000000 277.00000000 1.0000000000
 1606.7500000 18.579999924 -66.16999817 3.0000000000 19.000000000 277.00000000 1.0000000000
 1606.8750000 22.010000229 -67.30999756 3.0000000000 19.000000000 277.00000000 1.0000000000
 1607.0000000 25.700000763 -68.36000061 4.0000000000 19.000000000 267.00000000 1.0000000000
 1607.1250000 29.219999313 -69.30999756 4.0000000000 19.000000000 267.00000000 1.0000000000
 1607.2500000 32.000000000 -70.16999817 4.0000000000 19.000000000 267.00000000 1.0000000000
 1607.3750000 33.130001068 -70.94000244 4.0000000000 19.000000000 267.00000000 1.0000000000
 1607.5000000 32.619998932 -71.61000061 4.0000000000 19.000000000 267.00000000 1.0000000000
 1607.6250000 31.520000458 -72.22000122 4.0000000000 19.000000000 267.00000000 1.0000000000
 1607.7500000 30.750000000 -72.80999756 4.0000000000 19.000000000 267.00000000 1.0000000000
 1607.8750000 30.530000687 -73.37999725 4.0000000000 19.000000000 267.00000000 1.0000000000
 1608.0000000 31.180000305 -73.91999817 4.0000000000 19.000000000 267.00000000 1.0000000000
 1608.1250000 33.330001831 -74.41000366 4.0000000000 19.000000000 267.00000000 1.0000000000
 1608.2500000 37.540000916 -74.86000061 4.0000000000 19.000000000 267.00000000 1.0000000000
 1608.3750000 43.779998779 -75.27999878 4.0000000000 19.000000000 267.00000000 1.0000000000
 1608.5000000 51.369998932 -75.65000153 4.0000000000 19.000000000 267.00000000 1.0000000000
 1608.6250000 59.279998779 -75.95999908 4.0000000000 19.000000000 267.00000000 1.0000000000
 1608.7500000 63.759998322 -76.19999695 4.0000000000 19.000000000 267.00000000 1.0000000000
 1608.8750000 62.880001068 -76.37999725 4.0000000000 19.000000000 267.00000000 1.0000000000
 1609.0000000 56.639999390 -76.48000336 4.0000000000 19.000000000 267.00000000 1.0000000000
 1609.1250000 48.959999084 -76.51999664 4.0000000000 19.000000000 267.00000000 1.0000000000
 1609.2500000 43.009998322 -76.50000000 4.0000000000 19.000000000 267.00000000 1.0000000000
 1609.3750000 40.000000000 -76.44000244 4.0000000000 19.000000000 267.00000000 1.0000000000
 1609.5000000 39.029998779 -76.34999847 4.0000000000 19.000000000 267.00000000 1.0000000000
 1609.6250000 38.759998322 -76.25000000 4.0000000000 19.000000000 267.00000000 1.0000000000
 1609.7500000 38.610000610 -76.15000153 4.0000000000 19.000000000 267.00000000 1.0000000000
