# LAS format log file from PETREL
# Project units are specified as depth units
#==================================================================
~Version information
VERS.   2.0:
WRAP.   NO:
#==================================================================
~Well
STRT .m      730.00000000 :
STOP .m      1729.5000000 :
STEP .m     0.12500000 :
NULL .        -999.250000 :
COMP.           : COMPANY
WELL.  5-0163   : WELL
FLD.            : FIELD
LOC.            : LOCATION
SRVC.           : SERVICE COMPANY
DATE.  2020-03-08 09:25:09   : Log Export Date {yyyy-MM-dd HH:mm:ss}
PROV.           : PROVINCE
UWI.      : UNIQUE WELL ID
API.            : API NUMBER
#==================================================================
~Curve
DEPT .m                   : DEPTH
RT .ohm.m                 : RT
SP .                      : SP
Fluids .                  : Fluids
POR .m3/m3                : POR
PERM .mD                  : PERM
Lith .                    : Lith
~Parameter
#==================================================================
~Ascii
# ...
 1687.0000000 24.638000488 -9999.000000 3.0000000000 9.0000000000 15.000000000 1.0000000000
 1687.1250000 22.290300369 -9999.000000 3.0000000000 9.0000000000 15.000000000 1.0000000000
 1687.2500000 19.942499161 -9999.000000 3.0000000000 9.0000000000 15.000000000 1.0000000000
 1687.3750000 17.594699860 -9999.000000 3.0000000000 9.0000000000 15.000000000 1.0000000000
 1687.5000000 15.246999741 -9999.000000 3.0000000000 9.0000000000 15.000000000 1.0000000000
 1687.6250000 15.340200424 -9999.000000 3.0000000000 9.0000000000 15.000000000 1.0000000000
 1687.7500000 15.433500290 -9999.000000 3.0000000000 9.0000000000 15.000000000 1.0000000000
 1687.8750000 15.526700020 -9999.000000 3.0000000000 9.0000000000 15.000000000 1.0000000000
 1688.0000000 15.619999886 -9999.000000 3.0000000000 9.0000000000 15.000000000 1.0000000000
 1688.1250000 15.216699600 -9999.000000 3.0000000000 9.0000000000 15.000000000 1.0000000000
 1688.2500000 14.813500404 -9999.000000 3.0000000000 9.0000000000 15.000000000 1.0000000000
 1688.3750000 14.410200119 -9999.000000 3.0000000000 9.0000000000 15.000000000 1.0000000000
 1688.5000000 14.006999969 -9999.000000 3.0000000000 9.0000000000 15.000000000 1.0000000000
 1688.6250000 14.203499794 -9999.000000 3.0000000000 9.0000000000 15.000000000 1.0000000000
 1688.7500000 14.399999619 -9999.000000 3.0000000000 9.0000000000 15.000000000 1.0000000000
 1688.8750000 14.596500397 -9999.000000 3.0000000000 9.0000000000 15.000000000 1.0000000000
 1689.0000000 14.793000221 -9999.000000 3.0000000000 9.0000000000 15.000000000 1.0000000000
 1689.1250000 16.023000717 -9999.000000 3.0000000000 9.0000000000 15.000000000 1.0000000000
 1689.2500000 17.253000259 -9999.000000 3.0000000000 9.0000000000 15.000000000 1.0000000000
 1689.3750000 18.482999802 -9999.000000 3.0000000000 9.0000000000 15.000000000 1.0000000000
 1689.5000000 19.712999344 -9999.000000 3.0000000000 9.0000000000 15.000000000 1.0000000000
 1689.6250000 18.511199951 -9999.000000 3.0000000000 9.0000000000 15.000000000 1.0000000000
 1689.7500000 17.309499741 -9999.000000 3.0000000000 9.0000000000 15.000000000 1.0000000000
 1689.8750000 16.107700348 -9999.000000 3.0000000000 9.0000000000 15.000000000 1.0000000000
 1690.0000000 14.906000137 -9999.000000 3.0000000000 9.0000000000 15.000000000 1.0000000000
 1690.1250000 15.304499626 -9999.000000 3.0000000000 9.0000000000 15.000000000 1.0000000000
 1690.2500000 15.703000069 -9999.000000 3.0000000000 9.0000000000 15.000000000 1.0000000000
 1690.3750000 16.101499557 -9999.000000 3.0000000000 9.0000000000 15.000000000 1.0000000000
 1690.5000000 16.500000000 -9999.000000 3.0000000000 9.0000000000 15.000000000 1.0000000000
 1690.6250000 16.878499985 -9999.000000 3.0000000000 9.0000000000 15.000000000 1.0000000000
 1690.7500000 17.256999969 -9999.000000 3.0000000000 9.0000000000 15.000000000 1.0000000000
 1690.8750000 17.635499954 -9999.000000 3.0000000000 9.0000000000 15.000000000 1.0000000000
 1691.0000000 18.013999939 -9999.000000 3.0000000000 9.0000000000 15.000000000 1.0000000000
 1691.1250000 16.467199326 -9999.000000 3.0000000000 9.0000000000 15.000000000 1.0000000000
 1691.2500000 14.920499802 -9999.000000 3.0000000000 9.0000000000 15.000000000 1.0000000000
 1691.3750000 13.373700142 -9999.000000 3.0000000000 9.0000000000 15.000000000 1.0000000000
 1691.5000000 11.826999664 -9999.000000 3.0000000000 9.0000000000 15.000000000 1.0000000000
 1691.6250000 12.375000000 -9999.000000 3.0000000000 9.0000000000 15.000000000 1.0000000000
 1691.7500000 12.923000336 -9999.000000 3.0000000000 9.0000000000 15.000000000 1.0000000000
 1691.8750000 13.470999718 -9999.000000 3.0000000000 9.0000000000 15.000000000 1.0000000000
 1692.0000000 14.019000053 -9999.000000 3.0000000000 9.0000000000 15.000000000 1.0000000000
 1692.1250000 13.831199646 -9999.000000 3.0000000000 9.0000000000 15.000000000 1.0000000000
 1692.2500000 13.643500328 -9999.000000 3.0000000000 9.0000000000 15.000000000 1.0000000000
 1692.3750000 13.455699921 -9999.000000 3.0000000000 9.0000000000 15.000000000 1.0000000000
 1692.5000000 13.267999649 -9999.000000 3.0000000000 9.0000000000 15.000000000 1.0000000000
 1692.6250000 13.142700195 -9999.000000 3.0000000000 9.0000000000 15.000000000 1.0000000000
 1692.7500000 13.017499924 -9999.000000 3.0000000000 9.0000000000 15.000000000 1.0000000000
 1692.8750000 12.892299652 -9999.000000 3.0000000000 9.0000000000 15.000000000 1.0000000000
 1693.0000000 12.767000198 -9999.000000 3.0000000000 9.0000000000 15.000000000 1.0000000000
 1693.1250000 13.064299583 -9999.000000 3.0000000000 9.0000000000 15.000000000 1.0000000000
 1693.2500000 13.361499786 -9999.000000 3.0000000000 9.0000000000 15.000000000 1.0000000000
 1693.3750000 13.658800125 -9999.000000 3.0000000000 9.0000000000 15.000000000 1.0000000000
 1693.5000000 13.956000328 -9999.000000 3.0000000000 9.0000000000 15.000000000 1.0000000000
 1693.6250000 13.263999939 -9999.000000 3.0000000000 9.0000000000 15.000000000 1.0000000000
 1693.7500000 12.571999550 -9999.000000 3.0000000000 9.0000000000 15.000000000 1.0000000000
 1693.8750000 11.880000114 -9999.000000 3.0000000000 9.0000000000 15.000000000 1.0000000000
 1694.0000000 11.187999725 -9999.000000 3.0000000000 9.0000000000 15.000000000 1.0000000000
 1694.1250000 12.850199699 -9999.000000 3.0000000000 9.0000000000 15.000000000 1.0000000000
 1694.2500000 14.512499809 -9999.000000 3.0000000000 9.0000000000 15.000000000 1.0000000000
 1694.3750000 16.174699783 -9999.000000 3.0000000000 9.0000000000 15.000000000 1.0000000000
 1694.5000000 17.836999893 -9999.000000 3.0000000000 9.0000000000 15.000000000 1.0000000000
 1694.6250000 18.351200104 -9999.000000 3.0000000000 9.0000000000 15.000000000 1.0000000000
 1694.7500000 18.865499496 -9999.000000 3.0000000000 9.0000000000 15.000000000 1.0000000000
 1694.8750000 19.379699707 -9999.000000 3.0000000000 9.0000000000 15.000000000 1.0000000000
 1695.0000000 19.893999100 -9999.000000 3.0000000000 9.0000000000 15.000000000 1.0000000000
 1695.1250000 20.777000427 -9999.000000 3.0000000000 9.0000000000 15.000000000 1.0000000000
 1695.2500000 21.659999847 -9999.000000 3.0000000000 9.0000000000 15.000000000 1.0000000000
 1695.3750000 22.542999268 -9999.000000 3.0000000000 9.0000000000 15.000000000 1.0000000000
 1695.5000000 23.426000595 -9999.000000 3.0000000000 9.0000000000 15.000000000 1.0000000000
 1695.6250000 23.327299118 -9999.000000 3.0000000000 9.0000000000 15.000000000 1.0000000000
 1695.7500000 23.228500366 -9999.000000 3.0000000000 9.0000000000 15.000000000 1.0000000000
 1695.8750000 23.129800797 -9999.000000 3.0000000000 9.0000000000 15.000000000 1.0000000000
 1696.0000000 23.031000137 -9999.000000 3.0000000000 9.0000000000 15.000000000 1.0000000000
 1696.1250000 20.575000763 -9999.000000 3.0000000000 9.0000000000 15.000000000 1.0000000000
 1696.2500000 18.118999481 -9999.000000 3.0000000000 9.0000000000 15.000000000 1.0000000000
 1696.3750000 15.663000107 -9999.000000 3.0000000000 9.0000000000 15.000000000 1.0000000000
 1696.5000000 13.206999779 -9999.000000  -999.250000 0.1000000015 0.1000000015 0.0000000000
 1696.6250000 10.812000275 -9999.000000  -999.250000 0.1000000015 0.1000000015 0.0000000000
 1696.7500000 8.4169998169 -9999.000000  -999.250000 0.1000000015 0.1000000015 0.0000000000
 1696.8750000 6.0219998360 -9999.000000  -999.250000 0.1000000015 0.1000000015 0.0000000000
 1697.0000000 3.6270000935 -9999.000000  -999.250000 0.1000000015 0.1000000015 0.0000000000
 1697.1250000 3.7439999580 -9999.000000  -999.250000 0.1000000015 0.1000000015 0.0000000000
 1697.2500000 3.8610000610 -9999.000000  -999.250000 0.1000000015 0.1000000015 0.0000000000
 1697.3750000 3.9779999256 -9999.000000  -999.250000 0.1000000015 0.1000000015 0.0000000000
 1697.5000000 4.0949997902 -9999.000000  -999.250000 0.1000000015 0.1000000015 0.0000000000
 1697.6250000 3.6649999619 -9999.000000  -999.250000 0.1000000015 0.1000000015 0.0000000000
 1697.7500000 3.2349998951 -9999.000000  -999.250000 0.1000000015 0.1000000015 0.0000000000
