# LAS format log file from PETREL
# Project units are specified as depth units
#==================================================================
~Version information
VERS.   2.0:
WRAP.   NO:
#==================================================================
~Well
STRT .m      1480.0000000 :
STOP .m      1820.0000000 :
STEP .m     0.12500000 :
NULL .        -999.250000 :
COMP.           : COMPANY
WELL.  5-0165   : WELL
FLD.            : FIELD
LOC.            : LOCATION
SRVC.           : SERVICE COMPANY
DATE.  2020-03-08 09:25:09   : Log Export Date {yyyy-MM-dd HH:mm:ss}
PROV.           : PROVINCE
UWI.      : UNIQUE WELL ID
API.            : API NUMBER
#==================================================================
~Curve
DEPT .m                   : DEPTH
RT .ohm.m                 : RT
SP .                      : SP
Fluids .                  : Fluids
POR .m3/m3                : POR
PERM .mD                  : PERM
Lith .                    : Lith
~Parameter
#==================================================================
~Ascii
# ...
 1643.1250000 2.3519999981 45.597000122 4.0000000000 15.000000000 512.00000000 1.0000000000
 1643.2500000 2.4189999104 45.638999939 4.0000000000 15.000000000 512.00000000 1.0000000000
 1643.3750000 2.7339999676 45.685001373 4.0000000000 15.000000000 512.00000000 1.0000000000
 1643.5000000 3.0290000439 45.734001160 4.0000000000 15.000000000 512.00000000 1.0000000000
 1643.6250000 3.2869999409 45.785999298 4.0000000000 15.000000000 512.00000000 1.0000000000
 1643.7500000 3.5510001183 45.840000153 4.0000000000 15.000000000 512.00000000 1.0000000000
 1643.8750000 3.7060000896 45.895999908 4.0000000000 15.000000000 512.00000000 1.0000000000
 1644.0000000 3.8080000877 45.953998566 4.0000000000 15.000000000 512.00000000 1.0000000000
 1644.1250000 3.8380000591 46.013999939 4.0000000000 15.000000000 512.00000000 1.0000000000
 1644.2500000 3.7650001049 46.076999664 4.0000000000 15.000000000 512.00000000 1.0000000000
 1644.3750000 3.5940001011 46.138999939 4.0000000000 15.000000000 512.00000000 1.0000000000
 1644.5000000 3.2339999676 46.194999695 4.0000000000 15.000000000 512.00000000 1.0000000000
 1644.6250000 2.6570000648 46.240001678 4.0000000000 15.000000000 512.00000000 1.0000000000
 1644.7500000 2.3629999161 46.270000458 4.0000000000 15.000000000 512.00000000 1.0000000000
 1644.8750000 2.1860001087 46.280998230 4.0000000000 15.000000000 512.00000000 1.0000000000
 1645.0000000 1.9160000086 46.273998260 4.0000000000 15.000000000 512.00000000 1.0000000000
 1645.1250000 2.1240000725 46.251998901 4.0000000000 15.000000000 512.00000000 1.0000000000
 1645.2500000 2.1410000324 46.220001221 4.0000000000 15.000000000 512.00000000 1.0000000000
 1645.3750000 2.0610001087 46.179000854 4.0000000000 15.000000000 512.00000000 1.0000000000
 1645.5000000 2.0940001011 46.130001068 4.0000000000 15.000000000 512.00000000 1.0000000000
 1645.6250000 2.1789999008 46.070999146 4.0000000000 15.000000000 512.00000000 1.0000000000
 1645.7500000 2.2430000305 46.001998901 4.0000000000 15.000000000 512.00000000 1.0000000000
 1645.8750000 2.0710000992 45.921001434 4.0000000000 15.000000000 512.00000000 1.0000000000
 1646.0000000 1.7619999647 45.826999664 4.0000000000 15.000000000 512.00000000 1.0000000000
 1646.1250000 1.5099999905 45.719001770 4.0000000000 15.000000000 512.00000000 1.0000000000
 1646.2500000 1.4759999514 45.599998474 4.0000000000 15.000000000 512.00000000 1.0000000000
 1646.3750000 1.4450000525 45.472000122 4.0000000000 15.000000000 512.00000000 1.0000000000
 1646.5000000 1.3860000372 45.337001801 4.0000000000 15.000000000 512.00000000 1.0000000000
 1646.6250000 1.5650000572 45.201999664 4.0000000000 15.000000000 512.00000000 1.0000000000
 1646.7500000 1.5369999409 45.071998596 4.0000000000 15.000000000 512.00000000 1.0000000000
 1646.8750000 1.1829999685 44.951000214 4.0000000000 15.000000000 512.00000000 1.0000000000
 1647.0000000 0.9509999752 44.845001221  -999.250000 0.1000000015 0.1000000015 0.0000000000
 1647.1250000 0.8180000186 44.757999420  -999.250000 0.1000000015 0.1000000015 0.0000000000
 1647.2500000 0.6859999895 44.692001343  -999.250000 0.1000000015 0.1000000015 0.0000000000
 1647.3750000 0.6510000229 44.646999359  -999.250000 0.1000000015 0.1000000015 0.0000000000
 1647.5000000 0.6250000000 44.622001648  -999.250000 0.1000000015 0.1000000015 0.0000000000
 1647.6250000 0.6899999976 44.610000610  -999.250000 0.1000000015 0.1000000015 0.0000000000
 1647.7500000 0.7839999795 44.605998993  -999.250000 0.1000000015 0.1000000015 0.0000000000
 1647.8750000 0.8610000014 44.604999542  -999.250000 0.1000000015 0.1000000015 0.0000000000
 1648.0000000 0.9269999862 44.604999542  -999.250000 0.1000000015 0.1000000015 0.0000000000
 1648.1250000 0.9929999709 44.604999542  -999.250000 0.1000000015 0.1000000015 0.0000000000
 1648.2500000 1.0290000439 44.604999542  -999.250000 0.1000000015 0.1000000015 0.0000000000
 1648.3750000 0.9259999990 44.604999542  -999.250000 0.1000000015 0.1000000015 0.0000000000
 1648.5000000 0.9020000100 44.604000092  -999.250000 0.1000000015 0.1000000015 0.0000000000
 1648.6250000 0.8939999938 44.597999573  -999.250000 0.1000000015 0.1000000015 0.0000000000
 1648.7500000 0.8799999952 44.583999634  -999.250000 0.1000000015 0.1000000015 0.0000000000
 1648.8750000 0.8700000048 44.562000275  -999.250000 0.1000000015 0.1000000015 0.0000000000
 1649.0000000 0.8579999804 44.529998779  -999.250000 0.1000000015 0.1000000015 0.0000000000
 1649.1250000 0.8029999733 44.493000031  -999.250000 0.1000000015 0.1000000015 0.0000000000
 1649.2500000 0.8080000281 44.453998566  -999.250000 0.1000000015 0.1000000015 0.0000000000
 1649.3750000 0.8930000067 44.416999817  -999.250000 0.1000000015 0.1000000015 0.0000000000
 1649.5000000 1.0169999599 44.381000519  -999.250000 0.1000000015 0.1000000015 0.0000000000
 1649.6250000 1.1250000000 44.346000671  -999.250000 0.1000000015 0.1000000015 0.0000000000
 1649.7500000 1.1790000200 44.307998657  -999.250000 0.1000000015 0.1000000015 0.0000000000
 1649.8750000 1.1619999409 44.264999390  -999.250000 0.1000000015 0.1000000015 0.0000000000
 1650.0000000 1.0319999456 44.216999054  -999.250000 0.1000000015 0.1000000015 0.0000000000
 1650.1250000 0.9330000281 44.166000366  -999.250000 0.1000000015 0.1000000015 0.0000000000
 1650.2500000 0.8590000272 44.115001678  -999.250000 0.1000000015 0.1000000015 0.0000000000
 1650.3750000 0.8140000105 44.063999176  -999.250000 0.1000000015 0.1000000015 0.0000000000
 1650.5000000 0.7940000296 44.014999390  -999.250000 0.1000000015 0.1000000015 0.0000000000
 1650.6250000 0.8009999990 43.965999603  -999.250000 0.1000000015 0.1000000015 0.0000000000
 1650.7500000 0.8090000153 43.918998718  -999.250000 0.1000000015 0.1000000015 0.0000000000
 1650.8750000 0.7770000100 43.875999451  -999.250000 0.1000000015 0.1000000015 0.0000000000
 1651.0000000 0.7279999852 43.839000702  -999.250000 0.1000000015 0.1000000015 0.0000000000
 1651.1250000 0.7049999833 43.812000275  -999.250000 0.1000000015 0.1000000015 0.0000000000
 1651.2500000 0.7210000157 43.794998169  -999.250000 0.1000000015 0.1000000015 0.0000000000
 1651.3750000 0.7630000114 43.789001465  -999.250000 0.1000000015 0.1000000015 0.0000000000
 1651.5000000 0.8280000091 43.791000366  -999.250000 0.1000000015 0.1000000015 0.0000000000
 1651.6250000 0.8479999900 43.798999786  -999.250000 0.1000000015 0.1000000015 0.0000000000
 1651.7500000 0.8410000205 43.808998108  -999.250000 0.1000000015 0.1000000015 0.0000000000
 1651.8750000 0.8169999719 43.819000244  -999.250000 0.1000000015 0.1000000015 0.0000000000
 1652.0000000 0.7940000296 43.827999115  -999.250000 0.1000000015 0.1000000015 0.0000000000
 1652.1250000 0.7839999795 43.833000183  -999.250000 0.1000000015 0.1000000015 0.0000000000
 1652.2500000 0.8040000200 43.832000732  -999.250000 0.1000000015 0.1000000015 0.0000000000
 1652.3750000 0.8080000281 43.825000763  -999.250000 0.1000000015 0.1000000015 0.0000000000
 1652.5000000 0.7699999809 43.811000824  -999.250000 0.1000000015 0.1000000015 0.0000000000
 1652.6250000 0.7369999886 43.791999817  -999.250000 0.1000000015 0.1000000015 0.0000000000
 1652.7500000 0.7469999790 43.770999908  -999.250000 0.1000000015 0.1000000015 0.0000000000
 1652.8750000 0.7409999967 43.752998352  -999.250000 0.1000000015 0.1000000015 0.0000000000
 1653.0000000 0.7360000014 43.743000031  -999.250000 0.1000000015 0.1000000015 0.0000000000
 1653.1250000 0.7580000162 43.743000031  -999.250000 0.1000000015 0.1000000015 0.0000000000
 1653.2500000 0.8190000057 43.757999420  -999.250000 0.1000000015 0.1000000015 0.0000000000
 1653.3750000 0.9779999852 43.787998199  -999.250000 0.1000000015 0.1000000015 0.0000000000
 1653.5000000 1.1900000572 43.833999634  -999.250000 0.1000000015 0.1000000015 0.0000000000
 1653.6250000 1.5579999685 43.897998810 4.0000000000 13.000000000 95.000000000 1.0000000000
 1653.7500000 1.9980000257 43.978000641 4.0000000000 13.000000000 95.000000000 1.0000000000
 1653.8750000 2.1359999180 44.073001862 4.0000000000 13.000000000 95.000000000 1.0000000000
