# LAS format log file from PETREL
# Project units are specified as depth units
#==================================================================
~Version information
VERS.   2.0:
WRAP.   NO:
#==================================================================
~Well
STRT .m      745.00000000 :
STOP .m      1730.0000000 :
STEP .m     0.12500000 :
NULL .        -999.250000 :
COMP.           : COMPANY
WELL.  5-0158   : WELL
FLD.            : FIELD
LOC.            : LOCATION
SRVC.           : SERVICE COMPANY
DATE.  2020-03-08 09:25:08   : Log Export Date {yyyy-MM-dd HH:mm:ss}
PROV.           : PROVINCE
UWI.      : UNIQUE WELL ID
API.            : API NUMBER
#==================================================================
~Curve
DEPT .m                   : DEPTH
RT .ohm.m                 : RT
SP .                      : SP
Fluids .                  : Fluids
POR .m3/m3                : POR
PERM .mD                  : PERM
Lith .                    : Lith
~Parameter
#==================================================================
~Ascii
# ...
 1625.8750000 27.231000900 -9999.000000 4.0000000000 17.000000000 175.00000000 1.0000000000
 1626.0000000 27.552000046 -9999.000000 4.0000000000 17.000000000 175.00000000 1.0000000000
 1626.1250000 28.747299194 -9999.000000 4.0000000000 17.000000000 175.00000000 1.0000000000
 1626.2500000 29.942499161 -9999.000000 4.0000000000 17.000000000 175.00000000 1.0000000000
 1626.3750000 31.137800217 -9999.000000 4.0000000000 17.000000000 175.00000000 1.0000000000
 1626.5000000 32.333000183 -9999.000000 4.0000000000 17.000000000 175.00000000 1.0000000000
 1626.6250000 35.078998566 -9999.000000 4.0000000000 17.000000000 175.00000000 1.0000000000
 1626.7500000 37.825000763 -9999.000000 4.0000000000 17.000000000 175.00000000 1.0000000000
 1626.8750000 40.570999146 -9999.000000 4.0000000000 17.000000000 175.00000000 1.0000000000
 1627.0000000 43.317001343 -9999.000000 4.0000000000 17.000000000 175.00000000 1.0000000000
 1627.1250000 38.017501831 -9999.000000 4.0000000000 17.000000000 175.00000000 1.0000000000
 1627.2500000 32.717998505 -9999.000000 4.0000000000 17.000000000 175.00000000 1.0000000000
 1627.3750000 27.418500900 -9999.000000 4.0000000000 17.000000000 175.00000000 1.0000000000
 1627.5000000 22.118999481 -9999.000000 4.0000000000 17.000000000 175.00000000 1.0000000000
 1627.6250000 23.142999649 -9999.000000 4.0000000000 17.000000000 175.00000000 1.0000000000
 1627.7500000 24.166999817 -9999.000000 4.0000000000 17.000000000 175.00000000 1.0000000000
 1627.8750000 25.190999985 -9999.000000 4.0000000000 17.000000000 175.00000000 1.0000000000
 1628.0000000 26.215000153 -9999.000000 4.0000000000 17.000000000 175.00000000 1.0000000000
 1628.1250000 26.659500122 -9999.000000 4.0000000000 17.000000000 175.00000000 1.0000000000
 1628.2500000 27.104000092 -9999.000000 4.0000000000 17.000000000 175.00000000 1.0000000000
 1628.3750000 27.548500061 -9999.000000 4.0000000000 17.000000000 175.00000000 1.0000000000
 1628.5000000 27.993000031 -9999.000000 4.0000000000 17.000000000 175.00000000 1.0000000000
 1628.6250000 30.037500381 -9999.000000 4.0000000000 17.000000000 175.00000000 1.0000000000
 1628.7500000 32.082000732 -9999.000000 4.0000000000 17.000000000 175.00000000 1.0000000000
 1628.8750000 34.126499176 -9999.000000 4.0000000000 17.000000000 175.00000000 1.0000000000
 1629.0000000 36.171001434 -9999.000000 4.0000000000 17.000000000 175.00000000 1.0000000000
 1629.1250000 35.883499146 -9999.000000 4.0000000000 17.000000000 175.00000000 1.0000000000
 1629.2500000 35.596000671 -9999.000000 4.0000000000 17.000000000 175.00000000 1.0000000000
 1629.3750000 35.308498383 -9999.000000 4.0000000000 17.000000000 175.00000000 1.0000000000
 1629.5000000 35.020999908 -9999.000000 4.0000000000 17.000000000 175.00000000 1.0000000000
 1629.6250000 35.987499237 -9999.000000 4.0000000000 17.000000000 175.00000000 1.0000000000
 1629.7500000 36.953998566 -9999.000000 4.0000000000 17.000000000 175.00000000 1.0000000000
 1629.8750000 37.920501709 -9999.000000 4.0000000000 17.000000000 175.00000000 1.0000000000
 1630.0000000 38.887001038 -9999.000000 4.0000000000 17.000000000 175.00000000 1.0000000000
 1630.1250000 40.374298096 -9999.000000 4.0000000000 17.000000000 175.00000000 1.0000000000
 1630.2500000 41.861499786 -9999.000000 4.0000000000 17.000000000 175.00000000 1.0000000000
 1630.3750000 43.348701477 -9999.000000 4.0000000000 17.000000000 175.00000000 1.0000000000
 1630.5000000 44.835998535 -9999.000000 4.0000000000 17.000000000 175.00000000 1.0000000000
 1630.6250000 43.144001007 -9999.000000 4.0000000000 17.000000000 175.00000000 1.0000000000
 1630.7500000 41.451999664 -9999.000000 4.0000000000 17.000000000 175.00000000 1.0000000000
 1630.8750000 39.759998322 -9999.000000 4.0000000000 17.000000000 175.00000000 1.0000000000
 1631.0000000 38.068000793 -9999.000000 4.0000000000 17.000000000 175.00000000 1.0000000000
 1631.1250000 37.747299194 -9999.000000 4.0000000000 17.000000000 175.00000000 1.0000000000
 1631.2500000 37.426498413 -9999.000000 4.0000000000 17.000000000 175.00000000 1.0000000000
 1631.3750000 37.105800629 -9999.000000 4.0000000000 17.000000000 175.00000000 1.0000000000
 1631.5000000 36.784999847 -9999.000000 4.0000000000 17.000000000 175.00000000 1.0000000000
 1631.6250000 38.069698334 -9999.000000 4.0000000000 17.000000000 175.00000000 1.0000000000
 1631.7500000 39.354499817 -9999.000000 4.0000000000 17.000000000 175.00000000 1.0000000000
 1631.8750000 40.639198303 -9999.000000 4.0000000000 17.000000000 175.00000000 1.0000000000
 1632.0000000 41.923999786 -9999.000000 4.0000000000 17.000000000 175.00000000 1.0000000000
 1632.1250000 41.632499695 -9999.000000 4.0000000000 17.000000000 175.00000000 1.0000000000
 1632.2500000 41.340999603 -9999.000000 4.0000000000 17.000000000 175.00000000 1.0000000000
 1632.3750000 41.049499512 -9999.000000 4.0000000000 17.000000000 175.00000000 1.0000000000
 1632.5000000 40.757999420 -9999.000000 4.0000000000 17.000000000 175.00000000 1.0000000000
 1632.6250000 42.000198364 -9999.000000 4.0000000000 17.000000000 175.00000000 1.0000000000
 1632.7500000 43.242500305 -9999.000000 4.0000000000 17.000000000 175.00000000 1.0000000000
 1632.8750000 44.484798431 -9999.000000 4.0000000000 17.000000000 175.00000000 1.0000000000
 1633.0000000 45.727001190 -9999.000000 4.0000000000 17.000000000 175.00000000 1.0000000000
 1633.1250000 46.241500854 -9999.000000 4.0000000000 17.000000000 175.00000000 1.0000000000
 1633.2500000 46.756000519 -9999.000000 4.0000000000 17.000000000 175.00000000 1.0000000000
 1633.3750000 47.270500183 -9999.000000 4.0000000000 17.000000000 175.00000000 1.0000000000
 1633.5000000 47.784999847 -9999.000000 4.0000000000 17.000000000 175.00000000 1.0000000000
 1633.6250000 46.376998901 -9999.000000 4.0000000000 17.000000000 175.00000000 1.0000000000
 1633.7500000 44.969001770 -9999.000000 4.0000000000 17.000000000 175.00000000 1.0000000000
 1633.8750000 43.561000824 -9999.000000 4.0000000000 17.000000000 175.00000000 1.0000000000
 1634.0000000 42.152999878 -9999.000000 4.0000000000 17.000000000 175.00000000 1.0000000000
 1634.1250000 41.388500214 -9999.000000 4.0000000000 17.000000000 175.00000000 1.0000000000
 1634.2500000 40.624000549 -9999.000000 4.0000000000 17.000000000 175.00000000 1.0000000000
 1634.3750000 39.859500885 -9999.000000 4.0000000000 17.000000000 175.00000000 1.0000000000
 1634.5000000 39.095001221 -9999.000000 4.0000000000 17.000000000 175.00000000 1.0000000000
 1634.6250000 38.124500275 -9999.000000 4.0000000000 17.000000000 175.00000000 1.0000000000
 1634.7500000 37.153999329 -9999.000000 4.0000000000 17.000000000 175.00000000 1.0000000000
 1634.8750000 36.183498383 -9999.000000 4.0000000000 17.000000000 175.00000000 1.0000000000
 1635.0000000 35.213001251 -9999.000000 4.0000000000 17.000000000 175.00000000 1.0000000000
 1635.1250000 32.904800415 -9999.000000 4.0000000000 17.000000000 175.00000000 1.0000000000
 1635.2500000 30.596500397 -9999.000000 4.0000000000 17.000000000 175.00000000 1.0000000000
 1635.3750000 28.288200378 -9999.000000 4.0000000000 17.000000000 175.00000000 1.0000000000
 1635.5000000 25.979999542 -9999.000000 4.0000000000 17.000000000 175.00000000 1.0000000000
 1635.6250000 23.232500076 -9999.000000 4.0000000000 17.000000000 175.00000000 1.0000000000
 1635.7500000 20.485000610 -9999.000000 4.0000000000 17.000000000 175.00000000 1.0000000000
 1635.8750000 17.737499237 -9999.000000 4.0000000000 17.000000000 175.00000000 1.0000000000
 1636.0000000 14.989999771 -9999.000000 4.0000000000 17.000000000 175.00000000 1.0000000000
 1636.1250000 19.752500534 -9999.000000 4.0000000000 17.000000000 175.00000000 1.0000000000
 1636.2500000 24.514999390 -9999.000000 4.0000000000 17.000000000 175.00000000 1.0000000000
 1636.3750000 29.277500153 -9999.000000 4.0000000000 17.000000000 175.00000000 1.0000000000
 1636.5000000 34.040000916 -9999.000000 4.0000000000 17.000000000 175.00000000 1.0000000000
 1636.6250000 34.178798676 -9999.000000 4.0000000000 17.000000000 175.00000000 1.0000000000
