# LAS format log file from PETREL
# Project units are specified as depth units
#==================================================================
~Version information
VERS.   2.0:
WRAP.   NO:
#==================================================================
~Well
STRT .m      1350.0000000 :
STOP .m      1755.0000000 :
STEP .m     0.12500000 :
NULL .        -999.250000 :
COMP.           : COMPANY
WELL.  5-0165C2   : WELL
FLD.            : FIELD
LOC.            : LOCATION
SRVC.           : SERVICE COMPANY
DATE.  2020-03-08 09:25:09   : Log Export Date {yyyy-MM-dd HH:mm:ss}
PROV.           : PROVINCE
UWI.      : UNIQUE WELL ID
API.            : API NUMBER
#==================================================================
~Curve
DEPT .m                   : DEPTH
RT .ohm.m                 : RT
SP .                      : SP
Fluids .                  : Fluids
POR .m3/m3                : POR
PERM .mD                  : PERM
Lith .                    : Lith
~Parameter
#==================================================================
~Ascii
# ...
 1589.2500000 24.485000610 11.678999901 4.0000000000 22.000000000 2310.0000000 1.0000000000
 1589.3750000 25.243999481 11.675000191 4.0000000000 22.000000000 2310.0000000 1.0000000000
 1589.5000000 24.971000671 12.008000374 3.0000000000 24.000000000 2748.0000000 1.0000000000
 1589.6250000 24.631999969 12.105999947 3.0000000000 24.000000000 2748.0000000 1.0000000000
 1589.7500000 23.823999405 12.237999916 3.0000000000 24.000000000 2748.0000000 1.0000000000
 1589.8750000 23.294000626 12.380000114 3.0000000000 24.000000000 2748.0000000 1.0000000000
 1590.0000000 23.232999802 12.491000175 3.0000000000 24.000000000 2748.0000000 1.0000000000
 1590.1250000 23.430999756 12.685999870 3.0000000000 24.000000000 2748.0000000 1.0000000000
 1590.2500000 23.656000137 12.772999763 3.0000000000 24.000000000 2748.0000000 1.0000000000
 1590.3750000 23.893999100 12.934000015 3.0000000000 24.000000000 2748.0000000 1.0000000000
 1590.5000000 24.365999222 13.161999702 3.0000000000 24.000000000 2748.0000000 1.0000000000
 1590.6250000 24.278999329 13.361000061 3.0000000000 24.000000000 2748.0000000 1.0000000000
 1590.7500000 24.142000198 13.529000282 3.0000000000 24.000000000 2748.0000000 1.0000000000
 1590.8750000 24.051000595 13.769000053 3.0000000000 24.000000000 2748.0000000 1.0000000000
 1591.0000000 25.333000183 14.041000366  -999.250000 0.1000000015 0.1000000015 0.0000000000
 1591.1250000 25.843999863 14.234000206  -999.250000 0.1000000015 0.1000000015 0.0000000000
 1591.2500000 26.354999542 14.494000435  -999.250000 0.1000000015 0.1000000015 0.0000000000
 1591.3750000 26.436000824 14.687000275 4.0000000000 27.000000000 4535.0000000 1.0000000000
 1591.5000000 16.077999115 14.946000099 4.0000000000 27.000000000 4535.0000000 1.0000000000
 1591.6250000 15.246000290 15.295000076 4.0000000000 27.000000000 4535.0000000 1.0000000000
 1591.7500000 14.984000206 15.541000366 4.0000000000 27.000000000 4535.0000000 1.0000000000
 1591.8750000 14.939999580 15.737999916 4.0000000000 27.000000000 4535.0000000 1.0000000000
 1592.0000000 14.895999908 15.829999924 4.0000000000 27.000000000 4535.0000000 1.0000000000
 1592.1250000 15.411000252 15.857999802 4.0000000000 27.000000000 4535.0000000 1.0000000000
 1592.2500000 15.850999832 15.798000336 4.0000000000 27.000000000 4535.0000000 1.0000000000
 1592.3750000 16.212999344 15.715999603 4.0000000000 27.000000000 4535.0000000 1.0000000000
 1592.5000000 16.537000656 15.604999542 4.0000000000 27.000000000 4535.0000000 1.0000000000
 1592.6250000 17.062000275 15.571999550 4.0000000000 27.000000000 4535.0000000 1.0000000000
 1592.7500000 12.286000252 15.503000259 4.0000000000 27.000000000 4535.0000000 1.0000000000
 1592.8750000 11.255000114 15.276000023 4.0000000000 27.000000000 4535.0000000 1.0000000000
 1593.0000000 11.067000389 14.673000336 4.0000000000 27.000000000 4535.0000000 1.0000000000
 1593.1250000 10.878000259 13.708999634 4.0000000000 27.000000000 4535.0000000 1.0000000000
 1593.2500000 10.795000076 12.838000298 4.0000000000 27.000000000 4535.0000000 1.0000000000
 1593.3750000 10.711999893 12.213000298 4.0000000000 27.000000000 4535.0000000 1.0000000000
 1593.5000000 10.744999886 11.920000076 4.0000000000 27.000000000 4535.0000000 1.0000000000
 1593.6250000 10.779000282 11.536999702 4.0000000000 27.000000000 4535.0000000 1.0000000000
 1593.7500000 10.793000221 11.189000130 4.0000000000 27.000000000 4535.0000000 1.0000000000
 1593.8750000 10.880999565 10.887000084 4.0000000000 27.000000000 4535.0000000 1.0000000000
 1594.0000000 11.001000404 10.595999718 4.0000000000 27.000000000 4535.0000000 1.0000000000
 1594.1250000 11.246999741 10.371999741 4.0000000000 27.000000000 4535.0000000 1.0000000000
 1594.2500000 11.821000099 10.123999596 4.0000000000 27.000000000 4535.0000000 1.0000000000
 1594.3750000 12.605999947 9.7899999619 4.0000000000 27.000000000 4535.0000000 1.0000000000
 1594.5000000 27.218000412 9.4949998856 4.0000000000 27.000000000 4535.0000000 1.0000000000
 1594.6250000 32.269001007 9.2670001984 4.0000000000 27.000000000 4535.0000000 1.0000000000
 1594.7500000 35.360000610 9.0389995575 4.0000000000 27.000000000 4535.0000000 1.0000000000
 1594.8750000 37.060001373 8.8739995956 4.0000000000 27.000000000 4535.0000000 1.0000000000
 1595.0000000 37.969001770 8.7080001831 4.0000000000 27.000000000 4535.0000000 1.0000000000
 1595.1250000 38.148998260 8.5010004044 4.0000000000 27.000000000 4535.0000000 1.0000000000
 1595.2500000 37.896999359 8.3100004196 4.0000000000 27.000000000 4535.0000000 1.0000000000
 1595.3750000 34.999000549 8.1440000534 4.0000000000 27.000000000 4535.0000000 1.0000000000
 1595.5000000 33.026000977 7.9930000305 4.0000000000 27.000000000 4535.0000000 1.0000000000
 1595.6250000 32.318000793 7.8850002289 4.0000000000 27.000000000 4535.0000000 1.0000000000
 1595.7500000 31.947999954 7.6859998703 4.0000000000 27.000000000 4535.0000000 1.0000000000
 1595.8750000 31.850999832 7.5630002022 4.0000000000 27.000000000 4535.0000000 1.0000000000
 1596.0000000 31.753000259 7.4320001602 4.0000000000 27.000000000 4535.0000000 1.0000000000
 1596.1250000 31.677000046 7.3289999962 4.0000000000 27.000000000 4535.0000000 1.0000000000
 1596.2500000 31.659000397 7.2800002098 4.0000000000 27.000000000 4535.0000000 1.0000000000
 1596.3750000 31.681999207 7.1789999008 4.0000000000 27.000000000 4535.0000000 1.0000000000
 1596.5000000 31.754999161 7.0130000114 4.0000000000 27.000000000 4535.0000000 1.0000000000
 1596.6250000 32.073001862 6.8350000381 4.0000000000 27.000000000 4535.0000000 1.0000000000
 1596.7500000 35.701000214 6.6069998741 4.0000000000 27.000000000 4535.0000000 1.0000000000
 1596.8750000 37.048999786 6.4310002327 4.0000000000 27.000000000 4535.0000000 1.0000000000
 1597.0000000 37.474998474 6.2490000725 4.0000000000 27.000000000 4535.0000000 1.0000000000
 1597.1250000 37.693000793 6.1269998550 4.0000000000 27.000000000 4535.0000000 1.0000000000
 1597.2500000 37.928001404 5.9970002174 4.0000000000 27.000000000 4535.0000000 1.0000000000
 1597.3750000 38.111000061 5.8920001984 4.0000000000 27.000000000 4535.0000000 1.0000000000
 1597.5000000 38.189998627 5.7410001755 4.0000000000 27.000000000 4535.0000000 1.0000000000
 1597.6250000 38.209999084 5.5900001526 4.0000000000 27.000000000 4535.0000000 1.0000000000
 1597.7500000 38.116001129 5.4790000916 4.0000000000 27.000000000 4535.0000000 1.0000000000
 1597.8750000 38.083999634 5.3670001030 4.0000000000 27.000000000 4535.0000000 1.0000000000
 1598.0000000 37.983001709 5.2569999695 4.0000000000 27.000000000 4535.0000000 1.0000000000
 1598.1250000 36.306999207 5.1469998360 4.0000000000 27.000000000 4535.0000000 1.0000000000
 1598.2500000 35.654998779 5.0770001411 4.0000000000 27.000000000 4535.0000000 1.0000000000
 1598.3750000 35.452999115 4.8969998360 4.0000000000 27.000000000 4535.0000000 1.0000000000
 1598.5000000 35.250999451 4.7789998055 4.0000000000 27.000000000 4535.0000000 1.0000000000
 1598.6250000 35.313999176 4.6500000954 4.0000000000 27.000000000 4535.0000000 1.0000000000
 1598.7500000 35.293998718 4.5989999771 4.0000000000 27.000000000 4535.0000000 1.0000000000
 1598.8750000 35.273998260 4.5840001106 4.0000000000 27.000000000 4535.0000000 1.0000000000
 1599.0000000 35.104999542 4.6479997635 4.0000000000 27.000000000 4535.0000000 1.0000000000
 1599.1250000 34.877998352 4.6739997864 4.0000000000 27.000000000 4535.0000000 1.0000000000
 1599.2500000 34.636001587 4.6859998703 4.0000000000 27.000000000 4535.0000000 1.0000000000
 1599.3750000 34.394001007 4.6989998817 4.0000000000 27.000000000 4535.0000000 1.0000000000
 1599.5000000 32.187999725 4.7020001411 4.0000000000 27.000000000 4535.0000000 1.0000000000
 1599.6250000 30.989000320 4.7039999962 4.0000000000 27.000000000 4535.0000000 1.0000000000
 1599.7500000 30.361999512 4.7049999237 4.0000000000 27.000000000 4535.0000000 1.0000000000
 1599.8750000 30.062000275 4.7989997864 4.0000000000 27.000000000 4535.0000000 1.0000000000
 1600.0000000 29.943000793 4.8150000572 4.0000000000 27.000000000 4535.0000000 1.0000000000
