# LAS format log file from PETREL
# Project units are specified as depth units
#==================================================================
~Version information
VERS.   2.0:
WRAP.   NO:
#==================================================================
~Well
STRT .m      1338.0000000 :
STOP .m      1710.0000000 :
STEP .m     0.12500000 :
NULL .        -999.250000 :
COMP.           : COMPANY
WELL.  5-0162C2   : WELL
FLD.            : FIELD
LOC.            : LOCATION
SRVC.           : SERVICE COMPANY
DATE.  2020-03-08 09:25:09   : Log Export Date {yyyy-MM-dd HH:mm:ss}
PROV.           : PROVINCE
UWI.      : UNIQUE WELL ID
API.            : API NUMBER
#==================================================================
~Curve
DEPT .m                   : DEPTH
RT .ohm.m                 : RT
SP .                      : SP
Fluids .                  : Fluids
POR .m3/m3                : POR
PERM .mD                  : PERM
Lith .                    : Lith
~Parameter
#==================================================================
~Ascii
# ...
 1642.5000000 14.239999771 -64.69999695 3.0000000000 15.000000000 100.00000000 1.0000000000
 1642.6250000 13.720000267 -63.95999908 3.0000000000 15.000000000 100.00000000 1.0000000000
 1642.7500000 12.939999580 -63.22000122 3.0000000000 15.000000000 100.00000000 1.0000000000
 1642.8750000 11.960000038 -62.50000000 3.0000000000 15.000000000 100.00000000 1.0000000000
 1643.0000000 11.029999733 -61.86000061 3.0000000000 15.000000000 100.00000000 1.0000000000
 1643.1250000 10.560000420 -61.29999924 3.0000000000 15.000000000 100.00000000 1.0000000000
 1643.2500000 10.800000191 -60.81000137 3.0000000000 15.000000000 100.00000000 1.0000000000
 1643.3750000 11.569999695 -60.34999847 3.0000000000 15.000000000 100.00000000 1.0000000000
 1643.5000000 12.260000229 -59.90999985 3.0000000000 15.000000000 100.00000000 1.0000000000
 1643.6250000 12.029999733 -59.50999832 3.0000000000 15.000000000 100.00000000 1.0000000000
 1643.7500000 10.640000343 -59.18000031  -999.250000 0.1000000015 0.1000000015 0.0000000000
 1643.8750000 8.8400001526 -59.00000000  -999.250000 0.1000000015 0.1000000015 0.0000000000
 1644.0000000 7.7399997711 -59.04000092  -999.250000 0.1000000015 0.1000000015 0.0000000000
 1644.1250000 7.9600000381 -59.33000183  -999.250000 0.1000000015 0.1000000015 0.0000000000
 1644.2500000 10.239999771 -59.90999985 3.0000000000 12.000000000 103.00000000 1.0000000000
 1644.3750000 16.389999390 -60.75999832 3.0000000000 12.000000000 103.00000000 1.0000000000
 1644.5000000 28.219999313 -61.83000183 3.0000000000 12.000000000 103.00000000 1.0000000000
 1644.6250000 46.299999237 -63.00999832 3.0000000000 12.000000000 103.00000000 1.0000000000
 1644.7500000 62.689998627 -64.15000153 3.0000000000 12.000000000 103.00000000 1.0000000000
 1644.8750000 67.730003357 -65.08999634 3.0000000000 12.000000000 103.00000000 1.0000000000
 1645.0000000 59.169998169 -65.76999664 3.0000000000 12.000000000 103.00000000 1.0000000000
 1645.1250000 45.250000000 -66.16999817 3.0000000000 12.000000000 103.00000000 1.0000000000
 1645.2500000 35.240001678 -66.30999756 3.0000000000 12.000000000 103.00000000 1.0000000000
 1645.3750000 30.309999466 -66.23000336 3.0000000000 12.000000000 103.00000000 1.0000000000
 1645.5000000 28.040000916 -65.97000122 3.0000000000 12.000000000 103.00000000 1.0000000000
 1645.6250000 26.100000381 -65.58999634 3.0000000000 12.000000000 103.00000000 1.0000000000
 1645.7500000 23.030000687 -65.20999908 3.0000000000 12.000000000 103.00000000 1.0000000000
 1645.8750000 19.329999924 -64.91999817 3.0000000000 12.000000000 103.00000000 1.0000000000
 1646.0000000 15.930000305 -64.83999634 3.0000000000 12.000000000 103.00000000 1.0000000000
 1646.1250000 14.149999619 -64.98999786 3.0000000000 12.000000000 103.00000000 1.0000000000
 1646.2500000 14.170000076 -65.38999939 3.0000000000 12.000000000 103.00000000 1.0000000000
 1646.3750000 16.190000534 -66.02999878 4.0000000000 17.000000000 224.00000000 1.0000000000
 1646.5000000 19.709999084 -66.88999939 4.0000000000 17.000000000 224.00000000 1.0000000000
 1646.6250000 24.500000000 -67.93000031 4.0000000000 17.000000000 224.00000000 1.0000000000
 1646.7500000 30.950000763 -69.05999756 4.0000000000 17.000000000 224.00000000 1.0000000000
 1646.8750000 38.479999542 -70.19000244 4.0000000000 17.000000000 224.00000000 1.0000000000
 1647.0000000 47.220001221 -71.26000214 4.0000000000 17.000000000 224.00000000 1.0000000000
 1647.1250000 57.529998779 -72.22000122 4.0000000000 17.000000000 224.00000000 1.0000000000
 1647.2500000 66.620002747 -73.05000305 4.0000000000 17.000000000 224.00000000 1.0000000000
 1647.3750000 71.069999695 -73.72000122 4.0000000000 17.000000000 224.00000000 1.0000000000
 1647.5000000 69.110000610 -74.23000336 4.0000000000 17.000000000 224.00000000 1.0000000000
 1647.6250000 64.500000000 -74.58999634 4.0000000000 17.000000000 224.00000000 1.0000000000
 1647.7500000 60.229999542 -74.80000305 4.0000000000 17.000000000 224.00000000 1.0000000000
 1647.8750000 57.220001221 -74.90000153 4.0000000000 17.000000000 224.00000000 1.0000000000
 1648.0000000 55.759998322 -74.91999817 4.0000000000 17.000000000 224.00000000 1.0000000000
 1648.1250000 56.119998932 -74.88999939 4.0000000000 17.000000000 224.00000000 1.0000000000
 1648.2500000 57.990001678 -74.83999634 4.0000000000 17.000000000 224.00000000 1.0000000000
 1648.3750000 60.159999847 -74.76999664 4.0000000000 17.000000000 224.00000000 1.0000000000
 1648.5000000 61.159999847 -74.68000031 4.0000000000 17.000000000 224.00000000 1.0000000000
 1648.6250000 60.229999542 -74.55999756 4.0000000000 17.000000000 224.00000000 1.0000000000
 1648.7500000 57.290000916 -74.41000366 4.0000000000 17.000000000 224.00000000 1.0000000000
 1648.8750000 52.369998932 -74.23000336 4.0000000000 17.000000000 224.00000000 1.0000000000
 1649.0000000 46.490001678 -74.02999878 4.0000000000 17.000000000 224.00000000 1.0000000000
 1649.1250000 40.619998932 -73.83000183 4.0000000000 17.000000000 224.00000000 1.0000000000
 1649.2500000 35.569999695 -73.62999725 4.0000000000 17.000000000 224.00000000 1.0000000000
 1649.3750000 31.280000687 -73.48000336 4.0000000000 17.000000000 224.00000000 1.0000000000
 1649.5000000 28.260000229 -73.40000153 4.0000000000 17.000000000 224.00000000 1.0000000000
 1649.6250000 27.229999542 -73.38999939 4.0000000000 17.000000000 224.00000000 1.0000000000
 1649.7500000 28.270000458 -73.41999817 4.0000000000 17.000000000 224.00000000 1.0000000000
 1649.8750000 31.239999771 -73.47000122 4.0000000000 17.000000000 224.00000000 1.0000000000
 1650.0000000 35.639999390 -73.54000092 4.0000000000 17.000000000 224.00000000 1.0000000000
 1650.1250000 39.880001068 -73.61000061 4.0000000000 17.000000000 224.00000000 1.0000000000
 1650.2500000 42.209999084 -73.65000153 4.0000000000 17.000000000 224.00000000 1.0000000000
 1650.3750000 42.180000305 -73.63999939 4.0000000000 17.000000000 224.00000000 1.0000000000
 1650.5000000 41.080001831 -73.56999969 4.0000000000 17.000000000 224.00000000 1.0000000000
 1650.6250000 39.590000153 -73.45999908 4.0000000000 17.000000000 224.00000000 1.0000000000
 1650.7500000 37.580001831 -73.30999756 4.0000000000 17.000000000 224.00000000 1.0000000000
 1650.8750000 35.659999847 -73.13999939 4.0000000000 17.000000000 224.00000000 1.0000000000
 1651.0000000 34.590000153 -72.94999695 4.0000000000 17.000000000 224.00000000 1.0000000000
 1651.1250000 34.619998932 -72.76000214 4.0000000000 17.000000000 224.00000000 1.0000000000
 1651.2500000 35.299999237 -72.56999969 4.0000000000 17.000000000 224.00000000 1.0000000000
 1651.3750000 36.529998779 -72.40000153 4.0000000000 17.000000000 224.00000000 1.0000000000
 1651.5000000 37.319999695 -72.23000336 4.0000000000 17.000000000 224.00000000 1.0000000000
 1651.6250000 36.150001526 -72.08999634 4.0000000000 17.000000000 224.00000000 1.0000000000
 1651.7500000 33.369998932 -71.98000336 4.0000000000 17.000000000 224.00000000 1.0000000000
 1651.8750000 30.360000610 -71.91999817 4.0000000000 17.000000000 224.00000000 1.0000000000
 1652.0000000 27.510000229 -71.91000366 4.0000000000 17.000000000 224.00000000 1.0000000000
 1652.1250000 24.370000839 -71.97000122 4.0000000000 17.000000000 224.00000000 1.0000000000
 1652.2500000 21.610000610 -72.11000061 4.0000000000 17.000000000 224.00000000 1.0000000000
 1652.3750000 20.420000076 -72.36000061 4.0000000000 17.000000000 224.00000000 1.0000000000
 1652.5000000 20.940000534 -72.69000244 4.0000000000 17.000000000 224.00000000 1.0000000000
 1652.6250000 23.280000687 -73.06999969 4.0000000000 17.000000000 224.00000000 1.0000000000
 1652.7500000 28.309999466 -73.44000244 4.0000000000 17.000000000 224.00000000 1.0000000000
 1652.8750000 35.389999390 -73.80000305 4.0000000000 17.000000000 224.00000000 1.0000000000
 1653.0000000 41.669998169 -74.11000061 4.0000000000 17.000000000 224.00000000 1.0000000000
 1653.1250000 44.990001678 -74.34999847 4.0000000000 17.000000000 224.00000000 1.0000000000
 1653.2500000 45.669998169 -74.48999786 4.0000000000 17.000000000 224.00000000 1.0000000000
