# LAS format log file from PETREL
# Project units are specified as depth units
#==================================================================
~Version information
VERS.   2.0:
WRAP.   NO:
#==================================================================
~Well
STRT .m      745.00000000 :
STOP .m      1730.0000000 :
STEP .m     0.12500000 :
NULL .        -999.250000 :
COMP.           : COMPANY
WELL.  5-0158   : WELL
FLD.            : FIELD
LOC.            : LOCATION
SRVC.           : SERVICE COMPANY
DATE.  2020-03-08 09:25:08   : Log Export Date {yyyy-MM-dd HH:mm:ss}
PROV.           : PROVINCE
UWI.      : UNIQUE WELL ID
API.            : API NUMBER
#==================================================================
~Curve
DEPT .m                   : DEPTH
RT .ohm.m                 : RT
SP .                      : SP
Fluids .                  : Fluids
POR .m3/m3                : POR
PERM .mD                  : PERM
Lith .                    : Lith
~Parameter
#==================================================================
~Ascii
# ...
 1691.1250000 14.092000008 -9999.000000 3.0000000000 12.000000000 64.000000000 1.0000000000
 1691.2500000 14.725999832 -9999.000000 3.0000000000 12.000000000 64.000000000 1.0000000000
 1691.3750000 15.359999657 -9999.000000 3.0000000000 12.000000000 64.000000000 1.0000000000
 1691.5000000 15.994000435 -9999.000000 3.0000000000 12.000000000 64.000000000 1.0000000000
 1691.6250000 16.609800339 -9999.000000 3.0000000000 12.000000000 64.000000000 1.0000000000
 1691.7500000 17.225500107 -9999.000000 3.0000000000 12.000000000 64.000000000 1.0000000000
 1691.8750000 17.841299057 -9999.000000 3.0000000000 12.000000000 64.000000000 1.0000000000
 1692.0000000 18.457000732 -9999.000000 3.0000000000 12.000000000 64.000000000 1.0000000000
 1692.1250000 18.487499237 -9999.000000 3.0000000000 12.000000000 64.000000000 1.0000000000
 1692.2500000 18.517999649 -9999.000000 3.0000000000 12.000000000 64.000000000 1.0000000000
 1692.3750000 18.548500061 -9999.000000 3.0000000000 12.000000000 64.000000000 1.0000000000
 1692.5000000 18.579000473 -9999.000000 3.0000000000 12.000000000 64.000000000 1.0000000000
 1692.6250000 18.061500549 -9999.000000 3.0000000000 12.000000000 64.000000000 1.0000000000
 1692.7500000 17.544000626 -9999.000000 3.0000000000 12.000000000 64.000000000 1.0000000000
 1692.8750000 17.026500702 -9999.000000 3.0000000000 12.000000000 64.000000000 1.0000000000
 1693.0000000 16.509000778 -9999.000000 3.0000000000 12.000000000 64.000000000 1.0000000000
 1693.1250000 17.143800735 -9999.000000 3.0000000000 12.000000000 64.000000000 1.0000000000
 1693.2500000 17.778499603 -9999.000000 3.0000000000 12.000000000 64.000000000 1.0000000000
 1693.3750000 18.413299561 -9999.000000 3.0000000000 12.000000000 64.000000000 1.0000000000
 1693.5000000 19.048000336 -9999.000000 3.0000000000 12.000000000 64.000000000 1.0000000000
 1693.6250000 19.472799301 -9999.000000 3.0000000000 12.000000000 64.000000000 1.0000000000
 1693.7500000 19.897499084 -9999.000000 3.0000000000 12.000000000 64.000000000 1.0000000000
 1693.8750000 20.322200775 -9999.000000 3.0000000000 12.000000000 64.000000000 1.0000000000
 1694.0000000 20.746999741 -9999.000000 3.0000000000 12.000000000 64.000000000 1.0000000000
 1694.1250000 21.829500198 -9999.000000 3.0000000000 12.000000000 64.000000000 1.0000000000
 1694.2500000 22.912000656 -9999.000000 3.0000000000 12.000000000 64.000000000 1.0000000000
 1694.3750000 23.994499207 -9999.000000 3.0000000000 12.000000000 64.000000000 1.0000000000
 1694.5000000 25.076999664 -9999.000000 3.0000000000 12.000000000 64.000000000 1.0000000000
 1694.6250000 24.193199158 -9999.000000 3.0000000000 12.000000000 64.000000000 1.0000000000
 1694.7500000 23.309499741 -9999.000000 3.0000000000 12.000000000 64.000000000 1.0000000000
 1694.8750000 22.425699234 -9999.000000 3.0000000000 12.000000000 64.000000000 1.0000000000
 1695.0000000 21.541999817 -9999.000000 3.0000000000 12.000000000 64.000000000 1.0000000000
 1695.1250000 23.558000565 -9999.000000 3.0000000000 12.000000000 64.000000000 1.0000000000
 1695.2500000 25.573999405 -9999.000000 3.0000000000 12.000000000 64.000000000 1.0000000000
 1695.3750000 27.590000153 -9999.000000 3.0000000000 12.000000000 64.000000000 1.0000000000
 1695.5000000 29.606000900 -9999.000000 3.0000000000 12.000000000 64.000000000 1.0000000000
 1695.6250000 29.209800720 -9999.000000 3.0000000000 12.000000000 64.000000000 1.0000000000
 1695.7500000 28.813499451 -9999.000000 3.0000000000 12.000000000 64.000000000 1.0000000000
 1695.8750000 28.417299271 -9999.000000 3.0000000000 12.000000000 64.000000000 1.0000000000
 1696.0000000 28.020999908 -9999.000000 3.0000000000 12.000000000 64.000000000 1.0000000000
 1696.1250000 25.843999863 -9999.000000 3.0000000000 12.000000000 64.000000000 1.0000000000
 1696.2500000 23.666999817 -9999.000000 3.0000000000 12.000000000 64.000000000 1.0000000000
 1696.3750000 21.489999771 -9999.000000 3.0000000000 12.000000000 64.000000000 1.0000000000
 1696.5000000 19.312999725 -9999.000000 3.0000000000 12.000000000 64.000000000 1.0000000000
 1696.6250000 18.756999969 -9999.000000 3.0000000000 12.000000000 64.000000000 1.0000000000
 1696.7500000 18.201000214 -9999.000000 3.0000000000 12.000000000 64.000000000 1.0000000000
 1696.8750000 17.645000458 -9999.000000 3.0000000000 12.000000000 64.000000000 1.0000000000
 1697.0000000 17.089000702 -9999.000000 3.0000000000 12.000000000 64.000000000 1.0000000000
 1697.1250000 15.613800049 -9999.000000 3.0000000000 12.000000000 64.000000000 1.0000000000
 1697.2500000 14.138500214 -9999.000000 3.0000000000 12.000000000 64.000000000 1.0000000000
 1697.3750000 12.663200378 -9999.000000 3.0000000000 12.000000000 64.000000000 1.0000000000
 1697.5000000 11.187999725 -9999.000000 3.0000000000 12.000000000 64.000000000 1.0000000000
 1697.6250000 12.410499573 -9999.000000 3.0000000000 12.000000000 64.000000000 1.0000000000
 1697.7500000 13.633000374 -9999.000000 3.0000000000 12.000000000 64.000000000 1.0000000000
 1697.8750000 14.855500221 -9999.000000 3.0000000000 12.000000000 64.000000000 1.0000000000
 1698.0000000 16.077999115 -9999.000000 3.0000000000 12.000000000 64.000000000 1.0000000000
 1698.1250000 19.394699097 -9999.000000 3.0000000000 12.000000000 64.000000000 1.0000000000
 1698.2500000 22.711500168 -9999.000000 3.0000000000 12.000000000 64.000000000 1.0000000000
 1698.3750000 26.028200150 -9999.000000 3.0000000000 12.000000000 64.000000000 1.0000000000
 1698.5000000 29.344999313 -9999.000000 3.0000000000 12.000000000 64.000000000 1.0000000000
 1698.6250000 28.045200348 -9999.000000 3.0000000000 12.000000000 64.000000000 1.0000000000
 1698.7500000 26.745500565 -9999.000000 3.0000000000 12.000000000 64.000000000 1.0000000000
 1698.8750000 25.445699692 -9999.000000 3.0000000000 12.000000000 64.000000000 1.0000000000
 1699.0000000 24.145999908 -9999.000000 3.0000000000 12.000000000 64.000000000 1.0000000000
 1699.1250000 25.151199341 -9999.000000 3.0000000000 12.000000000 64.000000000 1.0000000000
 1699.2500000 26.156499863 -9999.000000 3.0000000000 12.000000000 64.000000000 1.0000000000
 1699.3750000 27.161699295 -9999.000000 3.0000000000 12.000000000 64.000000000 1.0000000000
 1699.5000000 28.166999817 -9999.000000 3.0000000000 12.000000000 64.000000000 1.0000000000
 1699.6250000 28.336500168 -9999.000000 3.0000000000 12.000000000 64.000000000 1.0000000000
 1699.7500000 28.506000519 -9999.000000 3.0000000000 12.000000000 64.000000000 1.0000000000
 1699.8750000 28.675500870 -9999.000000 3.0000000000 12.000000000 64.000000000 1.0000000000
 1700.0000000 28.844999313 -9999.000000 3.0000000000 12.000000000 64.000000000 1.0000000000
 1700.1250000 25.824199677 -9999.000000 3.0000000000 12.000000000 64.000000000 1.0000000000
 1700.2500000 22.803499222 -9999.000000 3.0000000000 12.000000000 64.000000000 1.0000000000
 1700.3750000 19.782699585 -9999.000000 3.0000000000 12.000000000 64.000000000 1.0000000000
 1700.5000000 16.761999130 -9999.000000 3.0000000000 12.000000000 64.000000000 1.0000000000
 1700.6250000 14.520700455 -9999.000000 3.0000000000 12.000000000 64.000000000 1.0000000000
 1700.7500000 12.279500008 -9999.000000 3.0000000000 12.000000000 64.000000000 1.0000000000
 1700.8750000 10.038200378 -9999.000000 3.0000000000 12.000000000 64.000000000 1.0000000000
 1701.0000000 7.7969999313 -9999.000000 3.0000000000 12.000000000 64.000000000 1.0000000000
 1701.1250000 6.8267002106 -9999.000000 3.0000000000 12.000000000 64.000000000 1.0000000000
 1701.2500000 5.8565001488 -9999.000000 3.0000000000 12.000000000 64.000000000 1.0000000000
 1701.3750000 4.8861999512 -9999.000000 3.0000000000 12.000000000 64.000000000 1.0000000000
 1701.5000000 3.9159998894 -9999.000000 3.0000000000 12.000000000 64.000000000 1.0000000000
 1701.6250000 4.3861999512 -9999.000000 3.0000000000 12.000000000 64.000000000 1.0000000000
 1701.7500000 4.8565001488 -9999.000000 3.0000000000 12.000000000 64.000000000 1.0000000000
 1701.8750000 5.3267002106 -9999.000000 3.0000000000 12.000000000 64.000000000 1.0000000000
