# LAS format log file from PETREL
# Project units are specified as depth units
#==================================================================
~Version information
VERS.   2.0:
WRAP.   NO:
#==================================================================
~Well
STRT .m      745.00000000 :
STOP .m      1730.0000000 :
STEP .m     0.12500000 :
NULL .        -999.250000 :
COMP.           : COMPANY
WELL.  5-0158   : WELL
FLD.            : FIELD
LOC.            : LOCATION
SRVC.           : SERVICE COMPANY
DATE.  2020-03-08 09:25:08   : Log Export Date {yyyy-MM-dd HH:mm:ss}
PROV.           : PROVINCE
UWI.      : UNIQUE WELL ID
API.            : API NUMBER
#==================================================================
~Curve
DEPT .m                   : DEPTH
RT .ohm.m                 : RT
SP .                      : SP
Fluids .                  : Fluids
POR .m3/m3                : POR
PERM .mD                  : PERM
Lith .                    : Lith
~Parameter
#==================================================================
~Ascii
# ...
 1636.7500000 34.317501068 -9999.000000 4.0000000000 17.000000000 175.00000000 1.0000000000
 1636.8750000 34.456298828 -9999.000000 4.0000000000 17.000000000 175.00000000 1.0000000000
 1637.0000000 34.595001221 -9999.000000 4.0000000000 17.000000000 175.00000000 1.0000000000
 1637.1250000 34.897499084 -9999.000000  -999.250000 0.1000000015 0.1000000015 0.0000000000
 1637.2500000 35.200000763 -9999.000000  -999.250000 0.1000000015 0.1000000015 0.0000000000
 1637.3750000 35.502498627 -9999.000000  -999.250000 0.1000000015 0.1000000015 0.0000000000
 1637.5000000 35.805000305 -9999.000000 4.0000000000 15.000000000 138.00000000 1.0000000000
 1637.6250000 35.442699432 -9999.000000 4.0000000000 15.000000000 138.00000000 1.0000000000
 1637.7500000 35.080501556 -9999.000000 4.0000000000 15.000000000 138.00000000 1.0000000000
 1637.8750000 34.718200684 -9999.000000 4.0000000000 15.000000000 138.00000000 1.0000000000
 1638.0000000 34.355998993 -9999.000000 4.0000000000 15.000000000 138.00000000 1.0000000000
 1638.1250000 37.847698212 -9999.000000 4.0000000000 15.000000000 138.00000000 1.0000000000
 1638.2500000 41.339500427 -9999.000000 4.0000000000 15.000000000 138.00000000 1.0000000000
 1638.3750000 44.831298828 -9999.000000 4.0000000000 15.000000000 138.00000000 1.0000000000
 1638.5000000 48.323001862 -9999.000000 4.0000000000 15.000000000 138.00000000 1.0000000000
 1638.6250000 48.032001495 -9999.000000 4.0000000000 15.000000000 138.00000000 1.0000000000
 1638.7500000 47.741001129 -9999.000000 4.0000000000 15.000000000 138.00000000 1.0000000000
 1638.8750000 47.450000763 -9999.000000 4.0000000000 15.000000000 138.00000000 1.0000000000
 1639.0000000 47.159000397 -9999.000000 4.0000000000 15.000000000 138.00000000 1.0000000000
 1639.1250000 42.432998657 -9999.000000 4.0000000000 15.000000000 138.00000000 1.0000000000
 1639.2500000 37.707000732 -9999.000000 4.0000000000 15.000000000 138.00000000 1.0000000000
 1639.3750000 32.980998993 -9999.000000 4.0000000000 15.000000000 138.00000000 1.0000000000
 1639.5000000 28.254999161 -9999.000000 4.0000000000 15.000000000 138.00000000 1.0000000000
 1639.6250000 32.598201752 -9999.000000 4.0000000000 15.000000000 138.00000000 1.0000000000
 1639.7500000 36.941501617 -9999.000000 4.0000000000 15.000000000 138.00000000 1.0000000000
 1639.8750000 41.284698486 -9999.000000 4.0000000000 15.000000000 138.00000000 1.0000000000
 1640.0000000 45.627998352 -9999.000000 4.0000000000 15.000000000 138.00000000 1.0000000000
 1640.1250000 43.330501556 -9999.000000 4.0000000000 15.000000000 138.00000000 1.0000000000
 1640.2500000 41.033000946 -9999.000000 4.0000000000 15.000000000 138.00000000 1.0000000000
 1640.3750000 38.735500336 -9999.000000 4.0000000000 15.000000000 138.00000000 1.0000000000
 1640.5000000 36.437999725 -9999.000000 4.0000000000 15.000000000 138.00000000 1.0000000000
 1640.6250000 35.240001678 -9999.000000 4.0000000000 15.000000000 138.00000000 1.0000000000
 1640.7500000 34.041999817 -9999.000000 4.0000000000 15.000000000 138.00000000 1.0000000000
 1640.8750000 32.844001770 -9999.000000 4.0000000000 15.000000000 138.00000000 1.0000000000
 1641.0000000 31.645999908 -9999.000000 4.0000000000 15.000000000 138.00000000 1.0000000000
 1641.1250000 33.073001862 -9999.000000 4.0000000000 15.000000000 138.00000000 1.0000000000
 1641.2500000 34.500000000 -9999.000000 4.0000000000 15.000000000 138.00000000 1.0000000000
 1641.3750000 35.926998138 -9999.000000 4.0000000000 15.000000000 138.00000000 1.0000000000
 1641.5000000 37.354000092 -9999.000000 4.0000000000 15.000000000 138.00000000 1.0000000000
 1641.6250000 37.450801849 -9999.000000 4.0000000000 15.000000000 138.00000000 1.0000000000
 1641.7500000 37.547500610 -9999.000000 4.0000000000 15.000000000 138.00000000 1.0000000000
 1641.8750000 37.644298553 -9999.000000 4.0000000000 15.000000000 138.00000000 1.0000000000
 1642.0000000 37.741001129 -9999.000000 4.0000000000 15.000000000 138.00000000 1.0000000000
 1642.1250000 38.091999054 -9999.000000 4.0000000000 15.000000000 138.00000000 1.0000000000
 1642.2500000 38.443000793 -9999.000000 4.0000000000 15.000000000 138.00000000 1.0000000000
 1642.3750000 38.793998718 -9999.000000 4.0000000000 15.000000000 138.00000000 1.0000000000
 1642.5000000 39.145000458 -9999.000000 4.0000000000 15.000000000 138.00000000 1.0000000000
 1642.6250000 40.881500244 -9999.000000 4.0000000000 15.000000000 138.00000000 1.0000000000
 1642.7500000 42.618000031 -9999.000000 4.0000000000 15.000000000 138.00000000 1.0000000000
 1642.8750000 44.354499817 -9999.000000 4.0000000000 15.000000000 138.00000000 1.0000000000
 1643.0000000 46.090999603 -9999.000000 4.0000000000 15.000000000 138.00000000 1.0000000000
 1643.1250000 46.662498474 -9999.000000 4.0000000000 15.000000000 138.00000000 1.0000000000
 1643.2500000 47.234001160 -9999.000000 4.0000000000 15.000000000 138.00000000 1.0000000000
 1643.3750000 47.805500031 -9999.000000 4.0000000000 15.000000000 138.00000000 1.0000000000
 1643.5000000 48.376998901 -9999.000000 4.0000000000 15.000000000 138.00000000 1.0000000000
 1643.6250000 51.873699188 -9999.000000 4.0000000000 15.000000000 138.00000000 1.0000000000
 1643.7500000 55.370498657 -9999.000000 4.0000000000 15.000000000 138.00000000 1.0000000000
 1643.8750000 58.867198944 -9999.000000 4.0000000000 15.000000000 138.00000000 1.0000000000
 1644.0000000 62.363998413 -9999.000000 4.0000000000 15.000000000 138.00000000 1.0000000000
 1644.1250000 64.779197693 -9999.000000 4.0000000000 15.000000000 138.00000000 1.0000000000
 1644.2500000 67.194503784 -9999.000000 4.0000000000 15.000000000 138.00000000 1.0000000000
 1644.3750000 69.609802246 -9999.000000 4.0000000000 15.000000000 138.00000000 1.0000000000
 1644.5000000 72.025001526 -9999.000000 4.0000000000 15.000000000 138.00000000 1.0000000000
 1644.6250000 70.861503601 -9999.000000 4.0000000000 15.000000000 138.00000000 1.0000000000
 1644.7500000 69.697998047 -9999.000000 4.0000000000 15.000000000 138.00000000 1.0000000000
 1644.8750000 68.534500122 -9999.000000 4.0000000000 15.000000000 138.00000000 1.0000000000
 1645.0000000 67.371002197 -9999.000000 4.0000000000 15.000000000 138.00000000 1.0000000000
 1645.1250000 65.377799988 -9999.000000 4.0000000000 15.000000000 138.00000000 1.0000000000
 1645.2500000 63.384498596 -9999.000000 4.0000000000 15.000000000 138.00000000 1.0000000000
 1645.3750000 61.391201019 -9999.000000 4.0000000000 15.000000000 138.00000000 1.0000000000
 1645.5000000 59.397998810 -9999.000000 4.0000000000 15.000000000 138.00000000 1.0000000000
 1645.6250000 58.277500153 -9999.000000 4.0000000000 15.000000000 138.00000000 1.0000000000
 1645.7500000 57.157001495 -9999.000000 4.0000000000 15.000000000 138.00000000 1.0000000000
 1645.8750000 56.036499023 -9999.000000 4.0000000000 15.000000000 138.00000000 1.0000000000
 1646.0000000 54.916000366 -9999.000000 4.0000000000 15.000000000 138.00000000 1.0000000000
 1646.1250000 53.107299805 -9999.000000 4.0000000000 15.000000000 138.00000000 1.0000000000
 1646.2500000 51.298500061 -9999.000000 4.0000000000 15.000000000 138.00000000 1.0000000000
 1646.3750000 49.489700317 -9999.000000 4.0000000000 15.000000000 138.00000000 1.0000000000
 1646.5000000 47.680999756 -9999.000000 4.0000000000 15.000000000 138.00000000 1.0000000000
 1646.6250000 51.271198273 -9999.000000 4.0000000000 15.000000000 138.00000000 1.0000000000
 1646.7500000 54.861499786 -9999.000000 4.0000000000 15.000000000 138.00000000 1.0000000000
 1646.8750000 58.451698303 -9999.000000 4.0000000000 15.000000000 138.00000000 1.0000000000
 1647.0000000 62.041999817 -9999.000000 4.0000000000 15.000000000 138.00000000 1.0000000000
 1647.1250000 54.155498505 -9999.000000 4.0000000000 15.000000000 138.00000000 1.0000000000
 1647.2500000 46.269001007 -9999.000000 4.0000000000 15.000000000 138.00000000 1.0000000000
 1647.3750000 38.382499695 -9999.000000 4.0000000000 15.000000000 138.00000000 1.0000000000
 1647.5000000 30.496000290 -9999.000000 4.0000000000 15.000000000 138.00000000 1.0000000000
