# LAS format log file from PETREL
# Project units are specified as depth units
#==================================================================
~Version information
VERS.   2.0:
WRAP.   NO:
#==================================================================
~Well
STRT .m      730.00000000 :
STOP .m      1729.5000000 :
STEP .m     0.12500000 :
NULL .        -999.250000 :
COMP.           : COMPANY
WELL.  5-0163   : WELL
FLD.            : FIELD
LOC.            : LOCATION
SRVC.           : SERVICE COMPANY
DATE.  2020-03-08 09:25:09   : Log Export Date {yyyy-MM-dd HH:mm:ss}
PROV.           : PROVINCE
UWI.      : UNIQUE WELL ID
API.            : API NUMBER
#==================================================================
~Curve
DEPT .m                   : DEPTH
RT .ohm.m                 : RT
SP .                      : SP
Fluids .                  : Fluids
POR .m3/m3                : POR
PERM .mD                  : PERM
Lith .                    : Lith
~Parameter
#==================================================================
~Ascii
# ...
 1578.2500000 9.1479997635 -9999.000000 0.0000000000 7.0000000000 7.0000000000 1.0000000000
 1578.3750000 9.8730001450 -9999.000000 0.0000000000 7.0000000000 7.0000000000 1.0000000000
 1578.5000000 10.597999573 -9999.000000  -999.250000 0.1000000015 0.1000000015 0.0000000000
 1578.6250000 9.0452003479 -9999.000000  -999.250000 0.1000000015 0.1000000015 0.0000000000
 1578.7500000 7.4924998283 -9999.000000  -999.250000 0.1000000015 0.1000000015 0.0000000000
 1578.8750000 5.9397001266 -9999.000000  -999.250000 0.1000000015 0.1000000015 0.0000000000
 1579.0000000 4.3870000839 -9999.000000  -999.250000 0.1000000015 0.1000000015 0.0000000000
 1579.1250000 4.4342999458 -9999.000000  -999.250000 0.1000000015 0.1000000015 0.0000000000
 1579.2500000 4.4815001488 -9999.000000  -999.250000 0.1000000015 0.1000000015 0.0000000000
 1579.3750000 4.5288000107 -9999.000000  -999.250000 0.1000000015 0.1000000015 0.0000000000
 1579.5000000 4.5760002136 -9999.000000  -999.250000 0.1000000015 0.1000000015 0.0000000000
 1579.6250000 5.8559999466 -9999.000000  -999.250000 0.1000000015 0.1000000015 0.0000000000
 1579.7500000 7.1360001564 -9999.000000  -999.250000 0.1000000015 0.1000000015 0.0000000000
 1579.8750000 8.4160003662 -9999.000000  -999.250000 0.1000000015 0.1000000015 0.0000000000
 1580.0000000 9.6960000992 -9999.000000 3.0000000000 14.000000000 82.000000000 1.0000000000
 1580.1250000 10.895999908 -9999.000000 3.0000000000 14.000000000 82.000000000 1.0000000000
 1580.2500000 12.095999718 -9999.000000 3.0000000000 14.000000000 82.000000000 1.0000000000
 1580.3750000 13.295999527 -9999.000000 3.0000000000 14.000000000 82.000000000 1.0000000000
 1580.5000000 14.496000290 -9999.000000 3.0000000000 14.000000000 82.000000000 1.0000000000
 1580.6250000 14.277000427 -9999.000000 3.0000000000 14.000000000 82.000000000 1.0000000000
 1580.7500000 14.057999611 -9999.000000 3.0000000000 14.000000000 82.000000000 1.0000000000
 1580.8750000 13.838999748 -9999.000000 3.0000000000 14.000000000 82.000000000 1.0000000000
 1581.0000000 13.619999886 -9999.000000 3.0000000000 14.000000000 82.000000000 1.0000000000
 1581.1250000 13.258700371 -9999.000000 3.0000000000 14.000000000 82.000000000 1.0000000000
 1581.2500000 12.897500038 -9999.000000 3.0000000000 14.000000000 82.000000000 1.0000000000
 1581.3750000 12.536299706 -9999.000000 3.0000000000 14.000000000 82.000000000 1.0000000000
 1581.5000000 12.175000191 -9999.000000  -999.250000 0.1000000015 0.1000000015 0.0000000000
 1581.6250000 12.085300446 -9999.000000  -999.250000 0.1000000015 0.1000000015 0.0000000000
 1581.7500000 11.995499611 -9999.000000  -999.250000 0.1000000015 0.1000000015 0.0000000000
 1581.8750000 11.905799866 -9999.000000 3.0000000000 15.000000000 141.00000000 1.0000000000
 1582.0000000 11.815999985 -9999.000000 3.0000000000 15.000000000 141.00000000 1.0000000000
 1582.1250000 12.410499573 -9999.000000 3.0000000000 15.000000000 141.00000000 1.0000000000
 1582.2500000 13.005000114 -9999.000000 3.0000000000 15.000000000 141.00000000 1.0000000000
 1582.3750000 13.599499702 -9999.000000 3.0000000000 15.000000000 141.00000000 1.0000000000
 1582.5000000 14.194000244 -9999.000000  -999.250000 0.1000000015 0.1000000015 0.0000000000
 1582.6250000 12.404999733 -9999.000000  -999.250000 0.1000000015 0.1000000015 0.0000000000
 1582.7500000 10.616000175 -9999.000000  -999.250000 0.1000000015 0.1000000015 0.0000000000
 1582.8750000 8.8269996643 -9999.000000  -999.250000 0.1000000015 0.1000000015 0.0000000000
 1583.0000000 7.0380001068 -9999.000000  -999.250000 0.1000000015 0.1000000015 0.0000000000
 1583.1250000 7.1655001640 -9999.000000  -999.250000 0.1000000015 0.1000000015 0.0000000000
 1583.2500000 7.2930002213 -9999.000000  -999.250000 0.1000000015 0.1000000015 0.0000000000
 1583.3750000 7.4204998016 -9999.000000  -999.250000 0.1000000015 0.1000000015 0.0000000000
 1583.5000000 7.5479998589 -9999.000000  -999.250000 0.1000000015 0.1000000015 0.0000000000
 1583.6250000 8.8734998703 -9999.000000  -999.250000 0.1000000015 0.1000000015 0.0000000000
 1583.7500000 10.199000359 -9999.000000 4.0000000000 15.000000000 168.00000000 1.0000000000
 1583.8750000 11.524499893 -9999.000000 4.0000000000 15.000000000 168.00000000 1.0000000000
 1584.0000000 12.850000381 -9999.000000 4.0000000000 15.000000000 168.00000000 1.0000000000
 1584.1250000 16.771999359 -9999.000000 4.0000000000 15.000000000 168.00000000 1.0000000000
 1584.2500000 20.694000244 -9999.000000 4.0000000000 15.000000000 168.00000000 1.0000000000
 1584.3750000 24.615999222 -9999.000000 4.0000000000 15.000000000 168.00000000 1.0000000000
 1584.5000000 28.538000107 -9999.000000 4.0000000000 15.000000000 168.00000000 1.0000000000
 1584.6250000 29.525699615 -9999.000000 4.0000000000 15.000000000 168.00000000 1.0000000000
 1584.7500000 30.513500214 -9999.000000 4.0000000000 15.000000000 168.00000000 1.0000000000
 1584.8750000 31.501199722 -9999.000000 4.0000000000 15.000000000 168.00000000 1.0000000000
 1585.0000000 32.488998413 -9999.000000 4.0000000000 15.000000000 168.00000000 1.0000000000
 1585.1250000 28.750000000 -9999.000000 4.0000000000 15.000000000 168.00000000 1.0000000000
 1585.2500000 25.010999680 -9999.000000 4.0000000000 15.000000000 168.00000000 1.0000000000
 1585.3750000 21.271999359 -9999.000000 4.0000000000 15.000000000 168.00000000 1.0000000000
 1585.5000000 17.533000946 -9999.000000 4.0000000000 15.000000000 168.00000000 1.0000000000
 1585.6250000 16.834800720 -9999.000000 4.0000000000 15.000000000 168.00000000 1.0000000000
 1585.7500000 16.136499405 -9999.000000 4.0000000000 15.000000000 168.00000000 1.0000000000
 1585.8750000 15.438300133 -9999.000000 4.0000000000 15.000000000 168.00000000 1.0000000000
 1586.0000000 14.739999771 -9999.000000 4.0000000000 15.000000000 168.00000000 1.0000000000
 1586.1250000 13.623000145 -9999.000000 4.0000000000 15.000000000 168.00000000 1.0000000000
 1586.2500000 12.505999565 -9999.000000 4.0000000000 15.000000000 168.00000000 1.0000000000
 1586.3750000 11.388999939 -9999.000000 4.0000000000 15.000000000 168.00000000 1.0000000000
 1586.5000000 10.272000313 -9999.000000  -999.250000 0.1000000015 0.1000000015 0.0000000000
 1586.6250000 9.1995000839 -9999.000000  -999.250000 0.1000000015 0.1000000015 0.0000000000
 1586.7500000 8.1269998550 -9999.000000  -999.250000 0.1000000015 0.1000000015 0.0000000000
 1586.8750000 7.0545001030 -9999.000000  -999.250000 0.1000000015 0.1000000015 0.0000000000
 1587.0000000 5.9819998741 -9999.000000  -999.250000 0.1000000015 0.1000000015 0.0000000000
 1587.1250000 5.7455000877 -9999.000000  -999.250000 0.1000000015 0.1000000015 0.0000000000
 1587.2500000 5.5089998245 -9999.000000  -999.250000 0.1000000015 0.1000000015 0.0000000000
 1587.3750000 5.2725000381 -9999.000000  -999.250000 0.1000000015 0.1000000015 0.0000000000
 1587.5000000 5.0359997749 -9999.000000  -999.250000 0.1000000015 0.1000000015 0.0000000000
 1587.6250000 5.2017002106 -9999.000000  -999.250000 0.1000000015 0.1000000015 0.0000000000
 1587.7500000 5.3674998283 -9999.000000  -999.250000 0.1000000015 0.1000000015 0.0000000000
 1587.8750000 5.5331997871 -9999.000000  -999.250000 0.1000000015 0.1000000015 0.0000000000
 1588.0000000 5.6989998817 -9999.000000  -999.250000 0.1000000015 0.1000000015 0.0000000000
 1588.1250000 5.3794999123 -9999.000000  -999.250000 0.1000000015 0.1000000015 0.0000000000
 1588.2500000 5.0599999428 -9999.000000  -999.250000 0.1000000015 0.1000000015 0.0000000000
 1588.3750000 4.7404999733 -9999.000000  -999.250000 0.1000000015 0.1000000015 0.0000000000
 1588.5000000 4.4210000038 -9999.000000  -999.250000 0.1000000015 0.1000000015 0.0000000000
 1588.6250000 4.5443000793 -9999.000000  -999.250000 0.1000000015 0.1000000015 0.0000000000
 1588.7500000 4.6675000191 -9999.000000  -999.250000 0.1000000015 0.1000000015 0.0000000000
 1588.8750000 4.7908000946 -9999.000000  -999.250000 0.1000000015 0.1000000015 0.0000000000
 1589.0000000 4.9140000343 -9999.000000  -999.250000 0.1000000015 0.1000000015 0.0000000000
