# LAS format log file from PETREL
# Project units are specified as depth units
#==================================================================
~Version information
VERS.   2.0:
WRAP.   NO:
#==================================================================
~Well
STRT .m      1338.0000000 :
STOP .m      1710.0000000 :
STEP .m     0.12500000 :
NULL .        -999.250000 :
COMP.           : COMPANY
WELL.  5-0162C2   : WELL
FLD.            : FIELD
LOC.            : LOCATION
SRVC.           : SERVICE COMPANY
DATE.  2020-03-08 09:25:09   : Log Export Date {yyyy-MM-dd HH:mm:ss}
PROV.           : PROVINCE
UWI.      : UNIQUE WELL ID
API.            : API NUMBER
#==================================================================
~Curve
DEPT .m                   : DEPTH
RT .ohm.m                 : RT
SP .                      : SP
Fluids .                  : Fluids
POR .m3/m3                : POR
PERM .mD                  : PERM
Lith .                    : Lith
~Parameter
#==================================================================
~Ascii
# ...
 1577.2500000 8.4899997711 -47.40000153  -999.250000 0.1000000015 0.1000000015 0.0000000000
 1577.3750000 7.3499999046 -47.43000031  -999.250000 0.1000000015 0.1000000015 0.0000000000
 1577.5000000 5.8899998665 -47.45999908  -999.250000 0.1000000015 0.1000000015 0.0000000000
 1577.6250000 4.7399997711 -47.58000183  -999.250000 0.1000000015 0.1000000015 0.0000000000
 1577.7500000 4.1799998283 -47.93999863  -999.250000 0.1000000015 0.1000000015 0.0000000000
 1577.8750000 4.3600001335 -48.58000183  -999.250000 0.1000000015 0.1000000015 0.0000000000
 1578.0000000 5.3200001717 -49.47000122  -999.250000 0.1000000015 0.1000000015 0.0000000000
 1578.1250000 7.9099998474 -50.59999847  -999.250000 0.1000000015 0.1000000015 0.0000000000
 1578.2500000 13.840000153 -51.97000122  -999.250000 0.1000000015 0.1000000015 0.0000000000
 1578.3750000 23.159999847 -53.52999878 4.0000000000 19.000000000 271.00000000 1.0000000000
 1578.5000000 32.430000305 -55.15000153 4.0000000000 19.000000000 271.00000000 1.0000000000
 1578.6250000 38.150001526 -56.63000107 4.0000000000 19.000000000 271.00000000 1.0000000000
 1578.7500000 39.950000763 -57.86999893 4.0000000000 19.000000000 271.00000000 1.0000000000
 1578.8750000 39.700000763 -58.86999893 4.0000000000 19.000000000 271.00000000 1.0000000000
 1579.0000000 38.770000458 -59.61000061 4.0000000000 19.000000000 271.00000000 1.0000000000
 1579.1250000 36.549999237 -60.09000015 4.0000000000 19.000000000 271.00000000 1.0000000000
 1579.2500000 33.259998322 -60.34000015 4.0000000000 19.000000000 271.00000000 1.0000000000
 1579.3750000 29.829999924 -60.38000107 4.0000000000 19.000000000 271.00000000 1.0000000000
 1579.5000000 27.290000916 -60.29000092 4.0000000000 19.000000000 271.00000000 1.0000000000
 1579.6250000 25.620000839 -60.09999847 4.0000000000 19.000000000 271.00000000 1.0000000000
 1579.7500000 23.719999313 -59.83000183 4.0000000000 19.000000000 271.00000000 1.0000000000
 1579.8750000 21.829999924 -59.50000000 4.0000000000 19.000000000 271.00000000 1.0000000000
 1580.0000000 21.010000229 -59.13000107 4.0000000000 19.000000000 271.00000000 1.0000000000
 1580.1250000 22.350000381 -58.72000122 4.0000000000 19.000000000 271.00000000 1.0000000000
 1580.2500000 25.920000076 -58.27999878 4.0000000000 19.000000000 271.00000000 1.0000000000
 1580.3750000 29.930000305 -57.79999924 4.0000000000 19.000000000 271.00000000 1.0000000000
 1580.5000000 31.069999695 -57.27000046 4.0000000000 19.000000000 271.00000000 1.0000000000
 1580.6250000 27.430000305 -56.68000031 4.0000000000 19.000000000 271.00000000 1.0000000000
 1580.7500000 20.760000229 -56.02999878 4.0000000000 19.000000000 271.00000000 1.0000000000
 1580.8750000 14.770000458 -55.36000061 4.0000000000 19.000000000 271.00000000 1.0000000000
 1581.0000000 11.159999847 -54.72999954 4.0000000000 19.000000000 271.00000000 1.0000000000
 1581.1250000 9.7100000381 -54.13999939 3.0000000000 16.000000000 208.00000000 1.0000000000
 1581.2500000 10.029999733 -53.56000137 3.0000000000 16.000000000 208.00000000 1.0000000000
 1581.3750000 12.300000191 -52.95999908 3.0000000000 16.000000000 208.00000000 1.0000000000
 1581.5000000 15.609999657 -52.33000183 3.0000000000 16.000000000 208.00000000 1.0000000000
 1581.6250000 18.120000839 -51.66999817 3.0000000000 16.000000000 208.00000000 1.0000000000
 1581.7500000 18.750000000 -50.95000076 3.0000000000 16.000000000 208.00000000 1.0000000000
 1581.8750000 17.329999924 -50.15000153 3.0000000000 16.000000000 208.00000000 1.0000000000
 1582.0000000 14.819999695 -49.27999878 3.0000000000 16.000000000 208.00000000 1.0000000000
 1582.1250000 11.970000267 -48.34999847 3.0000000000 16.000000000 208.00000000 1.0000000000
 1582.2500000 9.5299997330 -47.41999817 3.0000000000 16.000000000 208.00000000 1.0000000000
 1582.3750000 7.7199997902 -46.50999832 3.0000000000 16.000000000 208.00000000 1.0000000000
 1582.5000000 6.2199997902 -45.66999817  -999.250000 0.1000000015 0.1000000015 0.0000000000
 1582.6250000 5.0999999046 -44.91999817  -999.250000 0.1000000015 0.1000000015 0.0000000000
 1582.7500000 4.5599999428 -44.25999832  -999.250000 0.1000000015 0.1000000015 0.0000000000
 1582.8750000 4.5500001907 -43.70999908  -999.250000 0.1000000015 0.1000000015 0.0000000000
 1583.0000000 4.7500000000 -43.29999924  -999.250000 0.1000000015 0.1000000015 0.0000000000
 1583.1250000 5.0100002289 -42.99000168  -999.250000 0.1000000015 0.1000000015 0.0000000000
 1583.2500000 5.2100000381 -42.72999954  -999.250000 0.1000000015 0.1000000015 0.0000000000
 1583.3750000 5.1500000954 -42.45999908  -999.250000 0.1000000015 0.1000000015 0.0000000000
 1583.5000000 4.6799998283 -42.15000153  -999.250000 0.1000000015 0.1000000015 0.0000000000
 1583.6250000 4.0100002289 -41.77999878  -999.250000 0.1000000015 0.1000000015 0.0000000000
 1583.7500000 3.4700000286 -41.36999893  -999.250000 0.1000000015 0.1000000015 0.0000000000
 1583.8750000 3.2100000381 -40.95000076  -999.250000 0.1000000015 0.1000000015 0.0000000000
 1584.0000000 3.1300001144 -40.58000183  -999.250000 0.1000000015 0.1000000015 0.0000000000
 1584.1250000 3.1400001049 -40.27999878  -999.250000 0.1000000015 0.1000000015 0.0000000000
 1584.2500000 3.1900000572 -40.06999969  -999.250000 0.1000000015 0.1000000015 0.0000000000
 1584.3750000 3.2699999809 -39.95999908  -999.250000 0.1000000015 0.1000000015 0.0000000000
 1584.5000000 3.4600000381 -39.93000031  -999.250000 0.1000000015 0.1000000015 0.0000000000
 1584.6250000 3.8599998951 -39.93000031  -999.250000 0.1000000015 0.1000000015 0.0000000000
 1584.7500000 4.3400001526 -39.93000031  -999.250000 0.1000000015 0.1000000015 0.0000000000
 1584.8750000 4.6300001144 -39.90999985  -999.250000 0.1000000015 0.1000000015 0.0000000000
 1585.0000000 4.4800000191 -39.84999847  -999.250000 0.1000000015 0.1000000015 0.0000000000
 1585.1250000 3.9800000191 -39.72000122  -999.250000 0.1000000015 0.1000000015 0.0000000000
 1585.2500000 3.3800001144 -39.52999878  -999.250000 0.1000000015 0.1000000015 0.0000000000
 1585.3750000 2.9400000572 -39.27999878  -999.250000 0.1000000015 0.1000000015 0.0000000000
 1585.5000000 2.6900000572 -39.00999832  -999.250000 0.1000000015 0.1000000015 0.0000000000
 1585.6250000 2.5499999523 -38.72000122  -999.250000 0.1000000015 0.1000000015 0.0000000000
 1585.7500000 2.5000000000 -38.40999985  -999.250000 0.1000000015 0.1000000015 0.0000000000
 1585.8750000 2.5199999809 -38.11999893  -999.250000 0.1000000015 0.1000000015 0.0000000000
 1586.0000000 2.5699999332 -37.88000107  -999.250000 0.1000000015 0.1000000015 0.0000000000
 1586.1250000 2.5899999142 -37.70999908  -999.250000 0.1000000015 0.1000000015 0.0000000000
 1586.2500000 2.5799999237 -37.59000015  -999.250000 0.1000000015 0.1000000015 0.0000000000
 1586.3750000 2.5899999142 -37.52000046  -999.250000 0.1000000015 0.1000000015 0.0000000000
 1586.5000000 2.6199998856 -37.47999954  -999.250000 0.1000000015 0.1000000015 0.0000000000
 1586.6250000 2.6400001049 -37.49000168  -999.250000 0.1000000015 0.1000000015 0.0000000000
 1586.7500000 2.6199998856 -37.54000092  -999.250000 0.1000000015 0.1000000015 0.0000000000
 1586.8750000 2.5699999332 -37.63000107  -999.250000 0.1000000015 0.1000000015 0.0000000000
 1587.0000000 2.5199999809 -37.72000122  -999.250000 0.1000000015 0.1000000015 0.0000000000
 1587.1250000 2.4800000191 -37.81000137  -999.250000 0.1000000015 0.1000000015 0.0000000000
 1587.2500000 2.4600000381 -37.88999939  -999.250000 0.1000000015 0.1000000015 0.0000000000
 1587.3750000 2.4300000668 -37.95999908  -999.250000 0.1000000015 0.1000000015 0.0000000000
 1587.5000000 2.4300000668 -38.02999878  -999.250000 0.1000000015 0.1000000015 0.0000000000
 1587.6250000 2.5000000000 -38.11000061  -999.250000 0.1000000015 0.1000000015 0.0000000000
 1587.7500000 2.6099998951 -38.20000076  -999.250000 0.1000000015 0.1000000015 0.0000000000
 1587.8750000 2.7100000381 -38.31000137  -999.250000 0.1000000015 0.1000000015 0.0000000000
 1588.0000000 2.8099999428 -38.45000076  -999.250000 0.1000000015 0.1000000015 0.0000000000
