# LAS format log file from PETREL
# Project units are specified as depth units
#==================================================================
~Version information
VERS.   2.0:
WRAP.   NO:
#==================================================================
~Well
STRT .m      1338.0000000 :
STOP .m      1710.0000000 :
STEP .m     0.12500000 :
NULL .        -999.250000 :
COMP.           : COMPANY
WELL.  5-0162C2   : WELL
FLD.            : FIELD
LOC.            : LOCATION
SRVC.           : SERVICE COMPANY
DATE.  2020-03-08 09:25:09   : Log Export Date {yyyy-MM-dd HH:mm:ss}
PROV.           : PROVINCE
UWI.      : UNIQUE WELL ID
API.            : API NUMBER
#==================================================================
~Curve
DEPT .m                   : DEPTH
RT .ohm.m                 : RT
SP .                      : SP
Fluids .                  : Fluids
POR .m3/m3                : POR
PERM .mD                  : PERM
Lith .                    : Lith
~Parameter
#==================================================================
~Ascii
# ...
 1555.5000000 24.340000153 -53.84999847 4.0000000000 16.000000000 178.00000000 1.0000000000
 1555.6250000 21.399999619 -53.24000168 4.0000000000 16.000000000 178.00000000 1.0000000000
 1555.7500000 17.200000763 -52.58000183 4.0000000000 16.000000000 178.00000000 1.0000000000
 1555.8750000 13.310000420 -51.95999908 4.0000000000 16.000000000 178.00000000 1.0000000000
 1556.0000000 10.590000153 -51.43000031  -999.250000 0.1000000015 0.1000000015 0.0000000000
 1556.1250000 9.1899995804 -51.00999832  -999.250000 0.1000000015 0.1000000015 0.0000000000
 1556.2500000 8.9600000381 -50.68999863  -999.250000 0.1000000015 0.1000000015 0.0000000000
 1556.3750000 9.6999998093 -50.45999908  -999.250000 0.1000000015 0.1000000015 0.0000000000
 1556.5000000 11.399999619 -50.31000137 3.0000000000 15.000000000 101.00000000 1.0000000000
 1556.6250000 13.850000381 -50.20000076 3.0000000000 15.000000000 101.00000000 1.0000000000
 1556.7500000 16.569999695 -50.04999924 3.0000000000 15.000000000 101.00000000 1.0000000000
 1556.8750000 19.260000229 -49.75999832 3.0000000000 15.000000000 101.00000000 1.0000000000
 1557.0000000 21.930000305 -49.27000046 3.0000000000 15.000000000 101.00000000 1.0000000000
 1557.1250000 24.520000458 -48.56000137 3.0000000000 15.000000000 101.00000000 1.0000000000
 1557.2500000 26.610000610 -47.59000015 3.0000000000 15.000000000 101.00000000 1.0000000000
 1557.3750000 27.309999466 -46.36000061 3.0000000000 15.000000000 101.00000000 1.0000000000
 1557.5000000 25.479999542 -44.93000031 3.0000000000 15.000000000 101.00000000 1.0000000000
 1557.6250000 20.729999542 -43.43999863 3.0000000000 15.000000000 101.00000000 1.0000000000
 1557.7500000 14.550000191 -42.06999969 3.0000000000 15.000000000 101.00000000 1.0000000000
 1557.8750000 9.2899999619 -40.95999908  -999.250000 0.1000000015 0.1000000015 0.0000000000
 1558.0000000 6.1700000763 -40.15999985  -999.250000 0.1000000015 0.1000000015 0.0000000000
 1558.1250000 4.7899999619 -39.72000122  -999.250000 0.1000000015 0.1000000015 0.0000000000
 1558.2500000 4.3200001717 -39.65000153  -999.250000 0.1000000015 0.1000000015 0.0000000000
 1558.3750000 4.3000001907 -39.97999954  -999.250000 0.1000000015 0.1000000015 0.0000000000
 1558.5000000 4.3699998856 -40.63000107  -999.250000 0.1000000015 0.1000000015 0.0000000000
 1558.6250000 4.3600001335 -41.54999924  -999.250000 0.1000000015 0.1000000015 0.0000000000
 1558.7500000 4.4000000954 -42.65999985  -999.250000 0.1000000015 0.1000000015 0.0000000000
 1558.8750000 4.7899999619 -43.93999863  -999.250000 0.1000000015 0.1000000015 0.0000000000
 1559.0000000 5.7800002098 -45.34999847  -999.250000 0.1000000015 0.1000000015 0.0000000000
 1559.1250000 7.8099999428 -46.84999847  -999.250000 0.1000000015 0.1000000015 0.0000000000
 1559.2500000 11.180000305 -48.38000107  -999.250000 0.1000000015 0.1000000015 0.0000000000
 1559.3750000 15.390000343 -49.81999969 4.0000000000 19.000000000 300.00000000 1.0000000000
 1559.5000000 19.700000763 -51.08000183 4.0000000000 19.000000000 300.00000000 1.0000000000
 1559.6250000 23.899999619 -52.06999969 4.0000000000 19.000000000 300.00000000 1.0000000000
 1559.7500000 27.350000381 -52.77999878 4.0000000000 19.000000000 300.00000000 1.0000000000
 1559.8750000 28.170000076 -53.22000122 4.0000000000 19.000000000 300.00000000 1.0000000000
 1560.0000000 25.319999695 -53.43000031 4.0000000000 19.000000000 300.00000000 1.0000000000
 1560.1250000 20.450000763 -53.47000122 4.0000000000 19.000000000 300.00000000 1.0000000000
 1560.2500000 16.290000916 -53.38000107 4.0000000000 19.000000000 300.00000000 1.0000000000
 1560.3750000 13.970000267 -53.25000000 4.0000000000 19.000000000 300.00000000 1.0000000000
 1560.5000000 12.989999771 -53.09999847 3.0000000000 18.000000000 216.00000000 1.0000000000
 1560.6250000 12.739999771 -52.97000122 3.0000000000 18.000000000 216.00000000 1.0000000000
 1560.7500000 12.840000153 -52.86999893 3.0000000000 18.000000000 216.00000000 1.0000000000
 1560.8750000 13.090000153 -52.84000015 3.0000000000 18.000000000 216.00000000 1.0000000000
 1561.0000000 13.560000420 -52.86000061 3.0000000000 18.000000000 216.00000000 1.0000000000
 1561.1250000 14.449999809 -52.90999985 3.0000000000 18.000000000 216.00000000 1.0000000000
 1561.2500000 15.640000343 -53.00000000 3.0000000000 18.000000000 216.00000000 1.0000000000
 1561.3750000 16.569999695 -53.13000107 3.0000000000 18.000000000 216.00000000 1.0000000000
 1561.5000000 16.719999313 -53.29999924 3.0000000000 18.000000000 216.00000000 1.0000000000
 1561.6250000 16.030000687 -53.52000046 3.0000000000 18.000000000 216.00000000 1.0000000000
 1561.7500000 14.890000343 -53.77999878 3.0000000000 18.000000000 216.00000000 1.0000000000
 1561.8750000 13.760000229 -54.09999847 3.0000000000 18.000000000 216.00000000 1.0000000000
 1562.0000000 13.000000000 -54.47999954 3.0000000000 18.000000000 216.00000000 1.0000000000
 1562.1250000 12.949999809 -54.93999863 3.0000000000 18.000000000 216.00000000 1.0000000000
 1562.2500000 13.810000420 -55.49000168 4.0000000000 19.000000000 309.00000000 1.0000000000
 1562.3750000 15.899999619 -56.09000015 4.0000000000 19.000000000 309.00000000 1.0000000000
 1562.5000000 20.040000916 -56.70999908 4.0000000000 19.000000000 309.00000000 1.0000000000
 1562.6250000 27.770000458 -57.27999878 4.0000000000 19.000000000 309.00000000 1.0000000000
 1562.7500000 39.000000000 -57.77000046 4.0000000000 19.000000000 309.00000000 1.0000000000
 1562.8750000 48.360000610 -58.18999863 4.0000000000 19.000000000 309.00000000 1.0000000000
 1563.0000000 48.880001068 -58.50999832 4.0000000000 19.000000000 309.00000000 1.0000000000
 1563.1250000 40.090000153 -58.72000122 4.0000000000 19.000000000 309.00000000 1.0000000000
 1563.2500000 28.639999390 -58.86000061 4.0000000000 19.000000000 309.00000000 1.0000000000
 1563.3750000 21.159999847 -58.95999908 4.0000000000 19.000000000 309.00000000 1.0000000000
 1563.5000000 18.010000229 -59.09999847 4.0000000000 19.000000000 309.00000000 1.0000000000
 1563.6250000 17.090000153 -59.27000046 4.0000000000 19.000000000 309.00000000 1.0000000000
 1563.7500000 17.860000610 -59.47000122 4.0000000000 19.000000000 309.00000000 1.0000000000
 1563.8750000 20.379999161 -59.68000031 4.0000000000 19.000000000 309.00000000 1.0000000000
 1564.0000000 23.770000458 -59.91999817 4.0000000000 19.000000000 309.00000000 1.0000000000
 1564.1250000 26.920000076 -60.15999985 4.0000000000 19.000000000 309.00000000 1.0000000000
 1564.2500000 29.299999237 -60.38000107 4.0000000000 19.000000000 309.00000000 1.0000000000
 1564.3750000 30.190000534 -60.56000137 4.0000000000 19.000000000 309.00000000 1.0000000000
 1564.5000000 28.729999542 -60.74000168 4.0000000000 19.000000000 309.00000000 1.0000000000
 1564.6250000 25.459999084 -60.90999985 4.0000000000 19.000000000 309.00000000 1.0000000000
 1564.7500000 22.540000916 -61.09999847 4.0000000000 19.000000000 309.00000000 1.0000000000
 1564.8750000 21.799999237 -61.31000137 4.0000000000 19.000000000 309.00000000 1.0000000000
 1565.0000000 23.409999847 -61.52999878 4.0000000000 19.000000000 309.00000000 1.0000000000
 1565.1250000 27.200000763 -61.75999832 4.0000000000 19.000000000 309.00000000 1.0000000000
 1565.2500000 32.459999084 -61.97999954 4.0000000000 19.000000000 309.00000000 1.0000000000
 1565.3750000 36.810001373 -62.18000031 4.0000000000 19.000000000 309.00000000 1.0000000000
 1565.5000000 38.119998932 -62.34000015 4.0000000000 19.000000000 309.00000000 1.0000000000
 1565.6250000 36.630001068 -62.43000031 4.0000000000 19.000000000 309.00000000 1.0000000000
 1565.7500000 34.209999084 -62.45999908 4.0000000000 19.000000000 309.00000000 1.0000000000
 1565.8750000 31.780000687 -62.45000076 4.0000000000 19.000000000 309.00000000 1.0000000000
 1566.0000000 29.479999542 -62.38999939 4.0000000000 19.000000000 309.00000000 1.0000000000
 1566.1250000 27.790000916 -62.31000137 4.0000000000 19.000000000 309.00000000 1.0000000000
 1566.2500000 27.229999542 -62.20999908 4.0000000000 19.000000000 309.00000000 1.0000000000
