# LAS format log file from PETREL
# Project units are specified as depth units
#==================================================================
~Version information
VERS.   2.0:
WRAP.   NO:
#==================================================================
~Well
STRT .m      730.00000000 :
STOP .m      1729.5000000 :
STEP .m     0.12500000 :
NULL .        -999.250000 :
COMP.           : COMPANY
WELL.  5-0163   : WELL
FLD.            : FIELD
LOC.            : LOCATION
SRVC.           : SERVICE COMPANY
DATE.  2020-03-08 09:25:09   : Log Export Date {yyyy-MM-dd HH:mm:ss}
PROV.           : PROVINCE
UWI.      : UNIQUE WELL ID
API.            : API NUMBER
#==================================================================
~Curve
DEPT .m                   : DEPTH
RT .ohm.m                 : RT
SP .                      : SP
Fluids .                  : Fluids
POR .m3/m3                : POR
PERM .mD                  : PERM
Lith .                    : Lith
~Parameter
#==================================================================
~Ascii
# ...
 1600.0000000 2.2290000916 -9999.000000  -999.250000 0.1000000015 0.1000000015 0.0000000000
 1600.1250000 2.3592998981 -9999.000000  -999.250000 0.1000000015 0.1000000015 0.0000000000
 1600.2500000 2.4895000458 -9999.000000  -999.250000 0.1000000015 0.1000000015 0.0000000000
 1600.3750000 2.6198000908 -9999.000000  -999.250000 0.1000000015 0.1000000015 0.0000000000
 1600.5000000 2.7500000000 -9999.000000  -999.250000 0.1000000015 0.1000000015 0.0000000000
 1600.6250000 2.7785000801 -9999.000000  -999.250000 0.1000000015 0.1000000015 0.0000000000
 1600.7500000 2.8069999218 -9999.000000  -999.250000 0.1000000015 0.1000000015 0.0000000000
 1600.8750000 2.8355000019 -9999.000000  -999.250000 0.1000000015 0.1000000015 0.0000000000
 1601.0000000 2.8640000820 -9999.000000  -999.250000 0.1000000015 0.1000000015 0.0000000000
 1601.1250000 2.6909999847 -9999.000000  -999.250000 0.1000000015 0.1000000015 0.0000000000
 1601.2500000 2.5179998875 -9999.000000  -999.250000 0.1000000015 0.1000000015 0.0000000000
 1601.3750000 2.3450000286 -9999.000000  -999.250000 0.1000000015 0.1000000015 0.0000000000
 1601.5000000 2.1719999313 -9999.000000  -999.250000 0.1000000015 0.1000000015 0.0000000000
 1601.6250000 2.2785000801 -9999.000000  -999.250000 0.1000000015 0.1000000015 0.0000000000
 1601.7500000 2.3849999905 -9999.000000  -999.250000 0.1000000015 0.1000000015 0.0000000000
 1601.8750000 2.4914999008 -9999.000000  -999.250000 0.1000000015 0.1000000015 0.0000000000
 1602.0000000 2.5980000496 -9999.000000  -999.250000 0.1000000015 0.1000000015 0.0000000000
 1602.1250000 2.5938000679 -9999.000000  -999.250000 0.1000000015 0.1000000015 0.0000000000
 1602.2500000 2.5894999504 -9999.000000  -999.250000 0.1000000015 0.1000000015 0.0000000000
 1602.3750000 2.5852999687 -9999.000000  -999.250000 0.1000000015 0.1000000015 0.0000000000
 1602.5000000 2.5810000896 -9999.000000  -999.250000 0.1000000015 0.1000000015 0.0000000000
 1602.6250000 2.4124999046 -9999.000000  -999.250000 0.1000000015 0.1000000015 0.0000000000
 1602.7500000 2.2439999580 -9999.000000  -999.250000 0.1000000015 0.1000000015 0.0000000000
 1602.8750000 2.0755000114 -9999.000000  -999.250000 0.1000000015 0.1000000015 0.0000000000
 1603.0000000 1.9069999456 -9999.000000  -999.250000 0.1000000015 0.1000000015 0.0000000000
 1603.1250000 1.9750000238 -9999.000000  -999.250000 0.1000000015 0.1000000015 0.0000000000
 1603.2500000 2.0429999828 -9999.000000  -999.250000 0.1000000015 0.1000000015 0.0000000000
 1603.3750000 2.1110000610 -9999.000000  -999.250000 0.1000000015 0.1000000015 0.0000000000
 1603.5000000 2.1789999008 -9999.000000  -999.250000 0.1000000015 0.1000000015 0.0000000000
 1603.6250000 2.3965001106 -9999.000000  -999.250000 0.1000000015 0.1000000015 0.0000000000
 1603.7500000 2.6140000820 -9999.000000  -999.250000 0.1000000015 0.1000000015 0.0000000000
 1603.8750000 2.8315000534 -9999.000000  -999.250000 0.1000000015 0.1000000015 0.0000000000
 1604.0000000 3.0490000248 -9999.000000  -999.250000 0.1000000015 0.1000000015 0.0000000000
 1604.1250000 3.4344999790 -9999.000000  -999.250000 0.1000000015 0.1000000015 0.0000000000
 1604.2500000 3.8199999332 -9999.000000  -999.250000 0.1000000015 0.1000000015 0.0000000000
 1604.3750000 4.2055001259 -9999.000000  -999.250000 0.1000000015 0.1000000015 0.0000000000
 1604.5000000 4.5910000801 -9999.000000  -999.250000 0.1000000015 0.1000000015 0.0000000000
 1604.6250000 4.5192999840 -9999.000000  -999.250000 0.1000000015 0.1000000015 0.0000000000
 1604.7500000 4.4475002289 -9999.000000  -999.250000 0.1000000015 0.1000000015 0.0000000000
 1604.8750000 4.3756999969 -9999.000000  -999.250000 0.1000000015 0.1000000015 0.0000000000
 1605.0000000 4.3039999008 -9999.000000  -999.250000 0.1000000015 0.1000000015 0.0000000000
 1605.1250000 4.9752001762 -9999.000000  -999.250000 0.1000000015 0.1000000015 0.0000000000
 1605.2500000 5.6465001106 -9999.000000  -999.250000 0.1000000015 0.1000000015 0.0000000000
 1605.3750000 6.3176999092 -9999.000000  -999.250000 0.1000000015 0.1000000015 0.0000000000
 1605.5000000 6.9889998436 -9999.000000  -999.250000 0.1000000015 0.1000000015 0.0000000000
 1605.6250000 7.5760002136 -9999.000000  -999.250000 0.1000000015 0.1000000015 0.0000000000
 1605.7500000 8.1630001068 -9999.000000  -999.250000 0.1000000015 0.1000000015 0.0000000000
 1605.8750000 8.7500000000 -9999.000000  -999.250000 0.1000000015 0.1000000015 0.0000000000
 1606.0000000 9.3369998932 -9999.000000  -999.250000 0.1000000015 0.1000000015 0.0000000000
 1606.1250000 8.1847000122 -9999.000000  -999.250000 0.1000000015 0.1000000015 0.0000000000
 1606.2500000 7.0324997902 -9999.000000  -999.250000 0.1000000015 0.1000000015 0.0000000000
 1606.3750000 5.8803000450 -9999.000000  -999.250000 0.1000000015 0.1000000015 0.0000000000
 1606.5000000 4.7280001640 -9999.000000  -999.250000 0.1000000015 0.1000000015 0.0000000000
 1606.6250000 4.6215000153 -9999.000000  -999.250000 0.1000000015 0.1000000015 0.0000000000
 1606.7500000 4.5149998665 -9999.000000  -999.250000 0.1000000015 0.1000000015 0.0000000000
 1606.8750000 4.4085001945 -9999.000000  -999.250000 0.1000000015 0.1000000015 0.0000000000
 1607.0000000 4.3020000458 -9999.000000  -999.250000 0.1000000015 0.1000000015 0.0000000000
 1607.1250000 5.4857001305 -9999.000000  -999.250000 0.1000000015 0.1000000015 0.0000000000
 1607.2500000 6.6694998741 -9999.000000  -999.250000 0.1000000015 0.1000000015 0.0000000000
 1607.3750000 7.8531999588 -9999.000000  -999.250000 0.1000000015 0.1000000015 0.0000000000
 1607.5000000 9.0369997025 -9999.000000  -999.250000 0.1000000015 0.1000000015 0.0000000000
 1607.6250000 7.9306998253 -9999.000000  -999.250000 0.1000000015 0.1000000015 0.0000000000
 1607.7500000 6.8245000839 -9999.000000  -999.250000 0.1000000015 0.1000000015 0.0000000000
 1607.8750000 5.7182002068 -9999.000000  -999.250000 0.1000000015 0.1000000015 0.0000000000
 1608.0000000 4.6119999886 -9999.000000  -999.250000 0.1000000015 0.1000000015 0.0000000000
 1608.1250000 4.8920001984 -9999.000000  -999.250000 0.1000000015 0.1000000015 0.0000000000
 1608.2500000 5.1719999313 -9999.000000  -999.250000 0.1000000015 0.1000000015 0.0000000000
 1608.3750000 5.4520001411 -9999.000000  -999.250000 0.1000000015 0.1000000015 0.0000000000
 1608.5000000 5.7319998741 -9999.000000  -999.250000 0.1000000015 0.1000000015 0.0000000000
 1608.6250000 5.7554998398 -9999.000000  -999.250000 0.1000000015 0.1000000015 0.0000000000
 1608.7500000 5.7789998055 -9999.000000  -999.250000 0.1000000015 0.1000000015 0.0000000000
 1608.8750000 5.8024997711 -9999.000000  -999.250000 0.1000000015 0.1000000015 0.0000000000
 1609.0000000 5.8260002136 -9999.000000  -999.250000 0.1000000015 0.1000000015 0.0000000000
 1609.1250000 7.5685000420 -9999.000000  -999.250000 0.1000000015 0.1000000015 0.0000000000
 1609.2500000 9.3109998703 -9999.000000 4.0000000000 15.000000000 140.00000000 1.0000000000
 1609.3750000 11.053500175 -9999.000000 4.0000000000 15.000000000 140.00000000 1.0000000000
 1609.5000000 12.795999527 -9999.000000 4.0000000000 15.000000000 140.00000000 1.0000000000
 1609.6250000 15.706500053 -9999.000000 4.0000000000 15.000000000 140.00000000 1.0000000000
 1609.7500000 18.617000580 -9999.000000 4.0000000000 15.000000000 140.00000000 1.0000000000
 1609.8750000 21.527500153 -9999.000000 4.0000000000 15.000000000 140.00000000 1.0000000000
 1610.0000000 24.437999725 -9999.000000 4.0000000000 15.000000000 140.00000000 1.0000000000
 1610.1250000 23.850000381 -9999.000000 4.0000000000 15.000000000 140.00000000 1.0000000000
 1610.2500000 23.261999130 -9999.000000 4.0000000000 15.000000000 140.00000000 1.0000000000
 1610.3750000 22.673999786 -9999.000000 4.0000000000 15.000000000 140.00000000 1.0000000000
 1610.5000000 22.086000443 -9999.000000 4.0000000000 15.000000000 140.00000000 1.0000000000
 1610.6250000 20.422300339 -9999.000000 4.0000000000 15.000000000 140.00000000 1.0000000000
 1610.7500000 18.758499146 -9999.000000 4.0000000000 15.000000000 140.00000000 1.0000000000
