# LAS format log file from PETREL
# Project units are specified as depth units
#==================================================================
~Version information
VERS.   2.0:
WRAP.   NO:
#==================================================================
~Well
STRT .m      1480.0000000 :
STOP .m      1820.0000000 :
STEP .m     0.12500000 :
NULL .        -999.250000 :
COMP.           : COMPANY
WELL.  5-0165   : WELL
FLD.            : FIELD
LOC.            : LOCATION
SRVC.           : SERVICE COMPANY
DATE.  2020-03-08 09:25:09   : Log Export Date {yyyy-MM-dd HH:mm:ss}
PROV.           : PROVINCE
UWI.      : UNIQUE WELL ID
API.            : API NUMBER
#==================================================================
~Curve
DEPT .m                   : DEPTH
RT .ohm.m                 : RT
SP .                      : SP
Fluids .                  : Fluids
POR .m3/m3                : POR
PERM .mD                  : PERM
Lith .                    : Lith
~Parameter
#==================================================================
~Ascii
# ...
 1686.6250000 6.0809998512 41.147998810 4.0000000000 21.000000000 1887.0000000 1.0000000000
 1686.7500000 6.1840000153 41.165000916 4.0000000000 21.000000000 1887.0000000 1.0000000000
 1686.8750000 6.2680001259 41.202999115 4.0000000000 21.000000000 1887.0000000 1.0000000000
 1687.0000000 6.1129999161 41.263000488 4.0000000000 21.000000000 1887.0000000 1.0000000000
 1687.1250000 5.5799999237 41.340999603 4.0000000000 21.000000000 1887.0000000 1.0000000000
 1687.2500000 4.0539999008 41.430000305 4.0000000000 21.000000000 1887.0000000 1.0000000000
 1687.3750000 3.3369998932 41.526000977 4.0000000000 21.000000000 1887.0000000 1.0000000000
 1687.5000000 3.2980000973 41.624000549 4.0000000000 21.000000000 1887.0000000 1.0000000000
 1687.6250000 3.8190000057 41.720001221 4.0000000000 21.000000000 1887.0000000 1.0000000000
 1687.7500000 4.7670001984 41.812999725 4.0000000000 21.000000000 1887.0000000 1.0000000000
 1687.8750000 5.8979997635 41.902999878 4.0000000000 21.000000000 1887.0000000 1.0000000000
 1688.0000000 6.4860000610 41.987998962 4.0000000000 21.000000000 1887.0000000 1.0000000000
 1688.1250000 6.7690000534 42.068000793 4.0000000000 21.000000000 1887.0000000 1.0000000000
 1688.2500000 6.6110000610 42.140998840 4.0000000000 21.000000000 1887.0000000 1.0000000000
 1688.3750000 6.3810000420 42.207000732 4.0000000000 21.000000000 1887.0000000 1.0000000000
 1688.5000000 6.1789999008 42.264999390 4.0000000000 21.000000000 1887.0000000 1.0000000000
 1688.6250000 6.0570001602 42.312999725 4.0000000000 21.000000000 1887.0000000 1.0000000000
 1688.7500000 5.8210000992 42.353000641 4.0000000000 21.000000000 1887.0000000 1.0000000000
 1688.8750000 5.4590001106 42.382999420 4.0000000000 21.000000000 1887.0000000 1.0000000000
 1689.0000000 4.9130001068 42.409000397 4.0000000000 21.000000000 1887.0000000 1.0000000000
 1689.1250000 4.7059998512 42.430999756 4.0000000000 21.000000000 1887.0000000 1.0000000000
 1689.2500000 4.5780000687 42.452999115 4.0000000000 21.000000000 1887.0000000 1.0000000000
 1689.3750000 4.4699997902 42.474998474 4.0000000000 21.000000000 1887.0000000 1.0000000000
 1689.5000000 4.8670001030 42.492000580 4.0000000000 21.000000000 1887.0000000 1.0000000000
 1689.6250000 4.9949998856 42.502998352 4.0000000000 21.000000000 1887.0000000 1.0000000000
 1689.7500000 4.6659998894 42.502998352 4.0000000000 21.000000000 1887.0000000 1.0000000000
 1689.8750000 4.1519999504 42.492000580 4.0000000000 21.000000000 1887.0000000 1.0000000000
 1690.0000000 4.0560002327 42.473999023 4.0000000000 21.000000000 1887.0000000 1.0000000000
 1690.1250000 4.1469998360 42.450000763 4.0000000000 21.000000000 1887.0000000 1.0000000000
 1690.2500000 4.3220000267 42.422000885 4.0000000000 21.000000000 1887.0000000 1.0000000000
 1690.3750000 4.6300001144 42.391998291 4.0000000000 21.000000000 1887.0000000 1.0000000000
 1690.5000000 4.7659997940 42.355998993 4.0000000000 21.000000000 1887.0000000 1.0000000000
 1690.6250000 4.5440001488 42.319000244 4.0000000000 21.000000000 1887.0000000 1.0000000000
 1690.7500000 4.4149999619 42.280998230 4.0000000000 21.000000000 1887.0000000 1.0000000000
 1690.8750000 4.6139998436 42.245998383 4.0000000000 21.000000000 1887.0000000 1.0000000000
 1691.0000000 5.1350002289 42.215999603 4.0000000000 21.000000000 1887.0000000 1.0000000000
 1691.1250000 5.7760000229 42.193000793 4.0000000000 21.000000000 1887.0000000 1.0000000000
 1691.2500000 6.2529997826 42.175998688 4.0000000000 21.000000000 1887.0000000 1.0000000000
 1691.3750000 6.4549999237 42.164001465 4.0000000000 21.000000000 1887.0000000 1.0000000000
 1691.5000000 6.3460001945 42.154998779 4.0000000000 21.000000000 1887.0000000 1.0000000000
 1691.6250000 6.1490001678 42.152000427 4.0000000000 21.000000000 1887.0000000 1.0000000000
 1691.7500000 5.9770002365 42.155998230 4.0000000000 21.000000000 1887.0000000 1.0000000000
 1691.8750000 5.7940001488 42.166999817 4.0000000000 21.000000000 1887.0000000 1.0000000000
 1692.0000000 5.6609997749 42.185001373 4.0000000000 21.000000000 1887.0000000 1.0000000000
 1692.1250000 5.5999999046 42.209999084 4.0000000000 21.000000000 1887.0000000 1.0000000000
 1692.2500000 5.4549999237 42.243999481 4.0000000000 21.000000000 1887.0000000 1.0000000000
 1692.3750000 5.3090000153 42.284000397 4.0000000000 21.000000000 1887.0000000 1.0000000000
 1692.5000000 5.2119998932 42.330001831 4.0000000000 21.000000000 1887.0000000 1.0000000000
 1692.6250000 5.1409997940 42.379001617 4.0000000000 21.000000000 1887.0000000 1.0000000000
 1692.7500000 5.0510001183 42.428001404 4.0000000000 21.000000000 1887.0000000 1.0000000000
 1692.8750000 4.9429998398 42.473999023 4.0000000000 21.000000000 1887.0000000 1.0000000000
 1693.0000000 4.8769998550 42.514999390 4.0000000000 21.000000000 1887.0000000 1.0000000000
 1693.1250000 4.8390002251 42.550998688 4.0000000000 21.000000000 1887.0000000 1.0000000000
 1693.2500000 4.8270001411 42.580001831 4.0000000000 21.000000000 1887.0000000 1.0000000000
 1693.3750000 4.8619999886 42.602001190 4.0000000000 21.000000000 1887.0000000 1.0000000000
 1693.5000000 4.9019999504 42.617000580 4.0000000000 21.000000000 1887.0000000 1.0000000000
 1693.6250000 4.9460000992 42.629001617 4.0000000000 21.000000000 1887.0000000 1.0000000000
 1693.7500000 4.9730000496 42.639999390 4.0000000000 21.000000000 1887.0000000 1.0000000000
 1693.8750000 4.8769998550 42.654998779 4.0000000000 21.000000000 1887.0000000 1.0000000000
 1694.0000000 4.7090001106 42.673000336 4.0000000000 21.000000000 1887.0000000 1.0000000000
 1694.1250000 4.5120000839 42.694000244 4.0000000000 21.000000000 1887.0000000 1.0000000000
 1694.2500000 4.2940001488 42.713001251 4.0000000000 21.000000000 1887.0000000 1.0000000000
 1694.3750000 4.1189999580 42.729999542 4.0000000000 21.000000000 1887.0000000 1.0000000000
 1694.5000000 3.9920001030 42.747001648 4.0000000000 21.000000000 1887.0000000 1.0000000000
 1694.6250000 3.9679999352 42.763999939 4.0000000000 21.000000000 1887.0000000 1.0000000000
 1694.7500000 4.2100000381 42.783000946 4.0000000000 21.000000000 1887.0000000 1.0000000000
 1694.8750000 4.6659998894 42.803001404 4.0000000000 21.000000000 1887.0000000 1.0000000000
 1695.0000000 5.9530000687 42.818000793 4.0000000000 21.000000000 1887.0000000 1.0000000000
 1695.1250000 6.5549998283 42.824001312 4.0000000000 21.000000000 1887.0000000 1.0000000000
 1695.2500000 7.1869997978 42.818000793 4.0000000000 21.000000000 1887.0000000 1.0000000000
 1695.3750000 7.4260001183 42.803001404 4.0000000000 21.000000000 1887.0000000 1.0000000000
 1695.5000000 6.7870001793 42.783000946 4.0000000000 21.000000000 1887.0000000 1.0000000000
 1695.6250000 6.4089999199 42.763999939 4.0000000000 21.000000000 1887.0000000 1.0000000000
 1695.7500000 5.9070000648 42.747001648 4.0000000000 21.000000000 1887.0000000 1.0000000000
 1695.8750000 5.3590002060 42.729999542 4.0000000000 21.000000000 1887.0000000 1.0000000000
 1696.0000000 5.0510001183 42.713001251 4.0000000000 21.000000000 1887.0000000 1.0000000000
 1696.1250000 4.7989997864 42.694000244 4.0000000000 21.000000000 1887.0000000 1.0000000000
 1696.2500000 4.1779999733 42.673000336 4.0000000000 21.000000000 1887.0000000 1.0000000000
 1696.3750000 3.6979999542 42.653999329 4.0000000000 21.000000000 1887.0000000 1.0000000000
 1696.5000000 3.4939999580 42.637001038 4.0000000000 21.000000000 1887.0000000 1.0000000000
 1696.6250000 3.4890000820 42.619998932 4.0000000000 21.000000000 1887.0000000 1.0000000000
 1696.7500000 3.7019999027 42.599998474 4.0000000000 21.000000000 1887.0000000 1.0000000000
 1696.8750000 3.8389999866 42.571998596 4.0000000000 21.000000000 1887.0000000 1.0000000000
 1697.0000000 3.9089999199 42.537998199 4.0000000000 21.000000000 1887.0000000 1.0000000000
 1697.1250000 3.9400000572 42.504001617 4.0000000000 21.000000000 1887.0000000 1.0000000000
 1697.2500000 3.8759999275 42.479000092 4.0000000000 21.000000000 1887.0000000 1.0000000000
 1697.3750000 3.7200000286 42.469001770 4.0000000000 21.000000000 1887.0000000 1.0000000000
