# LAS format log file from PETREL
# Project units are specified as depth units
#==================================================================
~Version information
VERS.   2.0:
WRAP.   NO:
#==================================================================
~Well
STRT .m      1420.0000000 :
STOP .m      1734.8750000 :
STEP .m     0.12500000 :
NULL .        -999.250000 :
COMP.           : COMPANY
WELL.  5-0161C   : WELL
FLD.            : FIELD
LOC.            : LOCATION
SRVC.           : SERVICE COMPANY
DATE.  2020-03-08 09:25:09   : Log Export Date {yyyy-MM-dd HH:mm:ss}
PROV.           : PROVINCE
UWI.      : UNIQUE WELL ID
API.            : API NUMBER
#==================================================================
~Curve
DEPT .m                   : DEPTH
RT .ohm.m                 : RT
SP .                      : SP
Fluids .                  : Fluids
POR .m3/m3                : POR
PERM .mD                  : PERM
Lith .                    : Lith
~Parameter
#==================================================================
~Ascii
# ...
 1539.6250000 1.9659999609 -49.40900040  -999.250000  -999.250000  -999.250000  -999.250000
 1539.7500000 2.2160000801 -49.35900116  -999.250000  -999.250000  -999.250000  -999.250000
 1539.8750000 2.6380000114 -49.33100128  -999.250000  -999.250000  -999.250000  -999.250000
 1540.0000000 2.9890000820 -49.33000183  -999.250000  -999.250000  -999.250000  -999.250000
 1540.1250000 3.1140000820 -49.33900070  -999.250000  -999.250000  -999.250000  -999.250000
 1540.2500000 2.9760000706 -49.35499954  -999.250000  -999.250000  -999.250000  -999.250000
 1540.3750000 2.5599999428 -49.39199829  -999.250000  -999.250000  -999.250000  -999.250000
 1540.5000000 2.0950000286 -49.43999863  -999.250000  -999.250000  -999.250000  -999.250000
 1540.6250000 1.8309999704 -49.47800064  -999.250000  -999.250000  -999.250000  -999.250000
 1540.7500000 1.8539999723 -49.48600006  -999.250000  -999.250000  -999.250000  -999.250000
 1540.8750000 2.1649999619 -49.50500107  -999.250000  -999.250000  -999.250000  -999.250000
 1541.0000000 2.4979999065 -49.59999847  -999.250000  -999.250000  -999.250000  -999.250000
 1541.1250000 2.6549999714 -49.80899811  -999.250000  -999.250000  -999.250000  -999.250000
 1541.2500000 2.6319999695 -50.14899826  -999.250000  -999.250000  -999.250000  -999.250000
 1541.3750000 2.3750000000 -50.63000107  -999.250000  -999.250000  -999.250000  -999.250000
 1541.5000000 2.1099998951 -51.20100021  -999.250000  -999.250000  -999.250000  -999.250000
 1541.6250000 2.0090000629 -51.75899887  -999.250000  -999.250000  -999.250000  -999.250000
 1541.7500000 1.9279999733 -52.07899857  -999.250000  -999.250000  -999.250000  -999.250000
 1541.8750000 1.7970000505 -51.94499969  -999.250000  -999.250000  -999.250000  -999.250000
 1542.0000000 1.6660000086 -51.35499954  -999.250000  -999.250000  -999.250000  -999.250000
 1542.1250000 1.6139999628 -50.69300079  -999.250000  -999.250000  -999.250000  -999.250000
 1542.2500000 1.7289999723 -50.30899811  -999.250000  -999.250000  -999.250000  -999.250000
 1542.3750000 1.9199999571 -50.33900070  -999.250000  -999.250000  -999.250000  -999.250000
 1542.5000000 2.2330000401 -50.74499893  -999.250000  -999.250000  -999.250000  -999.250000
 1542.6250000 2.6979999542 -51.51399994  -999.250000  -999.250000  -999.250000  -999.250000
 1542.7500000 3.1789999008 -52.62099838  -999.250000  -999.250000  -999.250000  -999.250000
 1542.8750000 3.5469999313 -53.92699814  -999.250000  -999.250000  -999.250000  -999.250000
 1543.0000000 3.8020000458 -55.46500015  -999.250000  -999.250000  -999.250000  -999.250000
 1543.1250000 4.1119999886 -57.11800003  -999.250000  -999.250000  -999.250000  -999.250000
 1543.2500000 4.4840002060 -58.81700134 4.0000000000 26.000000000 4233.0000000 1.0000000000
 1543.3750000 5.0419998169 -60.51900101 4.0000000000 26.000000000 4233.0000000 1.0000000000
 1543.5000000 6.1230001450 -62.38199997 4.0000000000 26.000000000 4233.0000000 1.0000000000
 1543.6250000 7.6059999466 -64.37799835 4.0000000000 26.000000000 4233.0000000 1.0000000000
 1543.7500000 9.6210002899 -66.03800201 4.0000000000 26.000000000 4233.0000000 1.0000000000
 1543.8750000 12.026000023 -67.08300018 4.0000000000 26.000000000 4233.0000000 1.0000000000
 1544.0000000 15.355999947 -67.57700348 4.0000000000 26.000000000 4233.0000000 1.0000000000
 1544.1250000 19.711999893 -67.88200378 4.0000000000 26.000000000 4233.0000000 1.0000000000
 1544.2500000 23.072999954 -68.15200043 4.0000000000 26.000000000 4233.0000000 1.0000000000
 1544.3750000 25.118999481 -68.33399963 4.0000000000 26.000000000 4233.0000000 1.0000000000
 1544.5000000 25.591999054 -68.38099670 4.0000000000 26.000000000 4233.0000000 1.0000000000
 1544.6250000 25.077999115 -68.25900269 4.0000000000 26.000000000 4233.0000000 1.0000000000
 1544.7500000 24.184000015 -67.98300171 4.0000000000 26.000000000 4233.0000000 1.0000000000
 1544.8750000 24.163999557 -67.58599854 4.0000000000 26.000000000 4233.0000000 1.0000000000
 1545.0000000 25.319000244 -67.09899902 4.0000000000 26.000000000 4233.0000000 1.0000000000
 1545.1250000 26.879999161 -66.46299744 4.0000000000 26.000000000 4233.0000000 1.0000000000
 1545.2500000 28.122999191 -65.65499878 4.0000000000 26.000000000 4233.0000000 1.0000000000
 1545.3750000 28.599000931 -64.71499634 4.0000000000 26.000000000 4233.0000000 1.0000000000
 1545.5000000 28.176000595 -63.77799988 4.0000000000 26.000000000 4233.0000000 1.0000000000
 1545.6250000 27.083999634 -62.95100021 4.0000000000 26.000000000 4233.0000000 1.0000000000
 1545.7500000 25.197999954 -62.37300110 4.0000000000 26.000000000 4233.0000000 1.0000000000
 1545.8750000 22.375999451 -62.10900116 4.0000000000 26.000000000 4233.0000000 1.0000000000
 1546.0000000 19.804000854 -62.23099899 4.0000000000 26.000000000 4233.0000000 1.0000000000
 1546.1250000 16.951999664 -62.66799927 4.0000000000 26.000000000 4233.0000000 1.0000000000
 1546.2500000 14.598999977 -63.14699936 4.0000000000 26.000000000 4233.0000000 1.0000000000
 1546.3750000 13.595000267 -63.40399933 4.0000000000 26.000000000 4233.0000000 1.0000000000
 1546.5000000 13.411999702 -63.20299911 4.0000000000 26.000000000 4233.0000000 1.0000000000
 1546.6250000 13.201000214 -62.63700104 4.0000000000 26.000000000 4233.0000000 1.0000000000
 1546.7500000 12.442000389 -61.84400177 4.0000000000 26.000000000 4233.0000000 1.0000000000
 1546.8750000 11.409999847 -61.00600052 4.0000000000 26.000000000 4233.0000000 1.0000000000
 1547.0000000 10.503000259 -60.28300095  -999.250000 0.1000000015 0.1000000015 0.0000000000
 1547.1250000 9.9589996338 -59.75000000  -999.250000 0.1000000015 0.1000000015 0.0000000000
 1547.2500000 9.6079998016 -59.28400040  -999.250000 0.1000000015 0.1000000015 0.0000000000
 1547.3750000 9.7910003662 -58.77199936  -999.250000 0.1000000015 0.1000000015 0.0000000000
 1547.5000000 10.494000435 -58.47499847  -999.250000 0.1000000015 0.1000000015 0.0000000000
 1547.6250000 11.411000252 -58.72200012  -999.250000 0.1000000015 0.1000000015 0.0000000000
 1547.7500000 12.628999710 -59.52099991  -999.250000 0.1000000015 0.1000000015 0.0000000000
 1547.8750000 14.003999710 -60.25600052  -999.250000 0.1000000015 0.1000000015 0.0000000000
 1548.0000000 15.223999977 -60.42399979  -999.250000 0.1000000015 0.1000000015 0.0000000000
 1548.1250000 15.593000412 -60.01399994  -999.250000 0.1000000015 0.1000000015 0.0000000000
 1548.2500000 15.321000099 -59.44599915  -999.250000 0.1000000015 0.1000000015 0.0000000000
 1548.3750000 14.401000023 -59.23899841  -999.250000 0.1000000015 0.1000000015 0.0000000000
 1548.5000000 12.998999596 -59.66099930  -999.250000 0.1000000015 0.1000000015 0.0000000000
 1548.6250000 12.100999832 -60.46200180 3.0000000000 14.000000000 326.00000000 1.0000000000
 1548.7500000 11.949000359 -61.27099991 3.0000000000 14.000000000 326.00000000 1.0000000000
 1548.8750000 12.168999672 -61.98199844 3.0000000000 14.000000000 326.00000000 1.0000000000
 1549.0000000 12.590999603 -62.65299988 3.0000000000 14.000000000 326.00000000 1.0000000000
 1549.1250000 13.354000092 -63.13899994 3.0000000000 14.000000000 326.00000000 1.0000000000
 1549.2500000 13.729000092 -63.05799866 3.0000000000 14.000000000 326.00000000 1.0000000000
 1549.3750000 13.760999680 -62.26699829 3.0000000000 14.000000000 326.00000000 1.0000000000
 1549.5000000 14.038999557 -60.92800140 3.0000000000 14.000000000 326.00000000 1.0000000000
 1549.6250000 14.276000023 -59.38299942 3.0000000000 14.000000000 326.00000000 1.0000000000
 1549.7500000 13.753999710 -58.05199814 3.0000000000 14.000000000 326.00000000 1.0000000000
 1549.8750000 12.677000046 -57.11000061 3.0000000000 14.000000000 326.00000000 1.0000000000
 1550.0000000 11.420999527 -56.40399933 3.0000000000 14.000000000 326.00000000 1.0000000000
 1550.1250000 10.465000153 -55.76900101 3.0000000000 14.000000000 326.00000000 1.0000000000
 1550.2500000 10.784000397 -55.40700150 3.0000000000 14.000000000 326.00000000 1.0000000000
 1550.3750000 11.937000275 -55.67100143 3.0000000000 14.000000000 326.00000000 1.0000000000
