# LAS format log file from PETREL
# Project units are specified as depth units
#==================================================================
~Version information
VERS.   2.0:
WRAP.   NO:
#==================================================================
~Well
STRT .m      745.00000000 :
STOP .m      1730.0000000 :
STEP .m     0.12500000 :
NULL .        -999.250000 :
COMP.           : COMPANY
WELL.  5-0158   : WELL
FLD.            : FIELD
LOC.            : LOCATION
SRVC.           : SERVICE COMPANY
DATE.  2020-03-08 09:25:08   : Log Export Date {yyyy-MM-dd HH:mm:ss}
PROV.           : PROVINCE
UWI.      : UNIQUE WELL ID
API.            : API NUMBER
#==================================================================
~Curve
DEPT .m                   : DEPTH
RT .ohm.m                 : RT
SP .                      : SP
Fluids .                  : Fluids
POR .m3/m3                : POR
PERM .mD                  : PERM
Lith .                    : Lith
~Parameter
#==================================================================
~Ascii
# ...
 1669.3750000 27.485500336 -9999.000000 4.0000000000 15.000000000 138.00000000 1.0000000000
 1669.5000000 21.681999207 -9999.000000 4.0000000000 15.000000000 138.00000000 1.0000000000
 1669.6250000 21.136199951 -9999.000000 4.0000000000 15.000000000 138.00000000 1.0000000000
 1669.7500000 20.590499878 -9999.000000 4.0000000000 15.000000000 138.00000000 1.0000000000
 1669.8750000 20.044799805 -9999.000000 4.0000000000 15.000000000 138.00000000 1.0000000000
 1670.0000000 19.499000549 -9999.000000 4.0000000000 15.000000000 138.00000000 1.0000000000
 1670.1250000 22.702499390 -9999.000000 4.0000000000 15.000000000 138.00000000 1.0000000000
 1670.2500000 25.906000137 -9999.000000 4.0000000000 15.000000000 138.00000000 1.0000000000
 1670.3750000 29.109500885 -9999.000000 4.0000000000 15.000000000 138.00000000 1.0000000000
 1670.5000000 32.312999725 -9999.000000 4.0000000000 15.000000000 138.00000000 1.0000000000
 1670.6250000 32.578998566 -9999.000000 4.0000000000 15.000000000 138.00000000 1.0000000000
 1670.7500000 32.845001221 -9999.000000 4.0000000000 15.000000000 138.00000000 1.0000000000
 1670.8750000 33.111000061 -9999.000000 4.0000000000 15.000000000 138.00000000 1.0000000000
 1671.0000000 33.376998901 -9999.000000  -999.250000 0.1000000015 0.1000000015 0.0000000000
 1671.1250000 34.855701447 -9999.000000  -999.250000 0.1000000015 0.1000000015 0.0000000000
 1671.2500000 36.334499359 -9999.000000  -999.250000 0.1000000015 0.1000000015 0.0000000000
 1671.3750000 37.813201904 -9999.000000 4.0000000000 17.000000000 171.00000000 1.0000000000
 1671.5000000 39.291999817 -9999.000000 4.0000000000 17.000000000 171.00000000 1.0000000000
 1671.6250000 38.021499634 -9999.000000 4.0000000000 17.000000000 171.00000000 1.0000000000
 1671.7500000 36.750999451 -9999.000000 4.0000000000 17.000000000 171.00000000 1.0000000000
 1671.8750000 35.480499268 -9999.000000 4.0000000000 17.000000000 171.00000000 1.0000000000
 1672.0000000 34.209999084 -9999.000000 4.0000000000 17.000000000 171.00000000 1.0000000000
 1672.1250000 34.369998932 -9999.000000 4.0000000000 17.000000000 171.00000000 1.0000000000
 1672.2500000 34.529998779 -9999.000000 4.0000000000 17.000000000 171.00000000 1.0000000000
 1672.3750000 34.689998627 -9999.000000 4.0000000000 17.000000000 171.00000000 1.0000000000
 1672.5000000 34.849998474 -9999.000000 4.0000000000 17.000000000 171.00000000 1.0000000000
 1672.6250000 34.523700714 -9999.000000 4.0000000000 17.000000000 171.00000000 1.0000000000
 1672.7500000 34.197498322 -9999.000000 4.0000000000 17.000000000 171.00000000 1.0000000000
 1672.8750000 33.871200562 -9999.000000 4.0000000000 17.000000000 171.00000000 1.0000000000
 1673.0000000 33.544998169 -9999.000000 4.0000000000 17.000000000 171.00000000 1.0000000000
 1673.1250000 30.867500305 -9999.000000 4.0000000000 17.000000000 171.00000000 1.0000000000
 1673.2500000 28.190000534 -9999.000000 4.0000000000 17.000000000 171.00000000 1.0000000000
 1673.3750000 25.512500763 -9999.000000 4.0000000000 17.000000000 171.00000000 1.0000000000
 1673.5000000 22.834999084 -9999.000000 4.0000000000 17.000000000 171.00000000 1.0000000000
 1673.6250000 20.884199142 -9999.000000 4.0000000000 17.000000000 171.00000000 1.0000000000
 1673.7500000 18.933500290 -9999.000000 4.0000000000 17.000000000 171.00000000 1.0000000000
 1673.8750000 16.982700348 -9999.000000 4.0000000000 17.000000000 171.00000000 1.0000000000
 1674.0000000 15.031999588 -9999.000000 4.0000000000 17.000000000 171.00000000 1.0000000000
 1674.1250000 18.392999649 -9999.000000 4.0000000000 17.000000000 171.00000000 1.0000000000
 1674.2500000 21.753999710 -9999.000000 4.0000000000 17.000000000 171.00000000 1.0000000000
 1674.3750000 25.114999771 -9999.000000 4.0000000000 17.000000000 171.00000000 1.0000000000
 1674.5000000 28.475999832 -9999.000000 4.0000000000 17.000000000 171.00000000 1.0000000000
 1674.6250000 30.142000198 -9999.000000 4.0000000000 17.000000000 171.00000000 1.0000000000
 1674.7500000 31.808000565 -9999.000000 4.0000000000 17.000000000 171.00000000 1.0000000000
 1674.8750000 33.473999023 -9999.000000 4.0000000000 17.000000000 171.00000000 1.0000000000
 1675.0000000 35.139999390 -9999.000000  -999.250000 0.1000000015 0.1000000015 0.0000000000
 1675.1250000 38.958999634 -9999.000000  -999.250000 0.1000000015 0.1000000015 0.0000000000
 1675.2500000 42.777999878 -9999.000000  -999.250000 0.1000000015 0.1000000015 0.0000000000
 1675.3750000 46.597000122 -9999.000000  -999.250000 0.1000000015 0.1000000015 0.0000000000
 1675.5000000 50.416000366 -9999.000000 4.0000000000 17.000000000 227.00000000 1.0000000000
 1675.6250000 49.812301636 -9999.000000 4.0000000000 17.000000000 227.00000000 1.0000000000
 1675.7500000 49.208499908 -9999.000000 4.0000000000 17.000000000 227.00000000 1.0000000000
 1675.8750000 48.604698181 -9999.000000 4.0000000000 17.000000000 227.00000000 1.0000000000
 1676.0000000 48.000999451 -9999.000000 4.0000000000 17.000000000 227.00000000 1.0000000000
 1676.1250000 43.912700653 -9999.000000 4.0000000000 17.000000000 227.00000000 1.0000000000
 1676.2500000 39.824501038 -9999.000000 4.0000000000 17.000000000 227.00000000 1.0000000000
 1676.3750000 35.736301422 -9999.000000 4.0000000000 17.000000000 227.00000000 1.0000000000
 1676.5000000 31.648000717 -9999.000000 4.0000000000 17.000000000 227.00000000 1.0000000000
 1676.6250000 29.389999390 -9999.000000 4.0000000000 17.000000000 227.00000000 1.0000000000
 1676.7500000 27.131999969 -9999.000000 4.0000000000 17.000000000 227.00000000 1.0000000000
 1676.8750000 24.874000549 -9999.000000 4.0000000000 17.000000000 227.00000000 1.0000000000
 1677.0000000 22.615999222 -9999.000000 4.0000000000 17.000000000 227.00000000 1.0000000000
 1677.1250000 22.643499374 -9999.000000 4.0000000000 17.000000000 227.00000000 1.0000000000
 1677.2500000 22.670999527 -9999.000000 4.0000000000 17.000000000 227.00000000 1.0000000000
 1677.3750000 22.698499680 -9999.000000 4.0000000000 17.000000000 227.00000000 1.0000000000
 1677.5000000 22.725999832 -9999.000000 4.0000000000 17.000000000 227.00000000 1.0000000000
 1677.6250000 23.489999771 -9999.000000 4.0000000000 17.000000000 227.00000000 1.0000000000
 1677.7500000 24.253999710 -9999.000000 4.0000000000 17.000000000 227.00000000 1.0000000000
 1677.8750000 25.017999649 -9999.000000 4.0000000000 17.000000000 227.00000000 1.0000000000
 1678.0000000 25.781999588 -9999.000000 4.0000000000 17.000000000 227.00000000 1.0000000000
 1678.1250000 25.772499084 -9999.000000 4.0000000000 17.000000000 227.00000000 1.0000000000
 1678.2500000 25.763000488 -9999.000000 4.0000000000 17.000000000 227.00000000 1.0000000000
 1678.3750000 25.753499985 -9999.000000 4.0000000000 17.000000000 227.00000000 1.0000000000
 1678.5000000 25.743999481 -9999.000000 4.0000000000 17.000000000 227.00000000 1.0000000000
 1678.6250000 23.884199142 -9999.000000 4.0000000000 17.000000000 227.00000000 1.0000000000
 1678.7500000 22.024499893 -9999.000000 4.0000000000 17.000000000 227.00000000 1.0000000000
 1678.8750000 20.164800644 -9999.000000 4.0000000000 17.000000000 227.00000000 1.0000000000
 1679.0000000 18.305000305 -9999.000000 4.0000000000 17.000000000 227.00000000 1.0000000000
 1679.1250000 15.697799683 -9999.000000 4.0000000000 17.000000000 227.00000000 1.0000000000
 1679.2500000 13.090499878 -9999.000000 4.0000000000 17.000000000 227.00000000 1.0000000000
 1679.3750000 10.483300209 -9999.000000 4.0000000000 17.000000000 227.00000000 1.0000000000
 1679.5000000 7.8759999275 -9999.000000 4.0000000000 17.000000000 227.00000000 1.0000000000
 1679.6250000 7.8832001686 -9999.000000 4.0000000000 17.000000000 227.00000000 1.0000000000
 1679.7500000 7.8905000687 -9999.000000 4.0000000000 17.000000000 227.00000000 1.0000000000
 1679.8750000 7.8977999687 -9999.000000 4.0000000000 17.000000000 227.00000000 1.0000000000
 1680.0000000 7.9050002098 -9999.000000 4.0000000000 17.000000000 227.00000000 1.0000000000
 1680.1250000 7.5982999802 -9999.000000 4.0000000000 17.000000000 227.00000000 1.0000000000
