# LAS format log file from PETREL
# Project units are specified as depth units
#==================================================================
~Version information
VERS.   2.0:
WRAP.   NO:
#==================================================================
~Well
STRT .m      1510.0000000 :
STOP .m      1750.0000000 :
STEP .m     0.12500000 :
NULL .        -999.250000 :
COMP.           : COMPANY
WELL.  5-0165C   : WELL
FLD.            : FIELD
LOC.            : LOCATION
SRVC.           : SERVICE COMPANY
DATE.  2020-03-08 09:25:09   : Log Export Date {yyyy-MM-dd HH:mm:ss}
PROV.           : PROVINCE
UWI.      : UNIQUE WELL ID
API.            : API NUMBER
#==================================================================
~Curve
DEPT .m                   : DEPTH
RT .ohm.m                 : RT
SP .                      : SP
Fluids .                  : Fluids
POR .m3/m3                : POR
PERM .mD                  : PERM
Lith .                    : Lith
~Parameter
#==================================================================
~Ascii
# ...
 1673.1250000 13.914999962 21.809999466 4.0000000000 22.000000000 2342.0000000 1.0000000000
 1673.2500000 11.826999664 21.666999817 4.0000000000 22.000000000 2342.0000000 1.0000000000
 1673.3750000 10.699999809 21.540000916 4.0000000000 22.000000000 2342.0000000 1.0000000000
 1673.5000000 10.296999931 21.433000565 4.0000000000 22.000000000 2342.0000000 1.0000000000
 1673.6250000 9.9560003281 21.422000885 4.0000000000 22.000000000 2342.0000000 1.0000000000
 1673.7500000 9.6309995651 21.509000778 4.0000000000 22.000000000 2342.0000000 1.0000000000
 1673.8750000 9.4429998398 21.579000473 4.0000000000 22.000000000 2342.0000000 1.0000000000
 1674.0000000 9.3210000992 21.649000168 4.0000000000 22.000000000 2342.0000000 1.0000000000
 1674.1250000 9.2170000076 21.656999588 4.0000000000 22.000000000 2342.0000000 1.0000000000
 1674.2500000 9.0939998627 21.695999146 4.0000000000 22.000000000 2342.0000000 1.0000000000
 1674.3750000 9.0080003738 21.731000900 4.0000000000 22.000000000 2342.0000000 1.0000000000
 1674.5000000 8.8809995651 21.766000748 4.0000000000 22.000000000 2342.0000000 1.0000000000
 1674.6250000 8.7449998856 21.805000305 4.0000000000 22.000000000 2342.0000000 1.0000000000
 1674.7500000 9.3520002365 21.818000793 4.0000000000 22.000000000 2342.0000000 1.0000000000
 1674.8750000 13.642000198 21.819999695 4.0000000000 22.000000000 2342.0000000 1.0000000000
 1675.0000000 15.944999695 21.792999268 4.0000000000 22.000000000 2342.0000000 1.0000000000
 1675.1250000 18.472000122 21.603000641 4.0000000000 22.000000000 2342.0000000 1.0000000000
 1675.2500000 19.025999069 21.202999115 4.0000000000 22.000000000 2342.0000000 1.0000000000
 1675.3750000 18.555000305 20.695999146 4.0000000000 22.000000000 2342.0000000 1.0000000000
 1675.5000000 16.063999176 19.781999588 4.0000000000 22.000000000 2342.0000000 1.0000000000
 1675.6250000 15.314000130 19.452999115 4.0000000000 22.000000000 2342.0000000 1.0000000000
 1675.7500000 15.300999641 19.160999298 4.0000000000 22.000000000 2342.0000000 1.0000000000
 1675.8750000 15.496999741 18.867000580 4.0000000000 22.000000000 2342.0000000 1.0000000000
 1676.0000000 15.873999596 18.483999252 4.0000000000 22.000000000 2342.0000000 1.0000000000
 1676.1250000 15.767000198 18.128999710 4.0000000000 22.000000000 2342.0000000 1.0000000000
 1676.2500000 15.656999588 17.875999451 4.0000000000 22.000000000 2342.0000000 1.0000000000
 1676.3750000 15.614000320 17.628000259 4.0000000000 22.000000000 2342.0000000 1.0000000000
 1676.5000000 20.830999374 17.224000931 4.0000000000 22.000000000 2342.0000000 1.0000000000
 1676.6250000 22.221000671 16.975999832 4.0000000000 22.000000000 2342.0000000 1.0000000000
 1676.7500000 22.461999893 16.893999100 4.0000000000 22.000000000 2342.0000000 1.0000000000
 1676.8750000 22.280000687 16.833999634 4.0000000000 22.000000000 2342.0000000 1.0000000000
 1677.0000000 22.049999237 16.781000137 4.0000000000 22.000000000 2342.0000000 1.0000000000
 1677.1250000 21.731000900 16.836000443 4.0000000000 22.000000000 2342.0000000 1.0000000000
 1677.2500000 21.440999985 16.819999695 4.0000000000 22.000000000 2342.0000000 1.0000000000
 1677.3750000 21.138999939 15.725999832 4.0000000000 22.000000000 2342.0000000 1.0000000000
 1677.5000000 21.698999405 14.786999702 4.0000000000 22.000000000 2342.0000000 1.0000000000
 1677.6250000 23.573999405 14.277999878 4.0000000000 22.000000000 2342.0000000 1.0000000000
 1677.7500000 25.497999191 14.006999969 4.0000000000 22.000000000 2342.0000000 1.0000000000
 1677.8750000 26.416000366 13.788000107 4.0000000000 22.000000000 2342.0000000 1.0000000000
 1678.0000000 27.350000381 13.548000336 4.0000000000 22.000000000 2342.0000000 1.0000000000
 1678.1250000 27.621000290 13.302000046 4.0000000000 22.000000000 2342.0000000 1.0000000000
 1678.2500000 27.573999405 13.175999641 4.0000000000 22.000000000 2342.0000000 1.0000000000
 1678.3750000 27.448999405 13.069999695 4.0000000000 22.000000000 2342.0000000 1.0000000000
 1678.5000000 27.229999542 12.965000153 4.0000000000 22.000000000 2342.0000000 1.0000000000
 1678.6250000 27.014999390 12.901000023 4.0000000000 22.000000000 2342.0000000 1.0000000000
 1678.7500000 26.743999481 12.970000267 4.0000000000 22.000000000 2342.0000000 1.0000000000
 1678.8750000 26.420999527 13.204999924 4.0000000000 22.000000000 2342.0000000 1.0000000000
 1679.0000000 26.073999405 13.380999565 4.0000000000 22.000000000 2342.0000000 1.0000000000
 1679.1250000 25.478000641 13.574000359 4.0000000000 22.000000000 2342.0000000 1.0000000000
 1679.2500000 24.020000458 13.748999596 4.0000000000 22.000000000 2342.0000000 1.0000000000
 1679.3750000 23.208999634 13.737000465 4.0000000000 22.000000000 2342.0000000 1.0000000000
 1679.5000000 22.150999069 13.550999641 4.0000000000 22.000000000 2342.0000000 1.0000000000
 1679.6250000 20.997999191 13.050000191 4.0000000000 22.000000000 2342.0000000 1.0000000000
 1679.7500000 19.680999756 12.517999649 4.0000000000 22.000000000 2342.0000000 1.0000000000
 1679.8750000 19.076999664 12.293999672 4.0000000000 22.000000000 2342.0000000 1.0000000000
 1680.0000000 18.750000000 12.262999535 4.0000000000 22.000000000 2342.0000000 1.0000000000
 1680.1250000 18.503000259 12.317000389 4.0000000000 22.000000000 2342.0000000 1.0000000000
 1680.2500000 18.736000061 12.366999626 4.0000000000 22.000000000 2342.0000000 1.0000000000
 1680.3750000 21.958000183 12.512000084 4.0000000000 22.000000000 2342.0000000 1.0000000000
 1680.5000000 22.833999634 12.722999573 4.0000000000 22.000000000 2342.0000000 1.0000000000
 1680.6250000 22.874000549 12.961000443 4.0000000000 22.000000000 2342.0000000 1.0000000000
 1680.7500000 22.681999207 13.206999779 4.0000000000 22.000000000 2342.0000000 1.0000000000
 1680.8750000 22.254999161 13.486000061 4.0000000000 22.000000000 2342.0000000 1.0000000000
 1681.0000000 21.556999207 13.762999535 4.0000000000 22.000000000 2342.0000000 1.0000000000
 1681.1250000 18.778999329 14.081999779 4.0000000000 22.000000000 2342.0000000 1.0000000000
 1681.2500000 17.208999634 14.418999672 4.0000000000 22.000000000 2342.0000000 1.0000000000
 1681.3750000 16.403999329 14.800999641 4.0000000000 22.000000000 2342.0000000 1.0000000000
 1681.5000000 16.952999115 15.237999916 4.0000000000 22.000000000 2342.0000000 1.0000000000
 1681.6250000 19.202999115 15.522999763 4.0000000000 22.000000000 2342.0000000 1.0000000000
 1681.7500000 20.667999268 15.739000320 4.0000000000 22.000000000 2342.0000000 1.0000000000
 1681.8750000 20.885000229 15.906000137 4.0000000000 22.000000000 2342.0000000 1.0000000000
 1682.0000000 19.856000900 16.034999847 4.0000000000 22.000000000 2342.0000000 1.0000000000
 1682.1250000 18.493000031 16.110000610 4.0000000000 22.000000000 2342.0000000 1.0000000000
 1682.2500000 17.770000458 16.209999084 4.0000000000 22.000000000 2342.0000000 1.0000000000
 1682.3750000 17.877000809 16.323999405 4.0000000000 22.000000000 2342.0000000 1.0000000000
 1682.5000000 18.174999237 16.416999817 4.0000000000 22.000000000 2342.0000000 1.0000000000
 1682.6250000 21.638000488 16.528999329 4.0000000000 22.000000000 2342.0000000 1.0000000000
 1682.7500000 22.312000275 16.650999069 4.0000000000 22.000000000 2342.0000000 1.0000000000
 1682.8750000 22.631999969 16.760000229 4.0000000000 22.000000000 2342.0000000 1.0000000000
 1683.0000000 22.266000748 16.822999954 4.0000000000 22.000000000 2342.0000000 1.0000000000
 1683.1250000 21.768999100 16.847000122 4.0000000000 22.000000000 2342.0000000 1.0000000000
 1683.2500000 21.041999817 16.811000824 4.0000000000 22.000000000 2342.0000000 1.0000000000
 1683.3750000 20.152999878 16.614000320 4.0000000000 22.000000000 2342.0000000 1.0000000000
 1683.5000000 18.583000183 16.399999619 4.0000000000 22.000000000 2342.0000000 1.0000000000
 1683.6250000 17.836999893 16.253000259 4.0000000000 22.000000000 2342.0000000 1.0000000000
 1683.7500000 17.745000839 16.212999344 4.0000000000 22.000000000 2342.0000000 1.0000000000
 1683.8750000 18.010000229 16.208999634 4.0000000000 22.000000000 2342.0000000 1.0000000000
