# LAS format log file from PETREL
# Project units are specified as depth units
#==================================================================
~Version information
VERS.   2.0:
WRAP.   NO:
#==================================================================
~Well
STRT .m      1510.0000000 :
STOP .m      1750.0000000 :
STEP .m     0.12500000 :
NULL .        -999.250000 :
COMP.           : COMPANY
WELL.  5-0165C   : WELL
FLD.            : FIELD
LOC.            : LOCATION
SRVC.           : SERVICE COMPANY
DATE.  2020-03-08 09:25:09   : Log Export Date {yyyy-MM-dd HH:mm:ss}
PROV.           : PROVINCE
UWI.      : UNIQUE WELL ID
API.            : API NUMBER
#==================================================================
~Curve
DEPT .m                   : DEPTH
RT .ohm.m                 : RT
SP .                      : SP
Fluids .                  : Fluids
POR .m3/m3                : POR
PERM .mD                  : PERM
Lith .                    : Lith
~Parameter
#==================================================================
~Ascii
# ...
 1651.3750000 17.158000946 11.946000099 4.0000000000 23.000000000 3013.0000000 1.0000000000
 1651.5000000 12.461999893 12.074999809 4.0000000000 23.000000000 3013.0000000 1.0000000000
 1651.6250000 10.758000374 12.277999878 4.0000000000 23.000000000 3013.0000000 1.0000000000
 1651.7500000 9.7180004120 12.579000473 4.0000000000 23.000000000 3013.0000000 1.0000000000
 1651.8750000 9.3249998093 12.989000320 4.0000000000 23.000000000 3013.0000000 1.0000000000
 1652.0000000 9.7519998550 13.409000397 4.0000000000 23.000000000 3013.0000000 1.0000000000
 1652.1250000 12.994999886 13.767000198 4.0000000000 23.000000000 3013.0000000 1.0000000000
 1652.2500000 14.812000275 14.196000099 4.0000000000 23.000000000 3013.0000000 1.0000000000
 1652.3750000 16.545000076 14.633999825 4.0000000000 23.000000000 3013.0000000 1.0000000000
 1652.5000000 17.462999344 15.088000298 4.0000000000 23.000000000 3013.0000000 1.0000000000
 1652.6250000 18.392999649 15.442999840 4.0000000000 23.000000000 3013.0000000 1.0000000000
 1652.7500000 19.079000473 15.637999535 4.0000000000 23.000000000 3013.0000000 1.0000000000
 1652.8750000 14.017999649 15.746999741 4.0000000000 23.000000000 3013.0000000 1.0000000000
 1653.0000000 16.638000488 15.765999794 4.0000000000 23.000000000 3013.0000000 1.0000000000
 1653.1250000 18.334999084 15.645999908 4.0000000000 23.000000000 3013.0000000 1.0000000000
 1653.2500000 18.590999603 15.399999619 4.0000000000 23.000000000 3013.0000000 1.0000000000
 1653.3750000 18.458000183 12.800999641 4.0000000000 23.000000000 3013.0000000 1.0000000000
 1653.5000000 18.347999573 11.085000038 4.0000000000 23.000000000 3013.0000000 1.0000000000
 1653.6250000 18.209999084 10.090999603 4.0000000000 23.000000000 3013.0000000 1.0000000000
 1653.7500000 17.860000610 9.6140003204 4.0000000000 23.000000000 3013.0000000 1.0000000000
 1653.8750000 17.507999420 9.1850004196 4.0000000000 23.000000000 3013.0000000 1.0000000000
 1654.0000000 16.853000641 8.8940000534 4.0000000000 23.000000000 3013.0000000 1.0000000000
 1654.1250000 16.075000763 8.6689996719 4.0000000000 23.000000000 3013.0000000 1.0000000000
 1654.2500000 15.133999825 8.5749998093 4.0000000000 23.000000000 3013.0000000 1.0000000000
 1654.3750000 12.375000000 8.5120000839 4.0000000000 23.000000000 3013.0000000 1.0000000000
 1654.5000000 11.586000443 8.5249996185 4.0000000000 23.000000000 3013.0000000 1.0000000000
 1654.6250000 11.156000137 8.7650003433 4.0000000000 23.000000000 3013.0000000 1.0000000000
 1654.7500000 12.005000114 8.9479999542 4.0000000000 23.000000000 3013.0000000 1.0000000000
 1654.8750000 14.418999672 9.1409997940 4.0000000000 23.000000000 3013.0000000 1.0000000000
 1655.0000000 15.010000229 9.3439998627 4.0000000000 23.000000000 3013.0000000 1.0000000000
 1655.1250000 15.479999542 9.4379997253 4.0000000000 23.000000000 3013.0000000 1.0000000000
 1655.2500000 15.456000328 9.4449996948 4.0000000000 23.000000000 3013.0000000 1.0000000000
 1655.3750000 14.715999603 9.3789997101 4.0000000000 23.000000000 3013.0000000 1.0000000000
 1655.5000000 14.121000290 9.2320003510 4.0000000000 23.000000000 3013.0000000 1.0000000000
 1655.6250000 13.770999908 8.9709997177 4.0000000000 23.000000000 3013.0000000 1.0000000000
 1655.7500000 14.100999832 8.7189998627 4.0000000000 23.000000000 3013.0000000 1.0000000000
 1655.8750000 15.564999580 8.4720001221 4.0000000000 23.000000000 3013.0000000 1.0000000000
 1656.0000000 16.826999664 8.1610002518 4.0000000000 23.000000000 3013.0000000 1.0000000000
 1656.1250000 18.148000717 7.8619999886 4.0000000000 23.000000000 3013.0000000 1.0000000000
 1656.2500000 18.645000458 7.6519999504 4.0000000000 23.000000000 3013.0000000 1.0000000000
 1656.3750000 18.465999603 7.4409999847 4.0000000000 23.000000000 3013.0000000 1.0000000000
 1656.5000000 18.096000671 7.3049998283 4.0000000000 23.000000000 3013.0000000 1.0000000000
 1656.6250000 17.888000488 7.2350001335 4.0000000000 23.000000000 3013.0000000 1.0000000000
 1656.7500000 18.257999420 7.1469998360 4.0000000000 23.000000000 3013.0000000 1.0000000000
 1656.8750000 19.820999146 7.1259999275 4.0000000000 23.000000000 3013.0000000 1.0000000000
 1657.0000000 21.177999496 7.2379999161 4.0000000000 23.000000000 3013.0000000 1.0000000000
 1657.1250000 22.270999908 7.5100002289 4.0000000000 23.000000000 3013.0000000 1.0000000000
 1657.2500000 22.099000931 7.8200001717 4.0000000000 23.000000000 3013.0000000 1.0000000000
 1657.3750000 21.510999680 7.9450001717 4.0000000000 23.000000000 3013.0000000 1.0000000000
 1657.5000000 20.600000381 7.9299998283 4.0000000000 23.000000000 3013.0000000 1.0000000000
 1657.6250000 19.379999161 7.8289999962 4.0000000000 23.000000000 3013.0000000 1.0000000000
 1657.7500000 15.055999756 7.7309999466 4.0000000000 23.000000000 3013.0000000 1.0000000000
 1657.8750000 14.465999603 7.6960000992 4.0000000000 23.000000000 3013.0000000 1.0000000000
 1658.0000000 14.619000435 7.7179999352 4.0000000000 23.000000000 3013.0000000 1.0000000000
 1658.1250000 14.843000412 7.7560000420 4.0000000000 23.000000000 3013.0000000 1.0000000000
 1658.2500000 9.5329999924 7.8689999580 4.0000000000 23.000000000 3013.0000000 1.0000000000
 1658.3750000 8.3940000534 8.0579996109 4.0000000000 23.000000000 3013.0000000 1.0000000000
 1658.5000000 9.1999998093 8.3290004730 4.0000000000 23.000000000 3013.0000000 1.0000000000
 1658.6250000 12.444000244 8.7659997940 4.0000000000 23.000000000 3013.0000000 1.0000000000
 1658.7500000 13.586000443 9.6300001144 4.0000000000 23.000000000 3013.0000000 1.0000000000
 1658.8750000 13.977000237 10.272000313 4.0000000000 23.000000000 3013.0000000 1.0000000000
 1659.0000000 14.232000351 10.725999832 4.0000000000 23.000000000 3013.0000000 1.0000000000
 1659.1250000 14.369000435 11.208000183 4.0000000000 23.000000000 3013.0000000 1.0000000000
 1659.2500000 14.001999855 11.640999794 4.0000000000 23.000000000 3013.0000000 1.0000000000
 1659.3750000 13.461000443 12.057999611 4.0000000000 23.000000000 3013.0000000 1.0000000000
 1659.5000000 12.930999756 12.496999741 4.0000000000 23.000000000 3013.0000000 1.0000000000
 1659.6250000 11.826000214 12.970999718 4.0000000000 23.000000000 3013.0000000 1.0000000000
 1659.7500000 5.4200000763 13.458000183 4.0000000000 23.000000000 3013.0000000 1.0000000000
 1659.8750000 4.2940001488 13.982000351 4.0000000000 23.000000000 3013.0000000 1.0000000000
 1660.0000000 3.8759999275 14.748000145  -999.250000 0.1000000015 0.1000000015 0.0000000000
 1660.1250000 3.8529999256 16.191999435  -999.250000 0.1000000015 0.1000000015 0.0000000000
 1660.2500000 4.5570001602 17.283000946  -999.250000 0.1000000015 0.1000000015 0.0000000000
 1660.3750000 5.6209998131 18.256999969  -999.250000 0.1000000015 0.1000000015 0.0000000000
 1660.5000000 9.3959999084 19.273000717 4.0000000000 18.000000000 904.00000000 1.0000000000
 1660.6250000 10.967000008 20.093000412 4.0000000000 18.000000000 904.00000000 1.0000000000
 1660.7500000 11.597999573 21.340000153 4.0000000000 18.000000000 904.00000000 1.0000000000
 1660.8750000 11.927000046 22.569999695 4.0000000000 18.000000000 904.00000000 1.0000000000
 1661.0000000 11.845999718 23.874000549 4.0000000000 18.000000000 904.00000000 1.0000000000
 1661.1250000 11.086000443 25.250000000 4.0000000000 18.000000000 904.00000000 1.0000000000
 1661.2500000 8.2139997482 25.878999710 4.0000000000 18.000000000 904.00000000 1.0000000000
 1661.3750000 4.6220002174 26.565999985 4.0000000000 18.000000000 904.00000000 1.0000000000
 1661.5000000 3.1199998856 27.138000488 4.0000000000 18.000000000 904.00000000 1.0000000000
 1661.6250000 2.6310000420 27.743000031 4.0000000000 18.000000000 904.00000000 1.0000000000
 1661.7500000 2.3970000744 28.104000092 4.0000000000 18.000000000 904.00000000 1.0000000000
 1661.8750000 2.2490000725 28.420999527  -999.250000 0.1000000015 0.1000000015 0.0000000000
 1662.0000000 2.1340000629 28.677000046  -999.250000 0.1000000015 0.1000000015 0.0000000000
 1662.1250000 2.0329999924 28.892999649  -999.250000 0.1000000015 0.1000000015 0.0000000000
