# LAS format log file from PETREL
# Project units are specified as depth units
#==================================================================
~Version information
VERS.   2.0:
WRAP.   NO:
#==================================================================
~Well
STRT .m      1420.0000000 :
STOP .m      1734.8750000 :
STEP .m     0.12500000 :
NULL .        -999.250000 :
COMP.           : COMPANY
WELL.  5-0161C   : WELL
FLD.            : FIELD
LOC.            : LOCATION
SRVC.           : SERVICE COMPANY
DATE.  2020-03-08 09:25:09   : Log Export Date {yyyy-MM-dd HH:mm:ss}
PROV.           : PROVINCE
UWI.      : UNIQUE WELL ID
API.            : API NUMBER
#==================================================================
~Curve
DEPT .m                   : DEPTH
RT .ohm.m                 : RT
SP .                      : SP
Fluids .                  : Fluids
POR .m3/m3                : POR
PERM .mD                  : PERM
Lith .                    : Lith
~Parameter
#==================================================================
~Ascii
# ...
 1691.8750000 13.218999863 -62.11199951 4.0000000000 20.000000000 974.00000000 1.0000000000
 1692.0000000 12.470999718 -62.53300095 4.0000000000 20.000000000 974.00000000 1.0000000000
 1692.1250000 12.078000069 -63.00500107 4.0000000000 20.000000000 974.00000000 1.0000000000
 1692.2500000 12.022000313 -63.67900085 4.0000000000 20.000000000 974.00000000 1.0000000000
 1692.3750000 12.131999969 -64.48899841 4.0000000000 20.000000000 974.00000000 1.0000000000
 1692.5000000 12.286000252 -65.01499939 4.0000000000 20.000000000 974.00000000 1.0000000000
 1692.6250000 12.513999939 -64.89700317 4.0000000000 20.000000000 974.00000000 1.0000000000
 1692.7500000 12.986000061 -64.18599701 4.0000000000 20.000000000 974.00000000 1.0000000000
 1692.8750000 13.569999695 -63.28699875 4.0000000000 20.000000000 974.00000000 1.0000000000
 1693.0000000 14.215999603 -62.62400055 4.0000000000 20.000000000 974.00000000 1.0000000000
 1693.1250000 15.166999817 -62.32699966 4.0000000000 20.000000000 974.00000000 1.0000000000
 1693.2500000 16.445999146 -62.27199936 4.0000000000 20.000000000 974.00000000 1.0000000000
 1693.3750000 17.750000000 -62.27299881 4.0000000000 20.000000000 974.00000000 1.0000000000
 1693.5000000 18.607999802 -62.28799820 4.0000000000 20.000000000 974.00000000 1.0000000000
 1693.6250000 19.069999695 -62.46900177 4.0000000000 20.000000000 974.00000000 1.0000000000
 1693.7500000 19.306999207 -63.03699875 4.0000000000 20.000000000 974.00000000 1.0000000000
 1693.8750000 19.701000214 -64.13200378 4.0000000000 20.000000000 974.00000000 1.0000000000
 1694.0000000 20.423999786 -65.65599823 4.0000000000 20.000000000 974.00000000 1.0000000000
 1694.1250000 21.458999634 -67.31099701 4.0000000000 20.000000000 974.00000000 1.0000000000
 1694.2500000 22.694000244 -68.73799896 4.0000000000 20.000000000 974.00000000 1.0000000000
 1694.3750000 23.931999207 -69.67700195 4.0000000000 20.000000000 974.00000000 1.0000000000
 1694.5000000 25.179000854 -69.98600006 4.0000000000 20.000000000 974.00000000 1.0000000000
 1694.6250000 25.927999496 -69.66899872 4.0000000000 20.000000000 974.00000000 1.0000000000
 1694.7500000 26.250999451 -68.84600067 4.0000000000 20.000000000 974.00000000 1.0000000000
 1694.8750000 25.270000458 -67.72499847 4.0000000000 20.000000000 974.00000000 1.0000000000
 1695.0000000 21.877000809 -66.49099731 4.0000000000 20.000000000 974.00000000 1.0000000000
 1695.1250000 16.461999893 -65.25399780 4.0000000000 20.000000000 974.00000000 1.0000000000
 1695.2500000 11.756999969 -64.09400177 4.0000000000 20.000000000 974.00000000 1.0000000000
 1695.3750000 8.6529998779 -63.15399933 4.0000000000 20.000000000 974.00000000 1.0000000000
 1695.5000000 6.8689999580 -62.57600021 4.0000000000 20.000000000 974.00000000 1.0000000000
 1695.6250000 6.2909998894 -62.36600113 4.0000000000 20.000000000 974.00000000 1.0000000000
 1695.7500000 6.1810002327 -62.22800064 4.0000000000 20.000000000 974.00000000 1.0000000000
 1695.8750000 6.1290001869 -61.83700180 4.0000000000 20.000000000 974.00000000 1.0000000000
 1696.0000000 5.9479999542 -61.10300064 4.0000000000 20.000000000 974.00000000 1.0000000000
 1696.1250000 5.5689997673 -60.11100006 4.0000000000 20.000000000 974.00000000 1.0000000000
 1696.2500000 5.1550002098 -58.93700027  -999.250000 0.1000000015 0.1000000015 0.0000000000
 1696.3750000 4.8159999847 -57.71099854  -999.250000 0.1000000015 0.1000000015 0.0000000000
 1696.5000000 4.5729999542 -56.60499954  -999.250000 0.1000000015 0.1000000015 0.0000000000
 1696.6250000 4.2680001259 -55.70199966  -999.250000 0.1000000015 0.1000000015 0.0000000000
 1696.7500000 3.9549999237 -54.93899918  -999.250000 0.1000000015 0.1000000015 0.0000000000
 1696.8750000 3.7899999619 -54.24300003  -999.250000 0.1000000015 0.1000000015 0.0000000000
 1697.0000000 3.7179999352 -53.69499969  -999.250000 0.1000000015 0.1000000015 0.0000000000
 1697.1250000 3.6770000458 -53.27399826  -999.250000 0.1000000015 0.1000000015 0.0000000000
 1697.2500000 3.6400001049 -53.03300095  -999.250000 0.1000000015 0.1000000015 0.0000000000
 1697.3750000 3.5850000381 -52.98600006  -999.250000 0.1000000015 0.1000000015 0.0000000000
 1697.5000000 3.4960000515 -53.08300018  -999.250000 0.1000000015 0.1000000015 0.0000000000
 1697.6250000 3.3559999466 -53.28099823  -999.250000 0.1000000015 0.1000000015 0.0000000000
 1697.7500000 3.2030000687 -53.53499985  -999.250000 0.1000000015 0.1000000015 0.0000000000
 1697.8750000 3.0669999123 -53.73300171  -999.250000 0.1000000015 0.1000000015 0.0000000000
 1698.0000000 2.9739999771 -53.69200134  -999.250000 0.1000000015 0.1000000015 0.0000000000
 1698.1250000 3.0220000744 -53.49399948  -999.250000 0.1000000015 0.1000000015 0.0000000000
 1698.2500000 3.2130000591 -53.39199829  -999.250000 0.1000000015 0.1000000015 0.0000000000
 1698.3750000 3.5720000267 -53.50899887  -999.250000 0.1000000015 0.1000000015 0.0000000000
 1698.5000000 3.9089999199 -53.66699982  -999.250000 0.1000000015 0.1000000015 0.0000000000
 1698.6250000 4.1550002098 -53.80899811  -999.250000 0.1000000015 0.1000000015 0.0000000000
 1698.7500000 4.3460001945 -53.97600174  -999.250000 0.1000000015 0.1000000015 0.0000000000
 1698.8750000 4.3629999161 -54.27600098  -999.250000 0.1000000015 0.1000000015 0.0000000000
 1699.0000000 4.3109998703 -54.58300018  -999.250000 0.1000000015 0.1000000015 0.0000000000
 1699.1250000 4.3590002060 -54.75600052  -999.250000 0.1000000015 0.1000000015 0.0000000000
 1699.2500000 4.4809999466 -54.69200134  -999.250000 0.1000000015 0.1000000015 0.0000000000
 1699.3750000 4.8130002022 -54.43999863  -999.250000 0.1000000015 0.1000000015 0.0000000000
 1699.5000000 5.2239999771 -54.13499832  -999.250000 0.1000000015 0.1000000015 0.0000000000
 1699.6250000 5.4720001221 -53.74000168 0.0000000000 10.000000000 16.000000000 1.0000000000
 1699.7500000 5.5380001068 -53.23600006 0.0000000000 10.000000000 16.000000000 1.0000000000
 1699.8750000 5.4949998856 -52.77399826 0.0000000000 10.000000000 16.000000000 1.0000000000
 1700.0000000 5.6040000916 -52.56100082 0.0000000000 10.000000000 16.000000000 1.0000000000
 1700.1250000 6.0500001907 -52.63999939 0.0000000000 10.000000000 16.000000000 1.0000000000
 1700.2500000 6.7129998207 -52.88199997 0.0000000000 10.000000000 16.000000000 1.0000000000
 1700.3750000 7.5970001221 -53.00500107 0.0000000000 10.000000000 16.000000000 1.0000000000
 1700.5000000 8.1800003052 -52.96200180 0.0000000000 10.000000000 16.000000000 1.0000000000
 1700.6250000 8.1649999619 -52.87200165 0.0000000000 10.000000000 16.000000000 1.0000000000
 1700.7500000 7.4819998741 -52.84700012 0.0000000000 10.000000000 16.000000000 1.0000000000
 1700.8750000 6.4340000153 -52.81100082 0.0000000000 10.000000000 16.000000000 1.0000000000
 1701.0000000 5.2100000381 -52.55899811 0.0000000000 10.000000000 16.000000000 1.0000000000
 1701.1250000 4.0650000572 -52.18299866 0.0000000000 10.000000000 16.000000000 1.0000000000
 1701.2500000 3.3699998856 -51.85300064 0.0000000000 10.000000000 16.000000000 1.0000000000
 1701.3750000 3.1210000515 -51.51900101 0.0000000000 10.000000000 16.000000000 1.0000000000
 1701.5000000 3.0339999199 -51.27999878 0.0000000000 10.000000000 16.000000000 1.0000000000
 1701.6250000 3.0329999924 -51.22499847 0.0000000000 10.000000000 16.000000000 1.0000000000
 1701.7500000 3.0859999657 -51.33900070 0.0000000000 10.000000000 16.000000000 1.0000000000
 1701.8750000 3.1740000248 -51.46300125 0.0000000000 10.000000000 16.000000000 1.0000000000
 1702.0000000 3.3199999332 -51.52999878  -999.250000  -999.250000  -999.250000  -999.250000
 1702.1250000 3.4549999237 -51.54100037  -999.250000  -999.250000  -999.250000  -999.250000
 1702.2500000 3.4449999332 -51.59400177  -999.250000  -999.250000  -999.250000  -999.250000
 1702.3750000 3.3640000820 -51.65700150  -999.250000  -999.250000  -999.250000  -999.250000
 1702.5000000 3.2590000629 -51.89099884  -999.250000  -999.250000  -999.250000  -999.250000
 1702.6250000 3.2149999142 -52.29899979  -999.250000  -999.250000  -999.250000  -999.250000
