# LAS format log file from PETREL
# Project units are specified as depth units
#==================================================================
~Version information
VERS.   2.0:
WRAP.   NO:
#==================================================================
~Well
STRT .m      725.00000000 :
STOP .m      1752.0000000 :
STEP .m     0.12500000 :
NULL .        -999.250000 :
COMP.           : COMPANY
WELL.  5-0166   : WELL
FLD.            : FIELD
LOC.            : LOCATION
SRVC.           : SERVICE COMPANY
DATE.  2020-03-08 09:25:09   : Log Export Date {yyyy-MM-dd HH:mm:ss}
PROV.           : PROVINCE
UWI.      : UNIQUE WELL ID
API.            : API NUMBER
#==================================================================
~Curve
DEPT .m                   : DEPTH
RT .ohm.m                 : RT
SP .                      : SP
Fluids .                  : Fluids
POR .m3/m3                : POR
PERM .mD                  : PERM
Lith .                    : Lith
~Parameter
#==================================================================
~Ascii
# ...
 1605.8750000 15.002200127 -9999.000000 2.0000000000 18.000000000 300.00000000 1.0000000000
 1606.0000000 14.777999878 -9999.000000 2.0000000000 18.000000000 300.00000000 1.0000000000
 1606.1250000 14.657500267 -9999.000000 2.0000000000 18.000000000 300.00000000 1.0000000000
 1606.2500000 14.536999702 -9999.000000 2.0000000000 18.000000000 300.00000000 1.0000000000
 1606.3750000 14.416500092 -9999.000000 2.0000000000 18.000000000 300.00000000 1.0000000000
 1606.5000000 14.295999527 -9999.000000 2.0000000000 18.000000000 300.00000000 1.0000000000
 1606.6250000 14.369999886 -9999.000000 2.0000000000 18.000000000 300.00000000 1.0000000000
 1606.7500000 14.444000244 -9999.000000 2.0000000000 18.000000000 300.00000000 1.0000000000
 1606.8750000 14.517999649 -9999.000000 2.0000000000 18.000000000 300.00000000 1.0000000000
 1607.0000000 14.592000008 -9999.000000 2.0000000000 18.000000000 300.00000000 1.0000000000
 1607.1250000 14.074700356 -9999.000000 2.0000000000 18.000000000 300.00000000 1.0000000000
 1607.2500000 13.557499886 -9999.000000 2.0000000000 18.000000000 300.00000000 1.0000000000
 1607.3750000 13.040200233 -9999.000000 2.0000000000 18.000000000 300.00000000 1.0000000000
 1607.5000000 12.522999763 -9999.000000 2.0000000000 18.000000000 300.00000000 1.0000000000
 1607.6250000 12.115699768 -9999.000000 2.0000000000 18.000000000 300.00000000 1.0000000000
 1607.7500000 11.708499908 -9999.000000 2.0000000000 18.000000000 300.00000000 1.0000000000
 1607.8750000 11.301199913 -9999.000000 2.0000000000 18.000000000 300.00000000 1.0000000000
 1608.0000000 10.894000053 -9999.000000 2.0000000000 18.000000000 300.00000000 1.0000000000
 1608.1250000 12.113499641 -9999.000000 2.0000000000 18.000000000 300.00000000 1.0000000000
 1608.2500000 13.333000183 -9999.000000 2.0000000000 18.000000000 300.00000000 1.0000000000
 1608.3750000 14.552499771 -9999.000000 2.0000000000 18.000000000 300.00000000 1.0000000000
 1608.5000000 15.772000313 -9999.000000 2.0000000000 18.000000000 300.00000000 1.0000000000
 1608.6250000 15.583000183 -9999.000000 2.0000000000 18.000000000 300.00000000 1.0000000000
 1608.7500000 15.394000053 -9999.000000 2.0000000000 18.000000000 300.00000000 1.0000000000
 1608.8750000 15.204999924 -9999.000000 2.0000000000 18.000000000 300.00000000 1.0000000000
 1609.0000000 15.015999794 -9999.000000 2.0000000000 18.000000000 300.00000000 1.0000000000
 1609.1250000 15.290300369 -9999.000000 2.0000000000 18.000000000 300.00000000 1.0000000000
 1609.2500000 15.564499855 -9999.000000 2.0000000000 18.000000000 300.00000000 1.0000000000
 1609.3750000 15.838800430 -9999.000000 2.0000000000 18.000000000 300.00000000 1.0000000000
 1609.5000000 16.113000870 -9999.000000 2.0000000000 18.000000000 300.00000000 1.0000000000
 1609.6250000 15.330300331 -9999.000000 2.0000000000 18.000000000 300.00000000 1.0000000000
 1609.7500000 14.547499657 -9999.000000 2.0000000000 18.000000000 300.00000000 1.0000000000
 1609.8750000 13.764800072 -9999.000000 2.0000000000 18.000000000 300.00000000 1.0000000000
 1610.0000000 12.982000351 -9999.000000 2.0000000000 18.000000000 300.00000000 1.0000000000
 1610.1250000 12.074799538 -9999.000000 2.0000000000 18.000000000 300.00000000 1.0000000000
 1610.2500000 11.167499542 -9999.000000 2.0000000000 18.000000000 300.00000000 1.0000000000
 1610.3750000 10.260199547 -9999.000000 2.0000000000 18.000000000 300.00000000 1.0000000000
 1610.5000000 9.3529996872 -9999.000000  -999.250000 0.1000000015 0.1000000015 0.0000000000
 1610.6250000 8.4184999466 -9999.000000  -999.250000 0.1000000015 0.1000000015 0.0000000000
 1610.7500000 7.4840002060 -9999.000000  -999.250000 0.1000000015 0.1000000015 0.0000000000
 1610.8750000 6.5494999886 -9999.000000  -999.250000 0.1000000015 0.1000000015 0.0000000000
 1611.0000000 5.6149997711 -9999.000000  -999.250000 0.1000000015 0.1000000015 0.0000000000
 1611.1250000 6.3179998398 -9999.000000 3.0000000000 9.0000000000 38.000000000 1.0000000000
 1611.2500000 7.0209999084 -9999.000000 3.0000000000 9.0000000000 38.000000000 1.0000000000
 1611.3750000 7.7239999771 -9999.000000 3.0000000000 9.0000000000 38.000000000 1.0000000000
 1611.5000000 8.4270000458 -9999.000000 3.0000000000 9.0000000000 38.000000000 1.0000000000
 1611.6250000 8.5085000992 -9999.000000 3.0000000000 9.0000000000 38.000000000 1.0000000000
 1611.7500000 8.5900001526 -9999.000000 3.0000000000 9.0000000000 38.000000000 1.0000000000
 1611.8750000 8.6715002060 -9999.000000 3.0000000000 9.0000000000 38.000000000 1.0000000000
 1612.0000000 8.7530002594 -9999.000000 3.0000000000 9.0000000000 38.000000000 1.0000000000
 1612.1250000 9.0762996674 -9999.000000 3.0000000000 9.0000000000 38.000000000 1.0000000000
 1612.2500000 9.3994998932 -9999.000000 3.0000000000 9.0000000000 38.000000000 1.0000000000
 1612.3750000 9.7227001190 -9999.000000 3.0000000000 9.0000000000 38.000000000 1.0000000000
 1612.5000000 10.045999527 -9999.000000 3.0000000000 9.0000000000 38.000000000 1.0000000000
 1612.6250000 10.510700226 -9999.000000 3.0000000000 9.0000000000 38.000000000 1.0000000000
 1612.7500000 10.975500107 -9999.000000 3.0000000000 9.0000000000 38.000000000 1.0000000000
 1612.8750000 11.440199852 -9999.000000 3.0000000000 9.0000000000 38.000000000 1.0000000000
 1613.0000000 11.904999733 -9999.000000 3.0000000000 9.0000000000 38.000000000 1.0000000000
 1613.1250000 12.572999954 -9999.000000 3.0000000000 9.0000000000 38.000000000 1.0000000000
 1613.2500000 13.241000175 -9999.000000 3.0000000000 9.0000000000 38.000000000 1.0000000000
 1613.3750000 13.909000397 -9999.000000 3.0000000000 9.0000000000 38.000000000 1.0000000000
 1613.5000000 14.576999664 -9999.000000 3.0000000000 9.0000000000 38.000000000 1.0000000000
 1613.6250000 13.172200203 -9999.000000  -999.250000 0.1000000015 0.1000000015 0.0000000000
 1613.7500000 11.767499924 -9999.000000  -999.250000 0.1000000015 0.1000000015 0.0000000000
 1613.8750000 10.362799644 -9999.000000  -999.250000 0.1000000015 0.1000000015 0.0000000000
 1614.0000000 8.9580001831 -9999.000000  -999.250000 0.1000000015 0.1000000015 0.0000000000
 1614.1250000 9.6662998199 -9999.000000  -999.250000 0.1000000015 0.1000000015 0.0000000000
 1614.2500000 10.374500275 -9999.000000  -999.250000 0.1000000015 0.1000000015 0.0000000000
 1614.3750000 11.082799911 -9999.000000  -999.250000 0.1000000015 0.1000000015 0.0000000000
 1614.5000000 11.791000366 -9999.000000 2.0000000000 19.000000000 309.00000000 1.0000000000
 1614.6250000 12.847299576 -9999.000000 2.0000000000 19.000000000 309.00000000 1.0000000000
 1614.7500000 13.903499603 -9999.000000 2.0000000000 19.000000000 309.00000000 1.0000000000
 1614.8750000 14.959799767 -9999.000000 2.0000000000 19.000000000 309.00000000 1.0000000000
 1615.0000000 16.016000748 -9999.000000 2.0000000000 19.000000000 309.00000000 1.0000000000
 1615.1250000 17.493499756 -9999.000000 2.0000000000 19.000000000 309.00000000 1.0000000000
 1615.2500000 18.971000671 -9999.000000 2.0000000000 19.000000000 309.00000000 1.0000000000
 1615.3750000 20.448499680 -9999.000000 2.0000000000 19.000000000 309.00000000 1.0000000000
 1615.5000000 21.926000595 -9999.000000 2.0000000000 19.000000000 309.00000000 1.0000000000
 1615.6250000 23.815799713 -9999.000000 2.0000000000 19.000000000 309.00000000 1.0000000000
 1615.7500000 25.705499649 -9999.000000 2.0000000000 19.000000000 309.00000000 1.0000000000
 1615.8750000 27.595300674 -9999.000000 2.0000000000 19.000000000 309.00000000 1.0000000000
 1616.0000000 29.485000610 -9999.000000 2.0000000000 19.000000000 309.00000000 1.0000000000
 1616.1250000 25.876300812 -9999.000000 2.0000000000 19.000000000 309.00000000 1.0000000000
 1616.2500000 22.267499924 -9999.000000 2.0000000000 19.000000000 309.00000000 1.0000000000
 1616.3750000 18.658800125 -9999.000000 2.0000000000 19.000000000 309.00000000 1.0000000000
 1616.5000000 15.050000191 -9999.000000 2.0000000000 19.000000000 309.00000000 1.0000000000
 1616.6250000 15.429499626 -9999.000000 2.0000000000 19.000000000 309.00000000 1.0000000000
