# LAS format log file from PETREL
# Project units are specified as depth units
#==================================================================
~Version information
VERS.   2.0:
WRAP.   NO:
#==================================================================
~Well
STRT .m      1338.0000000 :
STOP .m      1710.0000000 :
STEP .m     0.12500000 :
NULL .        -999.250000 :
COMP.           : COMPANY
WELL.  5-0162C2   : WELL
FLD.            : FIELD
LOC.            : LOCATION
SRVC.           : SERVICE COMPANY
DATE.  2020-03-08 09:25:09   : Log Export Date {yyyy-MM-dd HH:mm:ss}
PROV.           : PROVINCE
UWI.      : UNIQUE WELL ID
API.            : API NUMBER
#==================================================================
~Curve
DEPT .m                   : DEPTH
RT .ohm.m                 : RT
SP .                      : SP
Fluids .                  : Fluids
POR .m3/m3                : POR
PERM .mD                  : PERM
Lith .                    : Lith
~Parameter
#==================================================================
~Ascii
# ...
 1566.3750000 27.620000839 -62.09000015 4.0000000000 19.000000000 309.00000000 1.0000000000
 1566.5000000 28.889999390 -61.93999863 4.0000000000 19.000000000 309.00000000 1.0000000000
 1566.6250000 30.840000153 -61.77000046 4.0000000000 19.000000000 309.00000000 1.0000000000
 1566.7500000 32.759998322 -61.56000137 4.0000000000 19.000000000 309.00000000 1.0000000000
 1566.8750000 33.880001068 -61.29999924 4.0000000000 19.000000000 309.00000000 1.0000000000
 1567.0000000 34.310001373 -60.99000168 4.0000000000 19.000000000 309.00000000 1.0000000000
 1567.1250000 34.409999847 -60.61000061 4.0000000000 19.000000000 309.00000000 1.0000000000
 1567.2500000 34.060001373 -60.13999939 4.0000000000 19.000000000 309.00000000 1.0000000000
 1567.3750000 33.069999695 -59.56999969 4.0000000000 19.000000000 309.00000000 1.0000000000
 1567.5000000 31.629999161 -58.86000061 4.0000000000 19.000000000 309.00000000 1.0000000000
 1567.6250000 29.639999390 -58.00999832 4.0000000000 19.000000000 309.00000000 1.0000000000
 1567.7500000 27.040000916 -57.00999832 4.0000000000 19.000000000 309.00000000 1.0000000000
 1567.8750000 24.299999237 -55.90000153 4.0000000000 19.000000000 309.00000000 1.0000000000
 1568.0000000 22.329999924 -54.68999863 4.0000000000 19.000000000 309.00000000 1.0000000000
 1568.1250000 21.520000458 -53.36999893 4.0000000000 19.000000000 309.00000000 1.0000000000
 1568.2500000 21.340000153 -51.97000122 4.0000000000 19.000000000 309.00000000 1.0000000000
 1568.3750000 20.219999313 -50.52000046 4.0000000000 19.000000000 309.00000000 1.0000000000
 1568.5000000 16.479999542 -49.04000092 4.0000000000 19.000000000 309.00000000 1.0000000000
 1568.6250000 11.380000114 -47.61999893 4.0000000000 19.000000000 309.00000000 1.0000000000
 1568.7500000 7.3499999046 -46.33000183  -999.250000 0.1000000015 0.1000000015 0.0000000000
 1568.8750000 6.5000000000 -45.20999908  -999.250000 0.1000000015 0.1000000015 0.0000000000
 1569.0000000 7.9099998474 -44.25999832 3.0000000000 11.000000000 44.000000000 1.0000000000
 1569.1250000 9.9099998474 -43.43999863 3.0000000000 11.000000000 44.000000000 1.0000000000
 1569.2500000 11.050000191 -42.70000076 3.0000000000 11.000000000 44.000000000 1.0000000000
 1569.3750000 10.489999771 -42.00999832 3.0000000000 11.000000000 44.000000000 1.0000000000
 1569.5000000 8.8900003433 -41.31000137 3.0000000000 11.000000000 44.000000000 1.0000000000
 1569.6250000 7.3200001717 -40.56999969  -999.250000 0.1000000015 0.1000000015 0.0000000000
 1569.7500000 6.2399997711 -39.81000137  -999.250000 0.1000000015 0.1000000015 0.0000000000
 1569.8750000 5.2600002289 -39.02000046  -999.250000 0.1000000015 0.1000000015 0.0000000000
 1570.0000000 4.4000000954 -38.25999832  -999.250000 0.1000000015 0.1000000015 0.0000000000
 1570.1250000 3.7400000095 -37.61000061  -999.250000 0.1000000015 0.1000000015 0.0000000000
 1570.2500000 3.3099999428 -37.13000107  -999.250000 0.1000000015 0.1000000015 0.0000000000
 1570.3750000 3.0199999809 -36.84999847  -999.250000 0.1000000015 0.1000000015 0.0000000000
 1570.5000000 3.0000000000 -36.72000122  -999.250000 0.1000000015 0.1000000015 0.0000000000
 1570.6250000 3.2699999809 -36.65999985  -999.250000 0.1000000015 0.1000000015 0.0000000000
 1570.7500000 3.6900000572 -36.66999817  -999.250000 0.1000000015 0.1000000015 0.0000000000
 1570.8750000 4.1599998474 -36.74000168  -999.250000 0.1000000015 0.1000000015 0.0000000000
 1571.0000000 4.5500001907 -36.77000046  -999.250000 0.1000000015 0.1000000015 0.0000000000
 1571.1250000 4.6500000954 -36.70000076  -999.250000 0.1000000015 0.1000000015 0.0000000000
 1571.2500000 4.3400001526 -36.50999832  -999.250000 0.1000000015 0.1000000015 0.0000000000
 1571.3750000 3.8199999332 -36.24000168  -999.250000 0.1000000015 0.1000000015 0.0000000000
 1571.5000000 3.3099999428 -35.97000122  -999.250000 0.1000000015 0.1000000015 0.0000000000
 1571.6250000 2.9400000572 -35.75999832  -999.250000 0.1000000015 0.1000000015 0.0000000000
 1571.7500000 2.6199998856 -35.65999985  -999.250000 0.1000000015 0.1000000015 0.0000000000
 1571.8750000 2.3800001144 -35.74000168  -999.250000 0.1000000015 0.1000000015 0.0000000000
 1572.0000000 2.2899999619 -36.02999878  -999.250000 0.1000000015 0.1000000015 0.0000000000
 1572.1250000 2.3800001144 -36.52000046  -999.250000 0.1000000015 0.1000000015 0.0000000000
 1572.2500000 2.6800000668 -37.15999985  -999.250000 0.1000000015 0.1000000015 0.0000000000
 1572.3750000 3.2000000477 -37.83000183  -999.250000 0.1000000015 0.1000000015 0.0000000000
 1572.5000000 3.9900000095 -38.45000076  -999.250000 0.1000000015 0.1000000015 0.0000000000
 1572.6250000 4.9800000191 -38.97000122  -999.250000 0.1000000015 0.1000000015 0.0000000000
 1572.7500000 5.8200001717 -39.34999847  -999.250000 0.1000000015 0.1000000015 0.0000000000
 1572.8750000 6.0900001526 -39.54999924  -999.250000 0.1000000015 0.1000000015 0.0000000000
 1573.0000000 5.8600001335 -39.59000015  -999.250000 0.1000000015 0.1000000015 0.0000000000
 1573.1250000 5.5300002098 -39.50000000  -999.250000 0.1000000015 0.1000000015 0.0000000000
 1573.2500000 5.3800001144 -39.33000183  -999.250000 0.1000000015 0.1000000015 0.0000000000
 1573.3750000 5.3000001907 -39.08000183  -999.250000 0.1000000015 0.1000000015 0.0000000000
 1573.5000000 5.1999998093 -38.81000137  -999.250000 0.1000000015 0.1000000015 0.0000000000
 1573.6250000 4.9699997902 -38.59000015  -999.250000 0.1000000015 0.1000000015 0.0000000000
 1573.7500000 4.4499998093 -38.47000122  -999.250000 0.1000000015 0.1000000015 0.0000000000
 1573.8750000 3.6900000572 -38.50000000  -999.250000 0.1000000015 0.1000000015 0.0000000000
 1574.0000000 3.0499999523 -38.68000031  -999.250000 0.1000000015 0.1000000015 0.0000000000
 1574.1250000 2.8699998856 -39.06000137  -999.250000 0.1000000015 0.1000000015 0.0000000000
 1574.2500000 3.1400001049 -39.63999939  -999.250000 0.1000000015 0.1000000015 0.0000000000
 1574.3750000 3.6500000954 -40.34999847  -999.250000 0.1000000015 0.1000000015 0.0000000000
 1574.5000000 4.1700000763 -41.11999893  -999.250000 0.1000000015 0.1000000015 0.0000000000
 1574.6250000 4.6399998665 -41.88999939  -999.250000 0.1000000015 0.1000000015 0.0000000000
 1574.7500000 5.1199998856 -42.59999847  -999.250000 0.1000000015 0.1000000015 0.0000000000
 1574.8750000 5.6999998093 -43.15000153  -999.250000 0.1000000015 0.1000000015 0.0000000000
 1575.0000000 6.1900000572 -43.45999908  -999.250000 0.1000000015 0.1000000015 0.0000000000
 1575.1250000 6.4499998093 -43.54000092  -999.250000 0.1000000015 0.1000000015 0.0000000000
 1575.2500000 6.6399998665 -43.52000046  -999.250000 0.1000000015 0.1000000015 0.0000000000
 1575.3750000 6.7100000381 -43.45999908  -999.250000 0.1000000015 0.1000000015 0.0000000000
 1575.5000000 6.2600002289 -43.38000107  -999.250000 0.1000000015 0.1000000015 0.0000000000
 1575.6250000 5.2399997711 -43.34999847  -999.250000 0.1000000015 0.1000000015 0.0000000000
 1575.7500000 4.1700000763 -43.47000122  -999.250000 0.1000000015 0.1000000015 0.0000000000
 1575.8750000 3.5299999714 -43.81000137  -999.250000 0.1000000015 0.1000000015 0.0000000000
 1576.0000000 3.3699998856 -44.31999969  -999.250000 0.1000000015 0.1000000015 0.0000000000
 1576.1250000 3.5999999046 -44.88999939  -999.250000 0.1000000015 0.1000000015 0.0000000000
 1576.2500000 4.2500000000 -45.45000076  -999.250000 0.1000000015 0.1000000015 0.0000000000
 1576.3750000 5.2300000191 -45.99000168  -999.250000 0.1000000015 0.1000000015 0.0000000000
 1576.5000000 6.5000000000 -46.47999954  -999.250000 0.1000000015 0.1000000015 0.0000000000
 1576.6250000 7.8899998665 -46.84000015  -999.250000 0.1000000015 0.1000000015 0.0000000000
 1576.7500000 8.8800001144 -47.06999969  -999.250000 0.1000000015 0.1000000015 0.0000000000
 1576.8750000 9.2399997711 -47.20000076  -999.250000 0.1000000015 0.1000000015 0.0000000000
 1577.0000000 9.2200002670 -47.27999878  -999.250000 0.1000000015 0.1000000015 0.0000000000
 1577.1250000 9.0600004196 -47.34999847  -999.250000 0.1000000015 0.1000000015 0.0000000000
