# LAS format log file from PETREL
# Project units are specified as depth units
#==================================================================
~Version information
VERS.   2.0:
WRAP.   NO:
#==================================================================
~Well
STRT .m      745.00000000 :
STOP .m      1730.0000000 :
STEP .m     0.12500000 :
NULL .        -999.250000 :
COMP.           : COMPANY
WELL.  5-0158   : WELL
FLD.            : FIELD
LOC.            : LOCATION
SRVC.           : SERVICE COMPANY
DATE.  2020-03-08 09:25:08   : Log Export Date {yyyy-MM-dd HH:mm:ss}
PROV.           : PROVINCE
UWI.      : UNIQUE WELL ID
API.            : API NUMBER
#==================================================================
~Curve
DEPT .m                   : DEPTH
RT .ohm.m                 : RT
SP .                      : SP
Fluids .                  : Fluids
POR .m3/m3                : POR
PERM .mD                  : PERM
Lith .                    : Lith
~Parameter
#==================================================================
~Ascii
# ...
 1702.0000000 5.7969999313 -9999.000000 3.0000000000 12.000000000 64.000000000 1.0000000000
 1702.1250000 9.0846996307 -9999.000000  -999.250000 0.1000000015 0.1000000015 0.0000000000
 1702.2500000 12.372500420 -9999.000000  -999.250000 0.1000000015 0.1000000015 0.0000000000
 1702.3750000 15.660200119 -9999.000000  -999.250000 0.1000000015 0.1000000015 0.0000000000
 1702.5000000 18.947999954 -9999.000000  -999.250000 0.1000000015 0.1000000015 0.0000000000
 1702.6250000 15.975999832 -9999.000000  -999.250000 0.1000000015 0.1000000015 0.0000000000
 1702.7500000 13.003999710 -9999.000000  -999.250000 0.1000000015 0.1000000015 0.0000000000
 1702.8750000 10.031999588 -9999.000000  -999.250000 0.1000000015 0.1000000015 0.0000000000
 1703.0000000 7.0599999428 -9999.000000  -999.250000 0.1000000015 0.1000000015 0.0000000000
 1703.1250000 6.0026998520 -9999.000000  -999.250000 0.1000000015 0.1000000015 0.0000000000
 1703.2500000 4.9454998970 -9999.000000  -999.250000 0.1000000015 0.1000000015 0.0000000000
 1703.3750000 3.8882999420 -9999.000000 3.0000000000 3.0000000000 1.0000000000 1.0000000000
 1703.5000000 2.8310000896 -9999.000000 3.0000000000 3.0000000000 1.0000000000 1.0000000000
 1703.6250000 3.0355000496 -9999.000000 3.0000000000 3.0000000000 1.0000000000 1.0000000000
 1703.7500000 3.2400000095 -9999.000000 3.0000000000 3.0000000000 1.0000000000 1.0000000000
 1703.8750000 3.4444999695 -9999.000000 3.0000000000 3.0000000000 1.0000000000 1.0000000000
 1704.0000000 3.6489999294 -9999.000000 3.0000000000 3.0000000000 1.0000000000 1.0000000000
 1704.1250000 3.5536999702 -9999.000000 3.0000000000 3.0000000000 1.0000000000 1.0000000000
 1704.2500000 3.4584999084 -9999.000000 3.0000000000 3.0000000000 1.0000000000 1.0000000000
 1704.3750000 3.3631999493 -9999.000000  -999.250000 0.1000000015 0.1000000015 0.0000000000
 1704.5000000 3.2679998875 -9999.000000  -999.250000 0.1000000015 0.1000000015 0.0000000000
 1704.6250000 3.3320000172 -9999.000000  -999.250000 0.1000000015 0.1000000015 0.0000000000
 1704.7500000 3.3959999084 -9999.000000  -999.250000 0.1000000015 0.1000000015 0.0000000000
 1704.8750000 3.4600000381 -9999.000000  -999.250000 0.1000000015 0.1000000015 0.0000000000
 1705.0000000 3.5239999294 -9999.000000  -999.250000 0.1000000015 0.1000000015 0.0000000000
 1705.1250000 3.5325000286 -9999.000000  -999.250000 0.1000000015 0.1000000015 0.0000000000
 1705.2500000 3.5409998894 -9999.000000  -999.250000 0.1000000015 0.1000000015 0.0000000000
 1705.3750000 3.5494999886 -9999.000000  -999.250000 0.1000000015 0.1000000015 0.0000000000
 1705.5000000 3.5580000877 -9999.000000  -999.250000 0.1000000015 0.1000000015 0.0000000000
 1705.6250000 3.4960000515 -9999.000000  -999.250000 0.1000000015 0.1000000015 0.0000000000
 1705.7500000 3.4340000153 -9999.000000  -999.250000 0.1000000015 0.1000000015 0.0000000000
 1705.8750000 3.3719999790 -9999.000000  -999.250000 0.1000000015 0.1000000015 0.0000000000
 1706.0000000 3.3099999428 -9999.000000  -999.250000 0.1000000015 0.1000000015 0.0000000000
 1706.1250000 3.1161999702 -9999.000000  -999.250000 0.1000000015 0.1000000015 0.0000000000
 1706.2500000 2.9224998951 -9999.000000  -999.250000 0.1000000015 0.1000000015 0.0000000000
 1706.3750000 2.7288000584 -9999.000000  -999.250000 0.1000000015 0.1000000015 0.0000000000
 1706.5000000 2.5350000858 -9999.000000  -999.250000 0.1000000015 0.1000000015 0.0000000000
 1706.6250000 2.8399999142 -9999.000000  -999.250000 0.1000000015 0.1000000015 0.0000000000
 1706.7500000 3.1449999809 -9999.000000  -999.250000 0.1000000015 0.1000000015 0.0000000000
 1706.8750000 3.4500000477 -9999.000000  -999.250000 0.1000000015 0.1000000015 0.0000000000
 1707.0000000 3.7550001144 -9999.000000  -999.250000 0.1000000015 0.1000000015 0.0000000000
 1707.1250000 3.7355000973 -9999.000000  -999.250000 0.1000000015 0.1000000015 0.0000000000
 1707.2500000 3.7160000801 -9999.000000  -999.250000 0.1000000015 0.1000000015 0.0000000000
 1707.3750000 3.6965000629 -9999.000000  -999.250000 0.1000000015 0.1000000015 0.0000000000
 1707.5000000 3.6770000458 -9999.000000  -999.250000 0.1000000015 0.1000000015 0.0000000000
 1707.6250000 3.5532999039 -9999.000000  -999.250000 0.1000000015 0.1000000015 0.0000000000
 1707.7500000 3.4295001030 -9999.000000  -999.250000 0.1000000015 0.1000000015 0.0000000000
 1707.8750000 3.3057000637 -9999.000000  -999.250000 0.1000000015 0.1000000015 0.0000000000
 1708.0000000 3.1819999218 -9999.000000  -999.250000 0.1000000015 0.1000000015 0.0000000000
 1708.1250000 3.2172000408 -9999.000000  -999.250000 0.1000000015 0.1000000015 0.0000000000
 1708.2500000 3.2525000572 -9999.000000  -999.250000 0.1000000015 0.1000000015 0.0000000000
 1708.3750000 3.2876999378 -9999.000000  -999.250000 0.1000000015 0.1000000015 0.0000000000
 1708.5000000 3.3229999542 -9999.000000  -999.250000 0.1000000015 0.1000000015 0.0000000000
 1708.6250000 3.2669999599 -9999.000000  -999.250000 0.1000000015 0.1000000015 0.0000000000
 1708.7500000 3.2109999657 -9999.000000  -999.250000 0.1000000015 0.1000000015 0.0000000000
 1708.8750000 3.1549999714 -9999.000000  -999.250000 0.1000000015 0.1000000015 0.0000000000
 1709.0000000 3.0989999771 -9999.000000  -999.250000 0.1000000015 0.1000000015 0.0000000000
 1709.1250000 3.7634999752 -9999.000000  -999.250000 0.1000000015 0.1000000015 0.0000000000
 1709.2500000 4.4279999733 -9999.000000  -999.250000 0.1000000015 0.1000000015 0.0000000000
 1709.3750000 5.0925002098 -9999.000000  -999.250000 0.1000000015 0.1000000015 0.0000000000
 1709.5000000 5.7569999695 -9999.000000  -999.250000 0.1000000015 0.1000000015 0.0000000000
 1709.6250000 7.1806998253 -9999.000000  -999.250000 0.1000000015 0.1000000015 0.0000000000
 1709.7500000 8.6044998169 -9999.000000  -999.250000 0.1000000015 0.1000000015 0.0000000000
 1709.8750000 10.028200150 -9999.000000  -999.250000 0.1000000015 0.1000000015 0.0000000000
 1710.0000000 11.451999664 -9999.000000  -999.250000 0.1000000015 0.1000000015 0.0000000000
 1710.1250000 9.2735004425 -9999.000000  -999.250000 0.1000000015 0.1000000015 0.0000000000
 1710.2500000 7.0949997902 -9999.000000  -999.250000 0.1000000015 0.1000000015 0.0000000000
 1710.3750000 4.9165000916 -9999.000000  -999.250000 0.1000000015 0.1000000015 0.0000000000
 1710.5000000 2.7379999161 -9999.000000  -999.250000 0.1000000015 0.1000000015 0.0000000000
 1710.6250000 4.1040000916 -9999.000000  -999.250000 0.1000000015 0.1000000015 0.0000000000
 1710.7500000 5.4699997902 -9999.000000  -999.250000 0.1000000015 0.1000000015 0.0000000000
 1710.8750000 6.8359999657 -9999.000000 0.0000000000 0.0000000000 0.0000000000 1.0000000000
 1711.0000000 8.2019996643 -9999.000000 0.0000000000 0.0000000000 0.0000000000 1.0000000000
 1711.1250000 10.784199715 -9999.000000 0.0000000000 0.0000000000 0.0000000000 1.0000000000
 1711.2500000 13.366499901 -9999.000000 0.0000000000 0.0000000000 0.0000000000 1.0000000000
 1711.3750000 15.948800087 -9999.000000 0.0000000000 0.0000000000 0.0000000000 1.0000000000
 1711.5000000 18.531000137 -9999.000000  -999.250000 0.1000000015 0.1000000015 0.0000000000
 1711.6250000 14.628000259 -9999.000000  -999.250000 0.1000000015 0.1000000015 0.0000000000
 1711.7500000 10.725000381 -9999.000000  -999.250000 0.1000000015 0.1000000015 0.0000000000
 1711.8750000 6.8220000267 -9999.000000  -999.250000 0.1000000015 0.1000000015 0.0000000000
 1712.0000000 2.9189999104 -9999.000000  -999.250000 0.1000000015 0.1000000015 0.0000000000
 1712.1250000 3.0847001076 -9999.000000 0.0000000000 1.0000000000 0.0000000000 1.0000000000
 1712.2500000 3.2504999638 -9999.000000 0.0000000000 1.0000000000 0.0000000000 1.0000000000
 1712.3750000 3.4161999226 -9999.000000 0.0000000000 1.0000000000 0.0000000000 1.0000000000
 1712.5000000 3.5820000172 -9999.000000 0.0000000000 1.0000000000 0.0000000000 1.0000000000
 1712.6250000 3.7446999550 -9999.000000 0.0000000000 1.0000000000 0.0000000000 1.0000000000
 1712.7500000 3.9075000286 -9999.000000 0.0000000000 1.0000000000 0.0000000000 1.0000000000
