# LAS format log file from PETREL
# Project units are specified as depth units
#==================================================================
~Version information
VERS.   2.0:
WRAP.   NO:
#==================================================================
~Well
STRT .m      725.00000000 :
STOP .m      1752.0000000 :
STEP .m     0.12500000 :
NULL .        -999.250000 :
COMP.           : COMPANY
WELL.  5-0166   : WELL
FLD.            : FIELD
LOC.            : LOCATION
SRVC.           : SERVICE COMPANY
DATE.  2020-03-08 09:25:09   : Log Export Date {yyyy-MM-dd HH:mm:ss}
PROV.           : PROVINCE
UWI.      : UNIQUE WELL ID
API.            : API NUMBER
#==================================================================
~Curve
DEPT .m                   : DEPTH
RT .ohm.m                 : RT
SP .                      : SP
Fluids .                  : Fluids
POR .m3/m3                : POR
PERM .mD                  : PERM
Lith .                    : Lith
~Parameter
#==================================================================
~Ascii
# ...
 1595.0000000 26.277999878 -9999.000000 2.0000000000 18.000000000 300.00000000 1.0000000000
 1595.1250000 28.582000732 -9999.000000 2.0000000000 18.000000000 300.00000000 1.0000000000
 1595.2500000 30.885999680 -9999.000000 2.0000000000 18.000000000 300.00000000 1.0000000000
 1595.3750000 33.189998627 -9999.000000 2.0000000000 18.000000000 300.00000000 1.0000000000
 1595.5000000 35.493999481 -9999.000000 2.0000000000 18.000000000 300.00000000 1.0000000000
 1595.6250000 35.412498474 -9999.000000 2.0000000000 18.000000000 300.00000000 1.0000000000
 1595.7500000 35.331001282 -9999.000000 2.0000000000 18.000000000 300.00000000 1.0000000000
 1595.8750000 35.249500275 -9999.000000 2.0000000000 18.000000000 300.00000000 1.0000000000
 1596.0000000 35.167999268 -9999.000000 2.0000000000 18.000000000 300.00000000 1.0000000000
 1596.1250000 34.124000549 -9999.000000 2.0000000000 18.000000000 300.00000000 1.0000000000
 1596.2500000 33.080001831 -9999.000000 2.0000000000 18.000000000 300.00000000 1.0000000000
 1596.3750000 32.035999298 -9999.000000 2.0000000000 18.000000000 300.00000000 1.0000000000
 1596.5000000 30.992000580 -9999.000000 2.0000000000 18.000000000 300.00000000 1.0000000000
 1596.6250000 31.468799591 -9999.000000 2.0000000000 18.000000000 300.00000000 1.0000000000
 1596.7500000 31.945499420 -9999.000000 2.0000000000 18.000000000 300.00000000 1.0000000000
 1596.8750000 32.422199249 -9999.000000 2.0000000000 18.000000000 300.00000000 1.0000000000
 1597.0000000 32.898998260 -9999.000000 2.0000000000 18.000000000 300.00000000 1.0000000000
 1597.1250000 32.952999115 -9999.000000 2.0000000000 18.000000000 300.00000000 1.0000000000
 1597.2500000 33.006999969 -9999.000000 2.0000000000 18.000000000 300.00000000 1.0000000000
 1597.3750000 33.061000824 -9999.000000 2.0000000000 18.000000000 300.00000000 1.0000000000
 1597.5000000 33.115001678 -9999.000000 2.0000000000 18.000000000 300.00000000 1.0000000000
 1597.6250000 32.627799988 -9999.000000 2.0000000000 18.000000000 300.00000000 1.0000000000
 1597.7500000 32.140499115 -9999.000000 2.0000000000 18.000000000 300.00000000 1.0000000000
 1597.8750000 31.653299332 -9999.000000 2.0000000000 18.000000000 300.00000000 1.0000000000
 1598.0000000 31.166000366 -9999.000000 2.0000000000 18.000000000 300.00000000 1.0000000000
 1598.1250000 28.448499680 -9999.000000 2.0000000000 18.000000000 300.00000000 1.0000000000
 1598.2500000 25.731000900 -9999.000000 2.0000000000 18.000000000 300.00000000 1.0000000000
 1598.3750000 23.013500214 -9999.000000 2.0000000000 18.000000000 300.00000000 1.0000000000
 1598.5000000 20.295999527 -9999.000000 2.0000000000 18.000000000 300.00000000 1.0000000000
 1598.6250000 20.749200821 -9999.000000 2.0000000000 18.000000000 300.00000000 1.0000000000
 1598.7500000 21.202499390 -9999.000000 2.0000000000 18.000000000 300.00000000 1.0000000000
 1598.8750000 21.655700684 -9999.000000 2.0000000000 18.000000000 300.00000000 1.0000000000
 1599.0000000 22.108999252 -9999.000000 2.0000000000 18.000000000 300.00000000 1.0000000000
 1599.1250000 23.137500763 -9999.000000 2.0000000000 18.000000000 300.00000000 1.0000000000
 1599.2500000 24.166000366 -9999.000000 2.0000000000 18.000000000 300.00000000 1.0000000000
 1599.3750000 25.194499969 -9999.000000 2.0000000000 18.000000000 300.00000000 1.0000000000
 1599.5000000 26.222999573 -9999.000000 2.0000000000 18.000000000 300.00000000 1.0000000000
 1599.6250000 26.299200058 -9999.000000 2.0000000000 18.000000000 300.00000000 1.0000000000
 1599.7500000 26.375499725 -9999.000000 2.0000000000 18.000000000 300.00000000 1.0000000000
 1599.8750000 26.451700211 -9999.000000 2.0000000000 18.000000000 300.00000000 1.0000000000
 1600.0000000 26.527999878 -9999.000000 2.0000000000 18.000000000 300.00000000 1.0000000000
 1600.1250000 27.439699173 -9999.000000 2.0000000000 18.000000000 300.00000000 1.0000000000
 1600.2500000 28.351499557 -9999.000000 2.0000000000 18.000000000 300.00000000 1.0000000000
 1600.3750000 29.263200760 -9999.000000 2.0000000000 18.000000000 300.00000000 1.0000000000
 1600.5000000 30.174999237 -9999.000000 2.0000000000 18.000000000 300.00000000 1.0000000000
 1600.6250000 26.246000290 -9999.000000 2.0000000000 18.000000000 300.00000000 1.0000000000
 1600.7500000 22.316999435 -9999.000000 2.0000000000 18.000000000 300.00000000 1.0000000000
 1600.8750000 18.388000488 -9999.000000 2.0000000000 18.000000000 300.00000000 1.0000000000
 1601.0000000 14.458999634 -9999.000000 2.0000000000 18.000000000 300.00000000 1.0000000000
 1601.1250000 16.774000168 -9999.000000 2.0000000000 18.000000000 300.00000000 1.0000000000
 1601.2500000 19.089000702 -9999.000000 2.0000000000 18.000000000 300.00000000 1.0000000000
 1601.3750000 21.403999329 -9999.000000 2.0000000000 18.000000000 300.00000000 1.0000000000
 1601.5000000 23.718999863 -9999.000000 2.0000000000 18.000000000 300.00000000 1.0000000000
 1601.6250000 24.811199188 -9999.000000 2.0000000000 18.000000000 300.00000000 1.0000000000
 1601.7500000 25.903499603 -9999.000000 2.0000000000 18.000000000 300.00000000 1.0000000000
 1601.8750000 26.995700836 -9999.000000 2.0000000000 18.000000000 300.00000000 1.0000000000
 1602.0000000 28.087999344 -9999.000000 2.0000000000 18.000000000 300.00000000 1.0000000000
 1602.1250000 23.898500443 -9999.000000 2.0000000000 18.000000000 300.00000000 1.0000000000
 1602.2500000 19.708999634 -9999.000000 2.0000000000 18.000000000 300.00000000 1.0000000000
 1602.3750000 15.519499779 -9999.000000 2.0000000000 18.000000000 300.00000000 1.0000000000
 1602.5000000 11.329999924 -9999.000000 2.0000000000 18.000000000 300.00000000 1.0000000000
 1602.6250000 14.366999626 -9999.000000 2.0000000000 18.000000000 300.00000000 1.0000000000
 1602.7500000 17.403999329 -9999.000000 2.0000000000 18.000000000 300.00000000 1.0000000000
 1602.8750000 20.440999985 -9999.000000 2.0000000000 18.000000000 300.00000000 1.0000000000
 1603.0000000 23.478000641 -9999.000000 2.0000000000 18.000000000 300.00000000 1.0000000000
 1603.1250000 22.975000381 -9999.000000 2.0000000000 18.000000000 300.00000000 1.0000000000
 1603.2500000 22.472000122 -9999.000000 2.0000000000 18.000000000 300.00000000 1.0000000000
 1603.3750000 21.968999863 -9999.000000 2.0000000000 18.000000000 300.00000000 1.0000000000
 1603.5000000 21.465999603 -9999.000000 2.0000000000 18.000000000 300.00000000 1.0000000000
 1603.6250000 21.017200470 -9999.000000 2.0000000000 18.000000000 300.00000000 1.0000000000
 1603.7500000 20.568500519 -9999.000000 2.0000000000 18.000000000 300.00000000 1.0000000000
 1603.8750000 20.119699478 -9999.000000 2.0000000000 18.000000000 300.00000000 1.0000000000
 1604.0000000 19.670999527 -9999.000000 2.0000000000 18.000000000 300.00000000 1.0000000000
 1604.1250000 17.902200699 -9999.000000 2.0000000000 18.000000000 300.00000000 1.0000000000
 1604.2500000 16.133499146 -9999.000000 2.0000000000 18.000000000 300.00000000 1.0000000000
 1604.3750000 14.364700317 -9999.000000 2.0000000000 18.000000000 300.00000000 1.0000000000
 1604.5000000 12.595999718 -9999.000000 2.0000000000 18.000000000 300.00000000 1.0000000000
 1604.6250000 13.274499893 -9999.000000 2.0000000000 18.000000000 300.00000000 1.0000000000
 1604.7500000 13.953000069 -9999.000000 2.0000000000 18.000000000 300.00000000 1.0000000000
 1604.8750000 14.631500244 -9999.000000 2.0000000000 18.000000000 300.00000000 1.0000000000
 1605.0000000 15.310000420 -9999.000000 2.0000000000 18.000000000 300.00000000 1.0000000000
 1605.1250000 15.401300430 -9999.000000 2.0000000000 18.000000000 300.00000000 1.0000000000
 1605.2500000 15.492500305 -9999.000000 2.0000000000 18.000000000 300.00000000 1.0000000000
 1605.3750000 15.583800316 -9999.000000 2.0000000000 18.000000000 300.00000000 1.0000000000
 1605.5000000 15.675000191 -9999.000000 2.0000000000 18.000000000 300.00000000 1.0000000000
 1605.6250000 15.450799942 -9999.000000 2.0000000000 18.000000000 300.00000000 1.0000000000
 1605.7500000 15.226499557 -9999.000000 2.0000000000 18.000000000 300.00000000 1.0000000000
