# LAS format log file from PETREL
# Project units are specified as depth units
#==================================================================
~Version information
VERS.   2.0:
WRAP.   NO:
#==================================================================
~Well
STRT .m      1480.0000000 :
STOP .m      1820.0000000 :
STEP .m     0.12500000 :
NULL .        -999.250000 :
COMP.           : COMPANY
WELL.  5-0165   : WELL
FLD.            : FIELD
LOC.            : LOCATION
SRVC.           : SERVICE COMPANY
DATE.  2020-03-08 09:25:09   : Log Export Date {yyyy-MM-dd HH:mm:ss}
PROV.           : PROVINCE
UWI.      : UNIQUE WELL ID
API.            : API NUMBER
#==================================================================
~Curve
DEPT .m                   : DEPTH
RT .ohm.m                 : RT
SP .                      : SP
Fluids .                  : Fluids
POR .m3/m3                : POR
PERM .mD                  : PERM
Lith .                    : Lith
~Parameter
#==================================================================
~Ascii
# ...
 1697.5000000 3.5690000057 42.479000092 4.0000000000 21.000000000 1887.0000000 1.0000000000
 1697.6250000 3.5350000858 42.508998871 4.0000000000 21.000000000 1887.0000000 1.0000000000
 1697.7500000 3.7290000916 42.555000305 4.0000000000 21.000000000 1887.0000000 1.0000000000
 1697.8750000 4.0630002022 42.615001678 4.0000000000 21.000000000 1887.0000000 1.0000000000
 1698.0000000 4.6069998741 42.686000824 4.0000000000 21.000000000 1887.0000000 1.0000000000
 1698.1250000 4.8169999123 42.764999390 4.0000000000 21.000000000 1887.0000000 1.0000000000
 1698.2500000 4.8299999237 42.848999023 4.0000000000 21.000000000 1887.0000000 1.0000000000
 1698.3750000 4.5819997787 42.931999207 4.0000000000 21.000000000 1887.0000000 1.0000000000
 1698.5000000 4.3590002060 43.011001587 4.0000000000 21.000000000 1887.0000000 1.0000000000
 1698.6250000 4.2500000000 43.083000183 4.0000000000 21.000000000 1887.0000000 1.0000000000
 1698.7500000 4.2300000191 43.145999908 4.0000000000 21.000000000 1887.0000000 1.0000000000
 1698.8750000 4.3210000992 43.205001831 4.0000000000 21.000000000 1887.0000000 1.0000000000
 1699.0000000 4.4419999123 43.259998322 4.0000000000 21.000000000 1887.0000000 1.0000000000
 1699.1250000 4.4439997673 43.313999176 4.0000000000 21.000000000 1887.0000000 1.0000000000
 1699.2500000 4.1989998817 43.367000580 4.0000000000 21.000000000 1887.0000000 1.0000000000
 1699.3750000 4.0430002213 43.416000366 4.0000000000 21.000000000 1887.0000000 1.0000000000
 1699.5000000 3.9479999542 43.462001801 4.0000000000 21.000000000 1887.0000000 1.0000000000
 1699.6250000 3.9159998894 43.507999420 4.0000000000 21.000000000 1887.0000000 1.0000000000
 1699.7500000 4.0339999199 43.555000305 4.0000000000 21.000000000 1887.0000000 1.0000000000
 1699.8750000 4.4299998283 43.606998444 4.0000000000 21.000000000 1887.0000000 1.0000000000
 1700.0000000 4.8940000534 43.664001465 4.0000000000 21.000000000 1887.0000000 1.0000000000
 1700.1250000 5.1700000763 43.722999573 4.0000000000 21.000000000 1887.0000000 1.0000000000
 1700.2500000 5.2340002060 43.775001526 4.0000000000 21.000000000 1887.0000000 1.0000000000
 1700.3750000 5.0170001984 43.812999725 4.0000000000 21.000000000 1887.0000000 1.0000000000
 1700.5000000 4.4790000916 43.828998566 4.0000000000 21.000000000 1887.0000000 1.0000000000
 1700.6250000 3.4010000229 43.825000763 4.0000000000 21.000000000 1887.0000000 1.0000000000
 1700.7500000 3.1089999676 43.805000305 4.0000000000 21.000000000 1887.0000000 1.0000000000
 1700.8750000 3.0060000420 43.779998779 4.0000000000 21.000000000 1887.0000000 1.0000000000
 1701.0000000 3.3980000019 43.759998322 4.0000000000 21.000000000 1887.0000000 1.0000000000
 1701.1250000 3.7809998989 43.750999451 4.0000000000 21.000000000 1887.0000000 1.0000000000
 1701.2500000 4.2119998932 43.756999969 4.0000000000 21.000000000 1887.0000000 1.0000000000
 1701.3750000 4.5900001526 43.776000977 4.0000000000 21.000000000 1887.0000000 1.0000000000
 1701.5000000 5.0329999924 43.803001404 4.0000000000 21.000000000 1887.0000000 1.0000000000
 1701.6250000 5.2039999962 43.833000183 4.0000000000 21.000000000 1887.0000000 1.0000000000
 1701.7500000 5.2329998016 43.856998444 4.0000000000 21.000000000 1887.0000000 1.0000000000
 1701.8750000 5.3709998131 43.872001648 4.0000000000 21.000000000 1887.0000000 1.0000000000
 1702.0000000 5.5859999657 43.875000000 4.0000000000 21.000000000 1887.0000000 1.0000000000
 1702.1250000 5.7509999275 43.868999481 4.0000000000 21.000000000 1887.0000000 1.0000000000
 1702.2500000 5.8790001869 43.854000092 4.0000000000 21.000000000 1887.0000000 1.0000000000
 1702.3750000 5.9780001640 43.834999084 4.0000000000 21.000000000 1887.0000000 1.0000000000
 1702.5000000 6.0180001259 43.811000824 4.0000000000 21.000000000 1887.0000000 1.0000000000
 1702.6250000 6.0469999313 43.779998779 4.0000000000 21.000000000 1887.0000000 1.0000000000
 1702.7500000 6.2230000496 43.742000580 4.0000000000 21.000000000 1887.0000000 1.0000000000
 1702.8750000 6.4219999313 43.695999146 4.0000000000 21.000000000 1887.0000000 1.0000000000
 1703.0000000 6.5529999733 43.646999359 4.0000000000 21.000000000 1887.0000000 1.0000000000
 1703.1250000 6.5689997673 43.602001190 4.0000000000 21.000000000 1887.0000000 1.0000000000
 1703.2500000 6.2410001755 43.563999176 4.0000000000 21.000000000 1887.0000000 1.0000000000
 1703.3750000 5.8559999466 43.537998199 4.0000000000 21.000000000 1887.0000000 1.0000000000
 1703.5000000 5.4869999886 43.523998260 4.0000000000 21.000000000 1887.0000000 1.0000000000
 1703.6250000 5.4800000191 43.522998810 4.0000000000 21.000000000 1887.0000000 1.0000000000
 1703.7500000 5.6970000267 43.534000397 4.0000000000 21.000000000 1887.0000000 1.0000000000
 1703.8750000 6.1399998665 43.555999756 4.0000000000 21.000000000 1887.0000000 1.0000000000
 1704.0000000 6.5710000992 43.584999084 4.0000000000 21.000000000 1887.0000000 1.0000000000
 1704.1250000 6.8299999237 43.620998383 4.0000000000 21.000000000 1887.0000000 1.0000000000
 1704.2500000 6.9419999123 43.661998749 4.0000000000 21.000000000 1887.0000000 1.0000000000
 1704.3750000 7.1510000229 43.708000183 4.0000000000 21.000000000 1887.0000000 1.0000000000
 1704.5000000 7.4990000725 43.761001587 4.0000000000 21.000000000 1887.0000000 1.0000000000
 1704.6250000 7.7129998207 43.821998596 4.0000000000 21.000000000 1887.0000000 1.0000000000
 1704.7500000 7.7940001488 43.889999390 4.0000000000 21.000000000 1887.0000000 1.0000000000
 1704.8750000 7.7430000305 43.964000702 4.0000000000 21.000000000 1887.0000000 1.0000000000
 1705.0000000 7.6350002289 44.041999817 4.0000000000 21.000000000 1887.0000000 1.0000000000
 1705.1250000 7.5009999275 44.122001648 4.0000000000 21.000000000 1887.0000000 1.0000000000
 1705.2500000 7.2280001640 44.199001312 4.0000000000 21.000000000 1887.0000000 1.0000000000
 1705.3750000 6.9060001373 44.271999359 4.0000000000 21.000000000 1887.0000000 1.0000000000
 1705.5000000 6.4800000191 44.340000153 4.0000000000 21.000000000 1887.0000000 1.0000000000
 1705.6250000 5.5999999046 44.403999329 4.0000000000 21.000000000 1887.0000000 1.0000000000
 1705.7500000 4.2680001259 44.465000153 4.0000000000 21.000000000 1887.0000000 1.0000000000
 1705.8750000 4.1240000725 44.525001526 4.0000000000 21.000000000 1887.0000000 1.0000000000
 1706.0000000 4.2779998779 44.587001801 4.0000000000 21.000000000 1887.0000000 1.0000000000
 1706.1250000 4.9879999161 44.653999329 4.0000000000 21.000000000 1887.0000000 1.0000000000
 1706.2500000 5.5019998550 44.727001190 4.0000000000 21.000000000 1887.0000000 1.0000000000
 1706.3750000 6.2680001259 44.805999756 4.0000000000 21.000000000 1887.0000000 1.0000000000
 1706.5000000 6.7670001984 44.888000488 4.0000000000 21.000000000 1887.0000000 1.0000000000
 1706.6250000 7.1129999161 44.970001221 4.0000000000 21.000000000 1887.0000000 1.0000000000
 1706.7500000 7.2709999084 45.048000336 4.0000000000 21.000000000 1887.0000000 1.0000000000
 1706.8750000 6.9539999962 45.123001099 4.0000000000 21.000000000 1887.0000000 1.0000000000
 1707.0000000 5.8870000839 45.191001892 4.0000000000 21.000000000 1887.0000000 1.0000000000
 1707.1250000 4.8750000000 45.250000000 4.0000000000 21.000000000 1887.0000000 1.0000000000
 1707.2500000 4.6989998817 45.294998169 4.0000000000 21.000000000 1887.0000000 1.0000000000
 1707.3750000 4.6589999199 45.323001862 4.0000000000 21.000000000 1887.0000000 1.0000000000
 1707.5000000 4.9590001106 45.327999115 4.0000000000 21.000000000 1887.0000000 1.0000000000
 1707.6250000 5.4029998779 45.312000275 4.0000000000 21.000000000 1887.0000000 1.0000000000
 1707.7500000 6.0840001106 45.277000427 4.0000000000 21.000000000 1887.0000000 1.0000000000
 1707.8750000 6.6729998589 45.229000092 4.0000000000 21.000000000 1887.0000000 1.0000000000
 1708.0000000 7.0069999695 45.172000885 4.0000000000 21.000000000 1887.0000000 1.0000000000
 1708.1250000 7.1329998970 45.109001160 4.0000000000 21.000000000 1887.0000000 1.0000000000
 1708.2500000 7.0199999809 45.043998718 4.0000000000 21.000000000 1887.0000000 1.0000000000
