# LAS format log file from PETREL
# Project units are specified as depth units
#==================================================================
~Version information
VERS.   2.0:
WRAP.   NO:
#==================================================================
~Well
STRT .m      1510.0000000 :
STOP .m      1750.0000000 :
STEP .m     0.12500000 :
NULL .        -999.250000 :
COMP.           : COMPANY
WELL.  5-0165C   : WELL
FLD.            : FIELD
LOC.            : LOCATION
SRVC.           : SERVICE COMPANY
DATE.  2020-03-08 09:25:09   : Log Export Date {yyyy-MM-dd HH:mm:ss}
PROV.           : PROVINCE
UWI.      : UNIQUE WELL ID
API.            : API NUMBER
#==================================================================
~Curve
DEPT .m                   : DEPTH
RT .ohm.m                 : RT
SP .                      : SP
Fluids .                  : Fluids
POR .m3/m3                : POR
PERM .mD                  : PERM
Lith .                    : Lith
~Parameter
#==================================================================
~Ascii
# ...
 1629.6250000 10.890999794 17.531999588 4.0000000000 22.000000000 2153.0000000 1.0000000000
 1629.7500000 10.342000008 17.451000214 4.0000000000 22.000000000 2153.0000000 1.0000000000
 1629.8750000 10.409000397 17.441999435 4.0000000000 22.000000000 2153.0000000 1.0000000000
 1630.0000000 10.619999886 17.440000534 4.0000000000 22.000000000 2153.0000000 1.0000000000
 1630.1250000 20.135999680 17.440000534 4.0000000000 22.000000000 2153.0000000 1.0000000000
 1630.2500000 21.379999161 17.438999176 4.0000000000 22.000000000 2153.0000000 1.0000000000
 1630.3750000 22.892000198 17.399999619 4.0000000000 22.000000000 2153.0000000 1.0000000000
 1630.5000000 24.388000488 17.329999924 4.0000000000 22.000000000 2153.0000000 1.0000000000
 1630.6250000 24.760999680 17.200000763 4.0000000000 22.000000000 2153.0000000 1.0000000000
 1630.7500000 24.002000809 17.018999100 4.0000000000 22.000000000 2153.0000000 1.0000000000
 1630.8750000 21.208999634 16.809999466 4.0000000000 22.000000000 2153.0000000 1.0000000000
 1631.0000000 16.566999435 16.611000061 4.0000000000 22.000000000 2153.0000000 1.0000000000
 1631.1250000 14.885999680 16.368000031 4.0000000000 22.000000000 2153.0000000 1.0000000000
 1631.2500000 14.678000450 16.121999741 4.0000000000 22.000000000 2153.0000000 1.0000000000
 1631.3750000 16.025999069 15.956999779 4.0000000000 22.000000000 2153.0000000 1.0000000000
 1631.5000000 17.381000519 15.833999634 4.0000000000 22.000000000 2153.0000000 1.0000000000
 1631.6250000 18.899000168 15.692000389 4.0000000000 22.000000000 2153.0000000 1.0000000000
 1631.7500000 19.812000275 15.604999542 4.0000000000 22.000000000 2153.0000000 1.0000000000
 1631.8750000 20.406999588 15.598999977 4.0000000000 22.000000000 2153.0000000 1.0000000000
 1632.0000000 20.950000763 15.663999557 4.0000000000 22.000000000 2153.0000000 1.0000000000
 1632.1250000 21.350999832 15.822999954 4.0000000000 22.000000000 2153.0000000 1.0000000000
 1632.2500000 21.614000320 15.994999886 4.0000000000 22.000000000 2153.0000000 1.0000000000
 1632.3750000 21.687999725 16.160999298 4.0000000000 22.000000000 2153.0000000 1.0000000000
 1632.5000000 21.392000198 16.315000534 4.0000000000 22.000000000 2153.0000000 1.0000000000
 1632.6250000 20.427999496 16.509000778 4.0000000000 22.000000000 2153.0000000 1.0000000000
 1632.7500000 13.309000015 16.677999496 4.0000000000 22.000000000 2153.0000000 1.0000000000
 1632.8750000 10.020999908 16.791999817 4.0000000000 22.000000000 2153.0000000 1.0000000000
 1633.0000000 9.2930002213 16.927000046 4.0000000000 22.000000000 2153.0000000 1.0000000000
 1633.1250000 8.7069997787 17.065999985 4.0000000000 22.000000000 2153.0000000 1.0000000000
 1633.2500000 8.2449998856 17.228000641 4.0000000000 22.000000000 2153.0000000 1.0000000000
 1633.3750000 7.8159999847 17.357999802 4.0000000000 22.000000000 2153.0000000 1.0000000000
 1633.5000000 7.9180002213 17.503000259 4.0000000000 22.000000000 2153.0000000 1.0000000000
 1633.6250000 10.187999725 17.656000137 4.0000000000 22.000000000 2153.0000000 1.0000000000
 1633.7500000 13.390000343 17.790000916 4.0000000000 22.000000000 2153.0000000 1.0000000000
 1633.8750000 15.102999687 17.962999344 4.0000000000 22.000000000 2153.0000000 1.0000000000
 1634.0000000 16.093000412 18.336000443 4.0000000000 22.000000000 2153.0000000 1.0000000000
 1634.1250000 15.550000191 18.677000046 4.0000000000 22.000000000 2153.0000000 1.0000000000
 1634.2500000 13.354999542 18.997999191 4.0000000000 22.000000000 2153.0000000 1.0000000000
 1634.3750000 13.095999718 19.177999496 4.0000000000 22.000000000 2153.0000000 1.0000000000
 1634.5000000 13.189999580 19.304000854 4.0000000000 22.000000000 2153.0000000 1.0000000000
 1634.6250000 12.701999664 19.351999283 4.0000000000 22.000000000 2153.0000000 1.0000000000
 1634.7500000 10.732999802 19.353000641 4.0000000000 22.000000000 2153.0000000 1.0000000000
 1634.8750000 8.8710002899 19.284000397 4.0000000000 22.000000000 2153.0000000 1.0000000000
 1635.0000000 7.3449997902 19.214000702 4.0000000000 22.000000000 2153.0000000 1.0000000000
 1635.1250000 6.9920001030 19.166000366 4.0000000000 22.000000000 2153.0000000 1.0000000000
 1635.2500000 7.3309998512 19.190999985 4.0000000000 22.000000000 2153.0000000 1.0000000000
 1635.3750000 8.1730003357 19.229999542 4.0000000000 22.000000000 2153.0000000 1.0000000000
 1635.5000000 13.310000420 19.298000336 4.0000000000 22.000000000 2153.0000000 1.0000000000
 1635.6250000 15.107999802 19.368000031 4.0000000000 22.000000000 2153.0000000 1.0000000000
 1635.7500000 14.918000221 19.447000504 4.0000000000 22.000000000 2153.0000000 1.0000000000
 1635.8750000 13.442999840 19.575000763 4.0000000000 22.000000000 2153.0000000 1.0000000000
 1636.0000000 11.526000023 19.697999954 4.0000000000 22.000000000 2153.0000000 1.0000000000
 1636.1250000 11.081999779 19.820999146 4.0000000000 22.000000000 2153.0000000 1.0000000000
 1636.2500000 11.187000275 19.981000900 4.0000000000 22.000000000 2153.0000000 1.0000000000
 1636.3750000 11.694999695 20.106000900 4.0000000000 22.000000000 2153.0000000 1.0000000000
 1636.5000000 12.125000000 20.242000580 4.0000000000 22.000000000 2153.0000000 1.0000000000
 1636.6250000 12.260999680 20.381000519 4.0000000000 22.000000000 2153.0000000 1.0000000000
 1636.7500000 11.534000397 20.530000687 4.0000000000 22.000000000 2153.0000000 1.0000000000
 1636.8750000 9.9239997864 20.711000443 3.0000000000 11.000000000 141.00000000 1.0000000000
 1637.0000000 6.9549999237 20.902000427 3.0000000000 11.000000000 141.00000000 1.0000000000
 1637.1250000 9.6149997711 21.135999680 3.0000000000 11.000000000 141.00000000 1.0000000000
 1637.2500000 9.8730001450 21.416999817 3.0000000000 11.000000000 141.00000000 1.0000000000
 1637.3750000 9.4449996948 21.697999954 3.0000000000 11.000000000 141.00000000 1.0000000000
 1637.5000000 9.0860004425 21.909999847 3.0000000000 11.000000000 141.00000000 1.0000000000
 1637.6250000 9.2349996567 22.014999390 3.0000000000 11.000000000 141.00000000 1.0000000000
 1637.7500000 10.498000145 22.107999802 3.0000000000 11.000000000 141.00000000 1.0000000000
 1637.8750000 11.270999908 22.204999924 3.0000000000 11.000000000 141.00000000 1.0000000000
 1638.0000000 11.083000183 22.250999451 3.0000000000 11.000000000 141.00000000 1.0000000000
 1638.1250000 8.9399995804 22.263999939 3.0000000000 11.000000000 141.00000000 1.0000000000
 1638.2500000 8.2950000763 22.208000183 3.0000000000 11.000000000 141.00000000 1.0000000000
 1638.3750000 6.3410000801 22.190999985 3.0000000000 11.000000000 141.00000000 1.0000000000
 1638.5000000 5.5370001793 22.188999176 3.0000000000 11.000000000 141.00000000 1.0000000000
 1638.6250000 5.9270000458 22.332000732 3.0000000000 11.000000000 141.00000000 1.0000000000
 1638.7500000 7.2389998436 22.455999374 3.0000000000 11.000000000 141.00000000 1.0000000000
 1638.8750000 8.4490003586 22.659999847 3.0000000000 11.000000000 141.00000000 1.0000000000
 1639.0000000 9.2659997940 22.819999695 3.0000000000 11.000000000 141.00000000 1.0000000000
 1639.1250000 10.246999741 22.944000244 3.0000000000 11.000000000 141.00000000 1.0000000000
 1639.2500000 10.039999962 23.107000351 3.0000000000 11.000000000 141.00000000 1.0000000000
 1639.3750000 6.8979997635 23.072000504 3.0000000000 11.000000000 141.00000000 1.0000000000
 1639.5000000 5.7010002136 22.888999939  -999.250000 0.1000000015 0.1000000015 0.0000000000
 1639.6250000 4.6090002060 22.795999527  -999.250000 0.1000000015 0.1000000015 0.0000000000
 1639.7500000 3.9460000992 22.690999985  -999.250000 0.1000000015 0.1000000015 0.0000000000
 1639.8750000 3.7409999371 22.552999496  -999.250000 0.1000000015 0.1000000015 0.0000000000
 1640.0000000 4.4289999008 22.429000854 4.0000000000 23.000000000 3013.0000000 1.0000000000
 1640.1250000 7.0799999237 22.275999069 4.0000000000 23.000000000 3013.0000000 1.0000000000
 1640.2500000 10.067000389 22.052999496 4.0000000000 23.000000000 3013.0000000 1.0000000000
 1640.3750000 10.715999603 21.812999725 4.0000000000 23.000000000 3013.0000000 1.0000000000
