# LAS format log file from PETREL
# Project units are specified as depth units
#==================================================================
~Version information
VERS.   2.0:
WRAP.   NO:
#==================================================================
~Well
STRT .m      730.00000000 :
STOP .m      1729.5000000 :
STEP .m     0.12500000 :
NULL .        -999.250000 :
COMP.           : COMPANY
WELL.  5-0163   : WELL
FLD.            : FIELD
LOC.            : LOCATION
SRVC.           : SERVICE COMPANY
DATE.  2020-03-08 09:25:09   : Log Export Date {yyyy-MM-dd HH:mm:ss}
PROV.           : PROVINCE
UWI.      : UNIQUE WELL ID
API.            : API NUMBER
#==================================================================
~Curve
DEPT .m                   : DEPTH
RT .ohm.m                 : RT
SP .                      : SP
Fluids .                  : Fluids
POR .m3/m3                : POR
PERM .mD                  : PERM
Lith .                    : Lith
~Parameter
#==================================================================
~Ascii
# ...
 1643.5000000 11.866000175 -9999.000000 2.0000000000 16.000000000 192.00000000 1.0000000000
 1643.6250000 11.850500107 -9999.000000 2.0000000000 16.000000000 192.00000000 1.0000000000
 1643.7500000 11.835000038 -9999.000000 2.0000000000 16.000000000 192.00000000 1.0000000000
 1643.8750000 11.819499969 -9999.000000 2.0000000000 16.000000000 192.00000000 1.0000000000
 1644.0000000 11.803999901 -9999.000000 2.0000000000 16.000000000 192.00000000 1.0000000000
 1644.1250000 11.994799614 -9999.000000 2.0000000000 16.000000000 192.00000000 1.0000000000
 1644.2500000 12.185500145 -9999.000000 2.0000000000 16.000000000 192.00000000 1.0000000000
 1644.3750000 12.376299858 -9999.000000 2.0000000000 16.000000000 192.00000000 1.0000000000
 1644.5000000 12.567000389 -9999.000000 2.0000000000 16.000000000 192.00000000 1.0000000000
 1644.6250000 12.222999573 -9999.000000 2.0000000000 16.000000000 192.00000000 1.0000000000
 1644.7500000 11.878999710 -9999.000000 2.0000000000 16.000000000 192.00000000 1.0000000000
 1644.8750000 11.534999847 -9999.000000 2.0000000000 16.000000000 192.00000000 1.0000000000
 1645.0000000 11.190999985 -9999.000000  -999.250000 0.1000000015 0.1000000015 0.0000000000
 1645.1250000 10.219499588 -9999.000000  -999.250000 0.1000000015 0.1000000015 0.0000000000
 1645.2500000 9.2480001450 -9999.000000  -999.250000 0.1000000015 0.1000000015 0.0000000000
 1645.3750000 8.2764997482 -9999.000000  -999.250000 0.1000000015 0.1000000015 0.0000000000
 1645.5000000 7.3049998283 -9999.000000  -999.250000 0.1000000015 0.1000000015 0.0000000000
 1645.6250000 7.6799998283 -9999.000000  -999.250000 0.1000000015 0.1000000015 0.0000000000
 1645.7500000 8.0550003052 -9999.000000  -999.250000 0.1000000015 0.1000000015 0.0000000000
 1645.8750000 8.4300003052 -9999.000000  -999.250000 0.1000000015 0.1000000015 0.0000000000
 1646.0000000 8.8050003052 -9999.000000 3.0000000000 13.000000000 70.000000000 1.0000000000
 1646.1250000 11.695500374 -9999.000000 3.0000000000 13.000000000 70.000000000 1.0000000000
 1646.2500000 14.586000443 -9999.000000 3.0000000000 13.000000000 70.000000000 1.0000000000
 1646.3750000 17.476499557 -9999.000000 3.0000000000 13.000000000 70.000000000 1.0000000000
 1646.5000000 20.367000580 -9999.000000 3.0000000000 13.000000000 70.000000000 1.0000000000
 1646.6250000 19.705299377 -9999.000000 3.0000000000 13.000000000 70.000000000 1.0000000000
 1646.7500000 19.043500900 -9999.000000 3.0000000000 13.000000000 70.000000000 1.0000000000
 1646.8750000 18.381700516 -9999.000000 3.0000000000 13.000000000 70.000000000 1.0000000000
 1647.0000000 17.719999313 -9999.000000 3.0000000000 13.000000000 70.000000000 1.0000000000
 1647.1250000 20.175699234 -9999.000000 3.0000000000 13.000000000 70.000000000 1.0000000000
 1647.2500000 22.631500244 -9999.000000 3.0000000000 13.000000000 70.000000000 1.0000000000
 1647.3750000 25.087200165 -9999.000000 3.0000000000 13.000000000 70.000000000 1.0000000000
 1647.5000000 27.542999268 -9999.000000 3.0000000000 13.000000000 70.000000000 1.0000000000
 1647.6250000 28.576700211 -9999.000000 3.0000000000 13.000000000 70.000000000 1.0000000000
 1647.7500000 29.610500336 -9999.000000 3.0000000000 13.000000000 70.000000000 1.0000000000
 1647.8750000 30.644199371 -9999.000000 3.0000000000 13.000000000 70.000000000 1.0000000000
 1648.0000000 31.677999496 -9999.000000 3.0000000000 13.000000000 70.000000000 1.0000000000
 1648.1250000 26.548000336 -9999.000000 3.0000000000 13.000000000 70.000000000 1.0000000000
 1648.2500000 21.417999268 -9999.000000  -999.250000 0.1000000015 0.1000000015 0.0000000000
 1648.3750000 16.288000107 -9999.000000  -999.250000 0.1000000015 0.1000000015 0.0000000000
 1648.5000000 11.157999992 -9999.000000 4.0000000000 17.000000000 179.00000000 1.0000000000
 1648.6250000 13.729700089 -9999.000000 4.0000000000 17.000000000 179.00000000 1.0000000000
 1648.7500000 16.301500320 -9999.000000 4.0000000000 17.000000000 179.00000000 1.0000000000
 1648.8750000 18.873199463 -9999.000000 4.0000000000 17.000000000 179.00000000 1.0000000000
 1649.0000000 21.444999695 -9999.000000 4.0000000000 17.000000000 179.00000000 1.0000000000
 1649.1250000 23.047000885 -9999.000000 4.0000000000 17.000000000 179.00000000 1.0000000000
 1649.2500000 24.649000168 -9999.000000 4.0000000000 17.000000000 179.00000000 1.0000000000
 1649.3750000 26.250999451 -9999.000000 4.0000000000 17.000000000 179.00000000 1.0000000000
 1649.5000000 27.853000641 -9999.000000 4.0000000000 17.000000000 179.00000000 1.0000000000
 1649.6250000 26.164499283 -9999.000000 4.0000000000 17.000000000 179.00000000 1.0000000000
 1649.7500000 24.475999832 -9999.000000 4.0000000000 17.000000000 179.00000000 1.0000000000
 1649.8750000 22.787500381 -9999.000000 4.0000000000 17.000000000 179.00000000 1.0000000000
 1650.0000000 21.099000931 -9999.000000 4.0000000000 17.000000000 179.00000000 1.0000000000
 1650.1250000 22.538799286 -9999.000000 4.0000000000 17.000000000 179.00000000 1.0000000000
 1650.2500000 23.978500366 -9999.000000 4.0000000000 17.000000000 179.00000000 1.0000000000
 1650.3750000 25.418300629 -9999.000000 4.0000000000 17.000000000 179.00000000 1.0000000000
 1650.5000000 26.857999802 -9999.000000 4.0000000000 17.000000000 179.00000000 1.0000000000
 1650.6250000 28.839300156 -9999.000000 4.0000000000 17.000000000 179.00000000 1.0000000000
 1650.7500000 30.820499420 -9999.000000 4.0000000000 17.000000000 179.00000000 1.0000000000
 1650.8750000 32.801799774 -9999.000000 4.0000000000 17.000000000 179.00000000 1.0000000000
 1651.0000000 34.783000946 -9999.000000 4.0000000000 17.000000000 179.00000000 1.0000000000
 1651.1250000 35.390800476 -9999.000000 4.0000000000 17.000000000 179.00000000 1.0000000000
 1651.2500000 35.998500824 -9999.000000 4.0000000000 17.000000000 179.00000000 1.0000000000
 1651.3750000 36.606300354 -9999.000000 4.0000000000 17.000000000 179.00000000 1.0000000000
 1651.5000000 37.214000702 -9999.000000 4.0000000000 17.000000000 179.00000000 1.0000000000
 1651.6250000 33.944801331 -9999.000000 4.0000000000 17.000000000 179.00000000 1.0000000000
 1651.7500000 30.675500870 -9999.000000 4.0000000000 17.000000000 179.00000000 1.0000000000
 1651.8750000 27.406200409 -9999.000000 4.0000000000 17.000000000 179.00000000 1.0000000000
 1652.0000000 24.136999130 -9999.000000 4.0000000000 17.000000000 179.00000000 1.0000000000
 1652.1250000 24.760000229 -9999.000000 4.0000000000 17.000000000 179.00000000 1.0000000000
 1652.2500000 25.382999420 -9999.000000 4.0000000000 17.000000000 179.00000000 1.0000000000
 1652.3750000 26.006000519 -9999.000000 4.0000000000 17.000000000 179.00000000 1.0000000000
 1652.5000000 26.628999710 -9999.000000 4.0000000000 17.000000000 179.00000000 1.0000000000
 1652.6250000 26.873699188 -9999.000000 4.0000000000 17.000000000 179.00000000 1.0000000000
 1652.7500000 27.118499756 -9999.000000 4.0000000000 17.000000000 179.00000000 1.0000000000
 1652.8750000 27.363199234 -9999.000000 4.0000000000 17.000000000 179.00000000 1.0000000000
 1653.0000000 27.607999802 -9999.000000 4.0000000000 17.000000000 179.00000000 1.0000000000
 1653.1250000 27.722700119 -9999.000000 4.0000000000 17.000000000 179.00000000 1.0000000000
 1653.2500000 27.837499619 -9999.000000 4.0000000000 17.000000000 179.00000000 1.0000000000
 1653.3750000 27.952199936 -9999.000000 4.0000000000 17.000000000 179.00000000 1.0000000000
 1653.5000000 28.066999435 -9999.000000 4.0000000000 17.000000000 179.00000000 1.0000000000
 1653.6250000 29.797199249 -9999.000000 4.0000000000 17.000000000 179.00000000 1.0000000000
 1653.7500000 31.527500153 -9999.000000 4.0000000000 17.000000000 179.00000000 1.0000000000
 1653.8750000 33.257701874 -9999.000000 4.0000000000 17.000000000 179.00000000 1.0000000000
 1654.0000000 34.987998962 -9999.000000 4.0000000000 17.000000000 179.00000000 1.0000000000
 1654.1250000 37.964000702 -9999.000000 4.0000000000 17.000000000 179.00000000 1.0000000000
 1654.2500000 40.939998627 -9999.000000 4.0000000000 17.000000000 179.00000000 1.0000000000
