# LAS format log file from PETREL
# Project units are specified as depth units
#==================================================================
~Version information
VERS.   2.0:
WRAP.   NO:
#==================================================================
~Well
STRT .m      1450.0000000 :
STOP .m      1760.0000000 :
STEP .m     0.12500000 :
NULL .        -999.250000 :
COMP.           : COMPANY
WELL.  5-0172C   : WELL
FLD.            : FIELD
LOC.            : LOCATION
SRVC.           : SERVICE COMPANY
DATE.  2020-03-08 09:25:09   : Log Export Date {yyyy-MM-dd HH:mm:ss}
PROV.           : PROVINCE
UWI.      : UNIQUE WELL ID
API.            : API NUMBER
#==================================================================
~Curve
DEPT .m                   : DEPTH
RT .ohm.m                 : RT
SP .                      : SP
Fluids .                  : Fluids
POR .m3/m3                : POR
PERM .mD                  : PERM
Lith .                    : Lith
~Parameter
#==================================================================
~Ascii
# ...
 1613.1250000 17.059000015 10.739000320 4.0000000000 27.000000000 7378.0000000 1.0000000000
 1613.2500000 16.197000504 11.024999619 4.0000000000 27.000000000 7378.0000000 1.0000000000
 1613.3750000 15.550999641 11.277000427 4.0000000000 27.000000000 7378.0000000 1.0000000000
 1613.5000000 15.163999557 11.491999626 4.0000000000 27.000000000 7378.0000000 1.0000000000
 1613.6250000 14.965999603 11.708999634 4.0000000000 27.000000000 7378.0000000 1.0000000000
 1613.7500000 14.725000381 11.888999939 4.0000000000 27.000000000 7378.0000000 1.0000000000
 1613.8750000 14.557000160 12.093000412 4.0000000000 27.000000000 7378.0000000 1.0000000000
 1614.0000000 14.477999687 12.307999611 4.0000000000 27.000000000 7378.0000000 1.0000000000
 1614.1250000 14.451999664 12.527000427 4.0000000000 27.000000000 7378.0000000 1.0000000000
 1614.2500000 14.439000130 12.630000114 4.0000000000 27.000000000 7378.0000000 1.0000000000
 1614.3750000 14.432000160 12.819000244 4.0000000000 27.000000000 7378.0000000 1.0000000000
 1614.5000000 14.460000038 12.968999863 4.0000000000 27.000000000 7378.0000000 1.0000000000
 1614.6250000 14.541999817 13.118000031 4.0000000000 27.000000000 7378.0000000 1.0000000000
 1614.7500000 14.609000206 13.265000343 4.0000000000 27.000000000 7378.0000000 1.0000000000
 1614.8750000 14.670000076 13.324000359 4.0000000000 27.000000000 7378.0000000 1.0000000000
 1615.0000000 14.354000092 13.381999969 4.0000000000 27.000000000 7378.0000000 1.0000000000
 1615.1250000 13.873000145 13.454000473  -999.250000 0.1000000015 0.1000000015 0.0000000000
 1615.2500000 13.401000023 13.510999680  -999.250000 0.1000000015 0.1000000015 0.0000000000
 1615.3750000 13.255999565 13.574999809  -999.250000 0.1000000015 0.1000000015 0.0000000000
 1615.5000000 13.111000061 13.604000092  -999.250000 0.1000000015 0.1000000015 0.0000000000
 1615.6250000 13.161000252 13.614000320 4.0000000000 27.000000000 7270.0000000 1.0000000000
 1615.7500000 13.215000153 13.614999771 4.0000000000 27.000000000 7270.0000000 1.0000000000
 1615.8750000 14.498999596 13.612999916 4.0000000000 27.000000000 7270.0000000 1.0000000000
 1616.0000000 15.260000229 13.609999657 4.0000000000 27.000000000 7270.0000000 1.0000000000
 1616.1250000 15.855999947 13.607000351 4.0000000000 27.000000000 7270.0000000 1.0000000000
 1616.2500000 16.245000839 13.604000092 4.0000000000 27.000000000 7270.0000000 1.0000000000
 1616.3750000 16.549999237 13.600999832 4.0000000000 27.000000000 7270.0000000 1.0000000000
 1616.5000000 16.812999725 13.597999573 4.0000000000 27.000000000 7270.0000000 1.0000000000
 1616.6250000 16.892999649 13.595000267 4.0000000000 27.000000000 7270.0000000 1.0000000000
 1616.7500000 16.638000488 13.592000008 4.0000000000 27.000000000 7270.0000000 1.0000000000
 1616.8750000 15.824000359 13.616000175 4.0000000000 27.000000000 7270.0000000 1.0000000000
 1617.0000000 14.704000473 13.640000343 4.0000000000 27.000000000 7270.0000000 1.0000000000
 1617.1250000 13.102999687 13.642000198 4.0000000000 27.000000000 7270.0000000 1.0000000000
 1617.2500000 12.118000031 13.640999794 4.0000000000 27.000000000 7270.0000000 1.0000000000
 1617.3750000 11.482000351 13.638999939 4.0000000000 27.000000000 7270.0000000 1.0000000000
 1617.5000000 11.019000053 13.600999832 4.0000000000 27.000000000 7270.0000000 1.0000000000
 1617.6250000 10.737999916 13.553000450 4.0000000000 27.000000000 7270.0000000 1.0000000000
 1617.7500000 10.739000320 13.501000404 4.0000000000 27.000000000 7270.0000000 1.0000000000
 1617.8750000 10.737000465 13.449999809 4.0000000000 27.000000000 7270.0000000 1.0000000000
 1618.0000000 10.784999847 13.395999908 4.0000000000 27.000000000 7270.0000000 1.0000000000
 1618.1250000 10.873999596 13.270999908 4.0000000000 27.000000000 7270.0000000 1.0000000000
 1618.2500000 11.034000397 13.151000023 4.0000000000 27.000000000 7270.0000000 1.0000000000
 1618.3750000 11.524000168 13.039999962 4.0000000000 27.000000000 7270.0000000 1.0000000000
 1618.5000000 12.026000023 12.871000290 4.0000000000 27.000000000 7270.0000000 1.0000000000
 1618.6250000 12.704000473 12.666999817 4.0000000000 27.000000000 7270.0000000 1.0000000000
 1618.7500000 13.286999702 12.442000389 4.0000000000 27.000000000 7270.0000000 1.0000000000
 1618.8750000 13.793000221 12.269000053 4.0000000000 27.000000000 7270.0000000 1.0000000000
 1619.0000000 14.154999733 12.055999756 4.0000000000 27.000000000 7270.0000000 1.0000000000
 1619.1250000 14.281000137 11.883000374 4.0000000000 27.000000000 7270.0000000 1.0000000000
 1619.2500000 14.402999878 11.647999763 4.0000000000 27.000000000 7270.0000000 1.0000000000
 1619.3750000 14.522999763 11.366999626 4.0000000000 27.000000000 7270.0000000 1.0000000000
 1619.5000000 14.569999695 11.060999870 4.0000000000 27.000000000 7270.0000000 1.0000000000
 1619.6250000 14.625000000 10.498999596 4.0000000000 27.000000000 7270.0000000 1.0000000000
 1619.7500000 14.711999893 9.9379997253 4.0000000000 27.000000000 7270.0000000 1.0000000000
 1619.8750000 14.770000458 9.4429998398 4.0000000000 27.000000000 7270.0000000 1.0000000000
 1620.0000000 14.828000069 9.0430002213 4.0000000000 27.000000000 7270.0000000 1.0000000000
 1620.1250000 14.921999931 8.6940002441 4.0000000000 27.000000000 7270.0000000 1.0000000000
 1620.2500000 15.017000198 8.5069999695 4.0000000000 27.000000000 7270.0000000 1.0000000000
 1620.3750000 15.192000389 8.2309999466 4.0000000000 27.000000000 7270.0000000 1.0000000000
 1620.5000000 15.460000038 7.9520001411 4.0000000000 27.000000000 7270.0000000 1.0000000000
 1620.6250000 23.375000000 7.6519999504 4.0000000000 27.000000000 7270.0000000 1.0000000000
 1620.7500000 25.136999130 7.4860000610 4.0000000000 27.000000000 7270.0000000 1.0000000000
 1620.8750000 25.743000031 7.3649997711 4.0000000000 27.000000000 7270.0000000 1.0000000000
 1621.0000000 26.194999695 7.2690000534 4.0000000000 27.000000000 7270.0000000 1.0000000000
 1621.1250000 26.645999908 7.1840000153 4.0000000000 27.000000000 7270.0000000 1.0000000000
 1621.2500000 26.924999237 6.9949998856 4.0000000000 27.000000000 7270.0000000 1.0000000000
 1621.3750000 27.181999207 6.8899998665 4.0000000000 27.000000000 7270.0000000 1.0000000000
 1621.5000000 27.375000000 6.7600002289 4.0000000000 27.000000000 7270.0000000 1.0000000000
 1621.6250000 27.533000946 6.6449999809 4.0000000000 27.000000000 7270.0000000 1.0000000000
 1621.7500000 27.701999664 6.5469999313 4.0000000000 27.000000000 7270.0000000 1.0000000000
 1621.8750000 27.877000809 6.4580001831 4.0000000000 27.000000000 7270.0000000 1.0000000000
 1622.0000000 27.979000092 6.3740000725 4.0000000000 27.000000000 7270.0000000 1.0000000000
 1622.1250000 28.125999451 6.3540000916 4.0000000000 27.000000000 7270.0000000 1.0000000000
 1622.2500000 28.292999268 6.3439998627 4.0000000000 27.000000000 7270.0000000 1.0000000000
 1622.3750000 28.513000488 6.2859997749 4.0000000000 27.000000000 7270.0000000 1.0000000000
 1622.5000000 28.813999176 6.2760000229 4.0000000000 27.000000000 7270.0000000 1.0000000000
 1622.6250000 29.114999771 6.2709999084 4.0000000000 27.000000000 7270.0000000 1.0000000000
 1622.7500000 29.454000473 6.2239999771 4.0000000000 27.000000000 7270.0000000 1.0000000000
 1622.8750000 29.982000351 6.2059998512 4.0000000000 27.000000000 7270.0000000 1.0000000000
 1623.0000000 30.528999329 6.1999998093 4.0000000000 27.000000000 7270.0000000 1.0000000000
 1623.1250000 31.086999893 6.1970000267 4.0000000000 27.000000000 7270.0000000 1.0000000000
 1623.2500000 31.879999161 6.1339998245 4.0000000000 27.000000000 7270.0000000 1.0000000000
 1623.3750000 32.715999603 6.1300001144 4.0000000000 27.000000000 7270.0000000 1.0000000000
 1623.5000000 33.359001160 6.1269998550 4.0000000000 27.000000000 7270.0000000 1.0000000000
 1623.6250000 34.555000305 6.1240000725 4.0000000000 27.000000000 7270.0000000 1.0000000000
 1623.7500000 35.740001678 6.1209998131 4.0000000000 27.000000000 7270.0000000 1.0000000000
 1623.8750000 37.208999634 6.1180000305 4.0000000000 27.000000000 7270.0000000 1.0000000000
