# LAS format log file from PETREL
# Project units are specified as depth units
#==================================================================
~Version information
VERS.   2.0:
WRAP.   NO:
#==================================================================
~Well
STRT .m      1338.0000000 :
STOP .m      1710.0000000 :
STEP .m     0.12500000 :
NULL .        -999.250000 :
COMP.           : COMPANY
WELL.  5-0162C2   : WELL
FLD.            : FIELD
LOC.            : LOCATION
SRVC.           : SERVICE COMPANY
DATE.  2020-03-08 09:25:09   : Log Export Date {yyyy-MM-dd HH:mm:ss}
PROV.           : PROVINCE
UWI.      : UNIQUE WELL ID
API.            : API NUMBER
#==================================================================
~Curve
DEPT .m                   : DEPTH
RT .ohm.m                 : RT
SP .                      : SP
Fluids .                  : Fluids
POR .m3/m3                : POR
PERM .mD                  : PERM
Lith .                    : Lith
~Parameter
#==================================================================
~Ascii
# ...
 1631.6250000 26.520000458 -73.05000305 2.0000000000 18.000000000 217.00000000 1.0000000000
 1631.7500000 25.719999313 -72.98999786 2.0000000000 18.000000000 217.00000000 1.0000000000
 1631.8750000 25.329999924 -72.87000275 2.0000000000 18.000000000 217.00000000 1.0000000000
 1632.0000000 25.420000076 -72.72000122 2.0000000000 18.000000000 217.00000000 1.0000000000
 1632.1250000 25.920000076 -72.58000183 2.0000000000 18.000000000 217.00000000 1.0000000000
 1632.2500000 26.870000839 -72.47000122 2.0000000000 18.000000000 217.00000000 1.0000000000
 1632.3750000 27.909999847 -72.38999939 2.0000000000 18.000000000 217.00000000 1.0000000000
 1632.5000000 28.450000763 -72.33000183 2.0000000000 18.000000000 217.00000000 1.0000000000
 1632.6250000 28.319999695 -72.30000305 2.0000000000 18.000000000 217.00000000 1.0000000000
 1632.7500000 27.959999084 -72.30999756 2.0000000000 18.000000000 217.00000000 1.0000000000
 1632.8750000 27.290000916 -72.31999969 2.0000000000 18.000000000 217.00000000 1.0000000000
 1633.0000000 25.739999771 -72.33000183 2.0000000000 18.000000000 217.00000000 1.0000000000
 1633.1250000 23.510000229 -72.34999847 2.0000000000 18.000000000 217.00000000 1.0000000000
 1633.2500000 21.409999847 -72.38999939 2.0000000000 18.000000000 217.00000000 1.0000000000
 1633.3750000 20.200000763 -72.45999908 2.0000000000 18.000000000 217.00000000 1.0000000000
 1633.5000000 20.100000381 -72.55999756 2.0000000000 18.000000000 217.00000000 1.0000000000
 1633.6250000 21.290000916 -72.66000366 2.0000000000 18.000000000 217.00000000 1.0000000000
 1633.7500000 23.690000534 -72.75000000 2.0000000000 18.000000000 217.00000000 1.0000000000
 1633.8750000 26.700000763 -72.81999969 2.0000000000 18.000000000 217.00000000 1.0000000000
 1634.0000000 29.649999619 -72.84999847 2.0000000000 18.000000000 217.00000000 1.0000000000
 1634.1250000 31.420000076 -72.79000092 2.0000000000 18.000000000 217.00000000 1.0000000000
 1634.2500000 31.920000076 -72.65000153 2.0000000000 18.000000000 217.00000000 1.0000000000
 1634.3750000 31.000000000 -72.44000244 2.0000000000 18.000000000 217.00000000 1.0000000000
 1634.5000000 29.799999237 -72.16999817 2.0000000000 18.000000000 217.00000000 1.0000000000
 1634.6250000 28.549999237 -71.87000275 2.0000000000 18.000000000 217.00000000 1.0000000000
 1634.7500000 27.750000000 -71.55999756 2.0000000000 18.000000000 217.00000000 1.0000000000
 1634.8750000 27.280000687 -71.25000000 2.0000000000 18.000000000 217.00000000 1.0000000000
 1635.0000000 27.280000687 -70.93000031 2.0000000000 18.000000000 217.00000000 1.0000000000
 1635.1250000 27.750000000 -70.54000092 2.0000000000 18.000000000 217.00000000 1.0000000000
 1635.2500000 28.549999237 -70.05999756 2.0000000000 18.000000000 217.00000000 1.0000000000
 1635.3750000 29.420000076 -69.45999908 2.0000000000 18.000000000 217.00000000 1.0000000000
 1635.5000000 29.969999313 -68.70999908 2.0000000000 18.000000000 217.00000000 1.0000000000
 1635.6250000 29.979999542 -67.77999878 2.0000000000 18.000000000 217.00000000 1.0000000000
 1635.7500000 29.489999771 -66.65000153 2.0000000000 18.000000000 217.00000000 1.0000000000
 1635.8750000 28.489999771 -65.30999756 2.0000000000 18.000000000 217.00000000 1.0000000000
 1636.0000000 26.190000534 -63.79999924 2.0000000000 18.000000000 217.00000000 1.0000000000
 1636.1250000 22.250000000 -62.13999939 2.0000000000 18.000000000 217.00000000 1.0000000000
 1636.2500000 17.600000381 -60.40000153 2.0000000000 18.000000000 217.00000000 1.0000000000
 1636.3750000 13.420000076 -58.65000153 2.0000000000 18.000000000 217.00000000 1.0000000000
 1636.5000000 10.260000229 -57.02999878 2.0000000000 18.000000000 217.00000000 1.0000000000
 1636.6250000 7.8200001717 -55.68999863  -999.250000 0.1000000015 0.1000000015 0.0000000000
 1636.7500000 6.2500000000 -54.70999908  -999.250000 0.1000000015 0.1000000015 0.0000000000
 1636.8750000 5.5300002098 -54.15999985  -999.250000 0.1000000015 0.1000000015 0.0000000000
 1637.0000000 5.2800002098 -54.04999924  -999.250000 0.1000000015 0.1000000015 0.0000000000
 1637.1250000 5.2300000191 -54.38999939  -999.250000 0.1000000015 0.1000000015 0.0000000000
 1637.2500000 5.4000000954 -55.13999939  -999.250000 0.1000000015 0.1000000015 0.0000000000
 1637.3750000 5.9899997711 -56.22000122  -999.250000 0.1000000015 0.1000000015 0.0000000000
 1637.5000000 7.4000000954 -57.50000000 3.0000000000 15.000000000 163.00000000 1.0000000000
 1637.6250000 10.100000381 -58.84999847 3.0000000000 15.000000000 163.00000000 1.0000000000
 1637.7500000 13.859999657 -60.20999908 3.0000000000 15.000000000 163.00000000 1.0000000000
 1637.8750000 17.579999924 -61.54000092 3.0000000000 15.000000000 163.00000000 1.0000000000
 1638.0000000 19.739999771 -62.83000183 3.0000000000 15.000000000 163.00000000 1.0000000000
 1638.1250000 19.850000381 -64.02999878 3.0000000000 15.000000000 163.00000000 1.0000000000
 1638.2500000 19.219999313 -65.12999725 3.0000000000 15.000000000 163.00000000 1.0000000000
 1638.3750000 20.059999466 -66.13999939 3.0000000000 15.000000000 163.00000000 1.0000000000
 1638.5000000 23.920000076 -67.09999847 4.0000000000 16.000000000 137.00000000 1.0000000000
 1638.6250000 30.959999084 -68.05999756 4.0000000000 16.000000000 137.00000000 1.0000000000
 1638.7500000 41.259998322 -69.01000214 4.0000000000 16.000000000 137.00000000 1.0000000000
 1638.8750000 51.919998169 -69.88999939 4.0000000000 16.000000000 137.00000000 1.0000000000
 1639.0000000 58.580001831 -70.68000031 4.0000000000 16.000000000 137.00000000 1.0000000000
 1639.1250000 58.709999084 -71.34999847 4.0000000000 16.000000000 137.00000000 1.0000000000
 1639.2500000 54.349998474 -71.86000061 4.0000000000 16.000000000 137.00000000 1.0000000000
 1639.3750000 49.520000458 -72.19999695 4.0000000000 16.000000000 137.00000000 1.0000000000
 1639.5000000 45.569999695 -72.34999847 4.0000000000 16.000000000 137.00000000 1.0000000000
 1639.6250000 41.560001373 -72.31999969 4.0000000000 16.000000000 137.00000000 1.0000000000
 1639.7500000 37.000000000 -72.16000366 4.0000000000 16.000000000 137.00000000 1.0000000000
 1639.8750000 31.879999161 -71.90000153 4.0000000000 16.000000000 137.00000000 1.0000000000
 1640.0000000 27.370000839 -71.58999634 4.0000000000 16.000000000 137.00000000 1.0000000000
 1640.1250000 24.170000076 -71.26000214 4.0000000000 16.000000000 137.00000000 1.0000000000
 1640.2500000 22.489999771 -70.94999695 4.0000000000 16.000000000 137.00000000 1.0000000000
 1640.3750000 22.000000000 -70.65000153 4.0000000000 16.000000000 137.00000000 1.0000000000
 1640.5000000 21.850000381 -70.37000275 4.0000000000 16.000000000 137.00000000 1.0000000000
 1640.6250000 21.270000458 -70.11000061 4.0000000000 16.000000000 137.00000000 1.0000000000
 1640.7500000 20.340000153 -69.86000061 4.0000000000 16.000000000 137.00000000 1.0000000000
 1640.8750000 19.420000076 -69.63999939 4.0000000000 16.000000000 137.00000000 1.0000000000
 1641.0000000 18.770000458 -69.45999908 4.0000000000 16.000000000 137.00000000 1.0000000000
 1641.1250000 18.680000305 -69.27999878 4.0000000000 16.000000000 137.00000000 1.0000000000
 1641.2500000 19.889999390 -69.08999634 4.0000000000 16.000000000 137.00000000 1.0000000000
 1641.3750000 22.790000916 -68.90000153 4.0000000000 16.000000000 137.00000000 1.0000000000
 1641.5000000 26.309999466 -68.70999908 4.0000000000 16.000000000 137.00000000 1.0000000000
 1641.6250000 28.799999237 -68.48000336 4.0000000000 16.000000000 137.00000000 1.0000000000
 1641.7500000 29.200000763 -68.16999817 4.0000000000 16.000000000 137.00000000 1.0000000000
 1641.8750000 27.219999313 -67.76999664 4.0000000000 16.000000000 137.00000000 1.0000000000
 1642.0000000 23.379999161 -67.27999878 3.0000000000 15.000000000 100.00000000 1.0000000000
 1642.1250000 19.139999390 -66.72000122 3.0000000000 15.000000000 100.00000000 1.0000000000
 1642.2500000 16.120000839 -66.11000061 3.0000000000 15.000000000 100.00000000 1.0000000000
 1642.3750000 14.779999733 -65.43000031 3.0000000000 15.000000000 100.00000000 1.0000000000
