# LAS format log file from PETREL
# Project units are specified as depth units
#==================================================================
~Version information
VERS.   2.0:
WRAP.   NO:
#==================================================================
~Well
STRT .m      1338.0000000 :
STOP .m      1710.0000000 :
STEP .m     0.12500000 :
NULL .        -999.250000 :
COMP.           : COMPANY
WELL.  5-0162C2   : WELL
FLD.            : FIELD
LOC.            : LOCATION
SRVC.           : SERVICE COMPANY
DATE.  2020-03-08 09:25:09   : Log Export Date {yyyy-MM-dd HH:mm:ss}
PROV.           : PROVINCE
UWI.      : UNIQUE WELL ID
API.            : API NUMBER
#==================================================================
~Curve
DEPT .m                   : DEPTH
RT .ohm.m                 : RT
SP .                      : SP
Fluids .                  : Fluids
POR .m3/m3                : POR
PERM .mD                  : PERM
Lith .                    : Lith
~Parameter
#==================================================================
~Ascii
# ...
 1664.2500000 3.8900001049 -41.09999847  -999.250000 0.1000000015 0.1000000015 0.0000000000
 1664.3750000 3.6500000954 -40.91999817  -999.250000 0.1000000015 0.1000000015 0.0000000000
 1664.5000000 3.3800001144 -40.75999832  -999.250000 0.1000000015 0.1000000015 0.0000000000
 1664.6250000 3.3399999142 -40.65999985  -999.250000 0.1000000015 0.1000000015 0.0000000000
 1664.7500000 3.7599999905 -40.66999817  -999.250000 0.1000000015 0.1000000015 0.0000000000
 1664.8750000 4.5000000000 -40.88000107  -999.250000 0.1000000015 0.1000000015 0.0000000000
 1665.0000000 5.1900000572 -41.27000046  -999.250000 0.1000000015 0.1000000015 0.0000000000
 1665.1250000 5.5100002289 -41.70000076  -999.250000 0.1000000015 0.1000000015 0.0000000000
 1665.2500000 5.3299999237 -42.13999939  -999.250000 0.1000000015 0.1000000015 0.0000000000
 1665.3750000 4.7899999619 -42.63000107  -999.250000 0.1000000015 0.1000000015 0.0000000000
 1665.5000000 4.2199997902 -43.15000153  -999.250000 0.1000000015 0.1000000015 0.0000000000
 1665.6250000 3.9800000191 -43.72000122  -999.250000 0.1000000015 0.1000000015 0.0000000000
 1665.7500000 4.3800001144 -44.29999924  -999.250000 0.1000000015 0.1000000015 0.0000000000
 1665.8750000 5.5799999237 -44.88999939  -999.250000 0.1000000015 0.1000000015 0.0000000000
 1666.0000000 7.6999998093 -45.41999817 3.0000000000 16.000000000 180.00000000 1.0000000000
 1666.1250000 10.300000191 -45.81999969 3.0000000000 16.000000000 180.00000000 1.0000000000
 1666.2500000 12.170000076 -45.97999954 3.0000000000 16.000000000 180.00000000 1.0000000000
 1666.3750000 12.340000153 -45.83000183 3.0000000000 16.000000000 180.00000000 1.0000000000
 1666.5000000 10.699999809 -45.38000107 3.0000000000 16.000000000 180.00000000 1.0000000000
 1666.6250000 8.4099998474 -44.70999908  -999.250000 0.1000000015 0.1000000015 0.0000000000
 1666.7500000 6.3000001907 -43.97000122  -999.250000 0.1000000015 0.1000000015 0.0000000000
 1666.8750000 4.8200001717 -43.29000092  -999.250000 0.1000000015 0.1000000015 0.0000000000
 1667.0000000 3.9200000763 -42.79000092  -999.250000 0.1000000015 0.1000000015 0.0000000000
 1667.1250000 3.4200000763 -42.54999924  -999.250000 0.1000000015 0.1000000015 0.0000000000
 1667.2500000 3.2300000191 -42.65000153  -999.250000 0.1000000015 0.1000000015 0.0000000000
 1667.3750000 3.5000000000 -43.09000015  -999.250000 0.1000000015 0.1000000015 0.0000000000
 1667.5000000 4.5300002098 -43.79000092  -999.250000 0.1000000015 0.1000000015 0.0000000000
 1667.6250000 6.1399998665 -44.58000183  -999.250000 0.1000000015 0.1000000015 0.0000000000
 1667.7500000 8.1400003433 -45.36999893 3.0000000000 12.000000000 99.000000000 1.0000000000
 1667.8750000 9.8999996185 -46.06999969 3.0000000000 12.000000000 99.000000000 1.0000000000
 1668.0000000 10.760000229 -46.63999939 3.0000000000 12.000000000 99.000000000 1.0000000000
 1668.1250000 10.060000420 -47.02000046 3.0000000000 12.000000000 99.000000000 1.0000000000
 1668.2500000 8.3599996567 -47.20000076 3.0000000000 12.000000000 99.000000000 1.0000000000
 1668.3750000 6.7600002289 -47.25000000 3.0000000000 12.000000000 99.000000000 1.0000000000
 1668.5000000 5.9499998093 -47.27000046 0.0000000000 6.0000000000 9.0000000000 1.0000000000
 1668.6250000 5.9499998093 -47.31000137 0.0000000000 6.0000000000 9.0000000000 1.0000000000
 1668.7500000 6.4099998474 -47.40999985 0.0000000000 6.0000000000 9.0000000000 1.0000000000
 1668.8750000 6.8800001144 -47.52000046 0.0000000000 6.0000000000 9.0000000000 1.0000000000
 1669.0000000 7.0900001526 -47.63000107 0.0000000000 6.0000000000 9.0000000000 1.0000000000
 1669.1250000 7.1799998283 -47.72999954 0.0000000000 6.0000000000 9.0000000000 1.0000000000
 1669.2500000 7.4299998283 -47.79999924 0.0000000000 6.0000000000 9.0000000000 1.0000000000
 1669.3750000 7.6199998856 -47.83000183 0.0000000000 6.0000000000 9.0000000000 1.0000000000
 1669.5000000 7.4400000572 -47.79999924 0.0000000000 6.0000000000 9.0000000000 1.0000000000
 1669.6250000 7.0500001907 -47.70000076 0.0000000000 6.0000000000 9.0000000000 1.0000000000
 1669.7500000 6.5599999428 -47.59000015 0.0000000000 6.0000000000 9.0000000000 1.0000000000
 1669.8750000 6.0300002098 -47.54999924 0.0000000000 6.0000000000 9.0000000000 1.0000000000
 1670.0000000 5.4499998093 -47.65000153  -999.250000 0.1000000015 0.1000000015 0.0000000000
 1670.1250000 5.1300001144 -47.91999817  -999.250000 0.1000000015 0.1000000015 0.0000000000
 1670.2500000 5.3200001717 -48.38999939  -999.250000 0.1000000015 0.1000000015 0.0000000000
 1670.3750000 6.0999999046 -49.06999969  -999.250000 0.1000000015 0.1000000015 0.0000000000
 1670.5000000 7.5000000000 -49.90000153 3.0000000000 17.000000000 285.00000000 1.0000000000
 1670.6250000 9.3900003433 -50.77000046 3.0000000000 17.000000000 285.00000000 1.0000000000
 1670.7500000 11.319999695 -51.56999969 3.0000000000 17.000000000 285.00000000 1.0000000000
 1670.8750000 12.489999771 -52.20999908 3.0000000000 17.000000000 285.00000000 1.0000000000
 1671.0000000 12.560000420 -52.63000107 3.0000000000 17.000000000 285.00000000 1.0000000000
 1671.1250000 11.909999847 -52.79000092 3.0000000000 17.000000000 285.00000000 1.0000000000
 1671.2500000 11.460000038 -52.72000122 3.0000000000 17.000000000 285.00000000 1.0000000000
 1671.3750000 11.500000000 -52.45000076 3.0000000000 17.000000000 285.00000000 1.0000000000
 1671.5000000 11.449999809 -52.06999969 3.0000000000 17.000000000 285.00000000 1.0000000000
 1671.6250000 10.810000420 -51.65999985 3.0000000000 17.000000000 285.00000000 1.0000000000
 1671.7500000 9.4499998093 -51.33000183 3.0000000000 17.000000000 285.00000000 1.0000000000
 1671.8750000 8.0399999619 -51.13999939 3.0000000000 17.000000000 285.00000000 1.0000000000
 1672.0000000 7.0100002289 -51.09000015 3.0000000000 17.000000000 285.00000000 1.0000000000
 1672.1250000 6.8000001907 -51.16999817 0.0000000000 12.000000000 64.000000000 1.0000000000
 1672.2500000 7.1500000954 -51.34000015 0.0000000000 12.000000000 64.000000000 1.0000000000
 1672.3750000 7.6300001144 -51.59999847 0.0000000000 12.000000000 64.000000000 1.0000000000
 1672.5000000 7.7699999809 -51.90999985 0.0000000000 12.000000000 64.000000000 1.0000000000
 1672.6250000 7.6300001144 -52.27999878 0.0000000000 12.000000000 64.000000000 1.0000000000
 1672.7500000 7.5500001907 -52.66999817 0.0000000000 12.000000000 64.000000000 1.0000000000
 1672.8750000 7.9600000381 -53.04999924 0.0000000000 12.000000000 64.000000000 1.0000000000
 1673.0000000 9.2100000381 -53.40999985 3.0000000000 23.000000000 607.00000000 1.0000000000
 1673.1250000 11.100000381 -53.75999832 3.0000000000 23.000000000 607.00000000 1.0000000000
 1673.2500000 12.600000381 -54.09999847 3.0000000000 23.000000000 607.00000000 1.0000000000
 1673.3750000 12.800000191 -54.40000153 3.0000000000 23.000000000 607.00000000 1.0000000000
 1673.5000000 11.890000343 -54.58000183 3.0000000000 23.000000000 607.00000000 1.0000000000
 1673.6250000 10.880000114 -54.63000107 3.0000000000 23.000000000 607.00000000 1.0000000000
 1673.7500000 10.460000038 -54.56000137 3.0000000000 23.000000000 607.00000000 1.0000000000
 1673.8750000 10.689999580 -54.38000107 3.0000000000 23.000000000 607.00000000 1.0000000000
 1674.0000000 11.539999962 -54.06000137 3.0000000000 23.000000000 607.00000000 1.0000000000
 1674.1250000 12.779999733 -53.59999847 3.0000000000 23.000000000 607.00000000 1.0000000000
 1674.2500000 13.970000267 -52.99000168 3.0000000000 23.000000000 607.00000000 1.0000000000
 1674.3750000 14.529999733 -52.20999908 3.0000000000 23.000000000 607.00000000 1.0000000000
 1674.5000000 13.810000420 -51.25999832 3.0000000000 23.000000000 607.00000000 1.0000000000
 1674.6250000 11.720000267 -50.20000076 3.0000000000 23.000000000 607.00000000 1.0000000000
 1674.7500000 9.1000003815 -49.13000107 3.0000000000 23.000000000 607.00000000 1.0000000000
 1674.8750000 6.9299998283 -48.11999893  -999.250000 0.1000000015 0.1000000015 0.0000000000
 1675.0000000 5.5199999809 -47.20999908  -999.250000 0.1000000015 0.1000000015 0.0000000000
