# LAS format log file from PETREL
# Project units are specified as depth units
#==================================================================
~Version information
VERS.   2.0:
WRAP.   NO:
#==================================================================
~Well
STRT .m      1510.0000000 :
STOP .m      1750.0000000 :
STEP .m     0.12500000 :
NULL .        -999.250000 :
COMP.           : COMPANY
WELL.  5-0165C   : WELL
FLD.            : FIELD
LOC.            : LOCATION
SRVC.           : SERVICE COMPANY
DATE.  2020-03-08 09:25:09   : Log Export Date {yyyy-MM-dd HH:mm:ss}
PROV.           : PROVINCE
UWI.      : UNIQUE WELL ID
API.            : API NUMBER
#==================================================================
~Curve
DEPT .m                   : DEPTH
RT .ohm.m                 : RT
SP .                      : SP
Fluids .                  : Fluids
POR .m3/m3                : POR
PERM .mD                  : PERM
Lith .                    : Lith
~Parameter
#==================================================================
~Ascii
# ...
 1607.8750000 17.292999268 21.028999329 4.0000000000 26.000000000 4026.0000000 1.0000000000
 1608.0000000 17.908000946 21.028999329 4.0000000000 26.000000000 4026.0000000 1.0000000000
 1608.1250000 18.489000320 20.997999191 4.0000000000 26.000000000 4026.0000000 1.0000000000
 1608.2500000 19.382999420 20.927000046 4.0000000000 26.000000000 4026.0000000 1.0000000000
 1608.3750000 20.285999298 20.847999573 4.0000000000 26.000000000 4026.0000000 1.0000000000
 1608.5000000 21.020000458 20.753000259 4.0000000000 26.000000000 4026.0000000 1.0000000000
 1608.6250000 20.361000061 20.648000717 4.0000000000 26.000000000 4026.0000000 1.0000000000
 1608.7500000 18.073999405 20.527999878 4.0000000000 26.000000000 4026.0000000 1.0000000000
 1608.8750000 15.482999802 20.389999390 4.0000000000 26.000000000 4026.0000000 1.0000000000
 1609.0000000 15.496999741 20.245000839 4.0000000000 26.000000000 4026.0000000 1.0000000000
 1609.1250000 15.887000084 20.104000092 4.0000000000 26.000000000 4026.0000000 1.0000000000
 1609.2500000 16.482000351 19.962999344 4.0000000000 26.000000000 4026.0000000 1.0000000000
 1609.3750000 24.114000320 19.834999084 4.0000000000 26.000000000 4026.0000000 1.0000000000
 1609.5000000 26.885999680 19.631999969 4.0000000000 26.000000000 4026.0000000 1.0000000000
 1609.6250000 27.570999146 19.455999374 4.0000000000 26.000000000 4026.0000000 1.0000000000
 1609.7500000 28.068000793 19.309999466 4.0000000000 26.000000000 4026.0000000 1.0000000000
 1609.8750000 28.530000687 19.163999557 4.0000000000 26.000000000 4026.0000000 1.0000000000
 1610.0000000 28.840000153 18.989999771 4.0000000000 26.000000000 4026.0000000 1.0000000000
 1610.1250000 28.215999603 18.874000549 4.0000000000 26.000000000 4026.0000000 1.0000000000
 1610.2500000 27.488000870 18.663999557 4.0000000000 26.000000000 4026.0000000 1.0000000000
 1610.3750000 26.878999710 18.496000290 4.0000000000 26.000000000 4026.0000000 1.0000000000
 1610.5000000 26.209999084 18.351999283 4.0000000000 26.000000000 4026.0000000 1.0000000000
 1610.6250000 25.530000687 18.240999222 4.0000000000 26.000000000 4026.0000000 1.0000000000
 1610.7500000 24.684999466 18.173999786 4.0000000000 26.000000000 4026.0000000 1.0000000000
 1610.8750000 24.065000534 18.153999329 4.0000000000 26.000000000 4026.0000000 1.0000000000
 1611.0000000 23.600999832 18.179000854 4.0000000000 26.000000000 4026.0000000 1.0000000000
 1611.1250000 26.250000000 18.222999573 4.0000000000 26.000000000 4026.0000000 1.0000000000
 1611.2500000 28.959999084 18.284000397 4.0000000000 26.000000000 4026.0000000 1.0000000000
 1611.3750000 29.620000839 18.405000687 4.0000000000 26.000000000 4026.0000000 1.0000000000
 1611.5000000 29.017000198 18.493000031 4.0000000000 26.000000000 4026.0000000 1.0000000000
 1611.6250000 27.615999222 18.611000061 4.0000000000 26.000000000 4026.0000000 1.0000000000
 1611.7500000 26.179000854 18.716999054 4.0000000000 26.000000000 4026.0000000 1.0000000000
 1611.8750000 20.013000488 18.836999893 4.0000000000 26.000000000 4026.0000000 1.0000000000
 1612.0000000 19.018999100 18.958999634 4.0000000000 26.000000000 4026.0000000 1.0000000000
 1612.1250000 18.190000534 19.100999832 4.0000000000 26.000000000 4026.0000000 1.0000000000
 1612.2500000 16.211999893 19.284000397 4.0000000000 26.000000000 4026.0000000 1.0000000000
 1612.3750000 13.006999969 19.441999435 4.0000000000 26.000000000 4026.0000000 1.0000000000
 1612.5000000 11.628999710 19.622999191 4.0000000000 26.000000000 4026.0000000 1.0000000000
 1612.6250000 10.914999962 19.770000458 4.0000000000 26.000000000 4026.0000000 1.0000000000
 1612.7500000 11.008000374 19.923000336 4.0000000000 26.000000000 4026.0000000 1.0000000000
 1612.8750000 11.326000214 20.056999207 4.0000000000 26.000000000 4026.0000000 1.0000000000
 1613.0000000 12.005000114 20.163000107 4.0000000000 26.000000000 4026.0000000 1.0000000000
 1613.1250000 11.178000450 20.247999191 4.0000000000 26.000000000 4026.0000000 1.0000000000
 1613.2500000 7.6729998589 20.330999374 4.0000000000 26.000000000 4026.0000000 1.0000000000
 1613.3750000 7.6129999161 20.413000107  -999.250000 0.1000000015 0.1000000015 0.0000000000
 1613.5000000 7.9400000572 20.483999252 4.0000000000 24.000000000 2911.0000000 1.0000000000
 1613.6250000 8.5799999237 20.465999603 4.0000000000 24.000000000 2911.0000000 1.0000000000
 1613.7500000 9.9890003204 20.346000671 4.0000000000 24.000000000 2911.0000000 1.0000000000
 1613.8750000 15.260000229 20.145000458 4.0000000000 24.000000000 2911.0000000 1.0000000000
 1614.0000000 13.402999878 19.656999588 4.0000000000 24.000000000 2911.0000000 1.0000000000
 1614.1250000 12.225999832 19.197000504 4.0000000000 24.000000000 2911.0000000 1.0000000000
 1614.2500000 11.461000443 18.785999298 4.0000000000 24.000000000 2911.0000000 1.0000000000
 1614.3750000 11.644000053 18.429000854 4.0000000000 24.000000000 2911.0000000 1.0000000000
 1614.5000000 12.078000069 18.118999481 4.0000000000 24.000000000 2911.0000000 1.0000000000
 1614.6250000 13.614999771 17.870000839 4.0000000000 24.000000000 2911.0000000 1.0000000000
 1614.7500000 14.845000267 17.589000702 4.0000000000 24.000000000 2911.0000000 1.0000000000
 1614.8750000 13.772000313 17.368999481 4.0000000000 24.000000000 2911.0000000 1.0000000000
 1615.0000000 12.932999611 17.128999710 4.0000000000 24.000000000 2911.0000000 1.0000000000
 1615.1250000 11.970000267 16.993999481 4.0000000000 24.000000000 2911.0000000 1.0000000000
 1615.2500000 10.182999611 16.917999268 4.0000000000 24.000000000 2911.0000000 1.0000000000
 1615.3750000 9.1840000153 17.034000397 4.0000000000 24.000000000 2911.0000000 1.0000000000
 1615.5000000 9.4870004654 17.173999786 4.0000000000 24.000000000 2911.0000000 1.0000000000
 1615.6250000 14.251999855 17.177999496 4.0000000000 24.000000000 2911.0000000 1.0000000000
 1615.7500000 14.515000343 17.177999496 4.0000000000 24.000000000 2911.0000000 1.0000000000
 1615.8750000 14.881999969 17.115999222 4.0000000000 24.000000000 2911.0000000 1.0000000000
 1616.0000000 14.755999565 17.063999176 4.0000000000 24.000000000 2911.0000000 1.0000000000
 1616.1250000 14.496000290 17.059000015 4.0000000000 24.000000000 2911.0000000 1.0000000000
 1616.2500000 14.180000305 17.028999329 4.0000000000 24.000000000 2911.0000000 1.0000000000
 1616.3750000 14.321000099 16.995000839 4.0000000000 24.000000000 2911.0000000 1.0000000000
 1616.5000000 17.958999634 16.979999542 4.0000000000 24.000000000 2911.0000000 1.0000000000
 1616.6250000 20.402999878 16.978000641 4.0000000000 24.000000000 2911.0000000 1.0000000000
 1616.7500000 21.934000015 16.978000641 4.0000000000 24.000000000 2911.0000000 1.0000000000
 1616.8750000 21.569999695 16.940999985 4.0000000000 24.000000000 2911.0000000 1.0000000000
 1617.0000000 20.420000076 16.937000275 4.0000000000 24.000000000 2911.0000000 1.0000000000
 1617.1250000 18.551000595 16.937000275 4.0000000000 24.000000000 2911.0000000 1.0000000000
 1617.2500000 16.962999344 16.898000717 4.0000000000 24.000000000 2911.0000000 1.0000000000
 1617.3750000 13.753999710 16.936000824 4.0000000000 24.000000000 2911.0000000 1.0000000000
 1617.5000000 11.717000008 17.027999878 4.0000000000 24.000000000 2911.0000000 1.0000000000
 1617.6250000 10.175999641 17.194999695 4.0000000000 24.000000000 2911.0000000 1.0000000000
 1617.7500000 9.8409996033 17.350000381 4.0000000000 24.000000000 2911.0000000 1.0000000000
 1617.8750000 10.310000420 17.447999954 4.0000000000 24.000000000 2911.0000000 1.0000000000
 1618.0000000 13.489000320 17.482999802 4.0000000000 24.000000000 2911.0000000 1.0000000000
 1618.1250000 14.190999985 18.094999313 4.0000000000 24.000000000 2911.0000000 1.0000000000
 1618.2500000 14.694000244 18.412000656 4.0000000000 24.000000000 2911.0000000 1.0000000000
 1618.3750000 15.137000084 18.628000259 4.0000000000 24.000000000 2911.0000000 1.0000000000
 1618.5000000 15.630999565 18.829000473 4.0000000000 24.000000000 2911.0000000 1.0000000000
 1618.6250000 16.016000748 18.986999512 4.0000000000 24.000000000 2911.0000000 1.0000000000
