# LAS format log file from PETREL
# Project units are specified as depth units
#==================================================================
~Version information
VERS.   2.0:
WRAP.   NO:
#==================================================================
~Well
STRT .m      1510.0000000 :
STOP .m      1750.0000000 :
STEP .m     0.12500000 :
NULL .        -999.250000 :
COMP.           : COMPANY
WELL.  5-0165C   : WELL
FLD.            : FIELD
LOC.            : LOCATION
SRVC.           : SERVICE COMPANY
DATE.  2020-03-08 09:25:09   : Log Export Date {yyyy-MM-dd HH:mm:ss}
PROV.           : PROVINCE
UWI.      : UNIQUE WELL ID
API.            : API NUMBER
#==================================================================
~Curve
DEPT .m                   : DEPTH
RT .ohm.m                 : RT
SP .                      : SP
Fluids .                  : Fluids
POR .m3/m3                : POR
PERM .mD                  : PERM
Lith .                    : Lith
~Parameter
#==================================================================
~Ascii
# ...
 1618.7500000 16.291000366 19.170000076 4.0000000000 24.000000000 2911.0000000 1.0000000000
 1618.8750000 16.271999359 19.325000763 4.0000000000 24.000000000 2911.0000000 1.0000000000
 1619.0000000 15.487000465 19.500000000  -999.250000 0.1000000015 0.1000000015 0.0000000000
 1619.1250000 12.144000053 19.645000458  -999.250000 0.1000000015 0.1000000015 0.0000000000
 1619.2500000 10.199000359 19.833999634  -999.250000 0.1000000015 0.1000000015 0.0000000000
 1619.3750000 7.8709998131 20.028999329  -999.250000 0.1000000015 0.1000000015 0.0000000000
 1619.5000000 6.8090000153 20.173999786 4.0000000000 22.000000000 2153.0000000 1.0000000000
 1619.6250000 6.5560002327 20.284000397 4.0000000000 22.000000000 2153.0000000 1.0000000000
 1619.7500000 11.395000458 20.481000900 4.0000000000 22.000000000 2153.0000000 1.0000000000
 1619.8750000 12.690999985 20.658000946 4.0000000000 22.000000000 2153.0000000 1.0000000000
 1620.0000000 12.873000145 20.774000168 4.0000000000 22.000000000 2153.0000000 1.0000000000
 1620.1250000 12.484999657 20.718999863 4.0000000000 22.000000000 2153.0000000 1.0000000000
 1620.2500000 12.512000084 20.636999130 4.0000000000 22.000000000 2153.0000000 1.0000000000
 1620.3750000 13.100000381 20.520999908 4.0000000000 22.000000000 2153.0000000 1.0000000000
 1620.5000000 13.875000000 20.370000839 4.0000000000 22.000000000 2153.0000000 1.0000000000
 1620.6250000 14.574999809 20.169000626 4.0000000000 22.000000000 2153.0000000 1.0000000000
 1620.7500000 15.043999672 19.965999603 4.0000000000 22.000000000 2153.0000000 1.0000000000
 1620.8750000 15.430000305 19.732999802 4.0000000000 22.000000000 2153.0000000 1.0000000000
 1621.0000000 15.953000069 19.488000870 4.0000000000 22.000000000 2153.0000000 1.0000000000
 1621.1250000 16.507999420 19.187000275 4.0000000000 22.000000000 2153.0000000 1.0000000000
 1621.2500000 17.291999817 18.482999802 4.0000000000 22.000000000 2153.0000000 1.0000000000
 1621.3750000 17.996000290 17.617000580 4.0000000000 22.000000000 2153.0000000 1.0000000000
 1621.5000000 18.521999359 16.489000320 4.0000000000 22.000000000 2153.0000000 1.0000000000
 1621.6250000 16.799999237 15.552000046 4.0000000000 22.000000000 2153.0000000 1.0000000000
 1621.7500000 15.012000084 15.022000313 4.0000000000 22.000000000 2153.0000000 1.0000000000
 1621.8750000 14.269000053 14.694999695 4.0000000000 22.000000000 2153.0000000 1.0000000000
 1622.0000000 14.347999573 14.503000259 4.0000000000 22.000000000 2153.0000000 1.0000000000
 1622.1250000 14.994999886 14.343999863 4.0000000000 22.000000000 2153.0000000 1.0000000000
 1622.2500000 17.863000870 14.657999992 4.0000000000 22.000000000 2153.0000000 1.0000000000
 1622.3750000 18.093999863 14.994999886 4.0000000000 22.000000000 2153.0000000 1.0000000000
 1622.5000000 17.384000778 15.401000023 4.0000000000 22.000000000 2153.0000000 1.0000000000
 1622.6250000 12.673000336 15.753000259 4.0000000000 22.000000000 2153.0000000 1.0000000000
 1622.7500000 11.253000259 16.165000916 4.0000000000 22.000000000 2153.0000000 1.0000000000
 1622.8750000 10.090999603 16.638999939 4.0000000000 22.000000000 2153.0000000 1.0000000000
 1623.0000000 9.2690000534 17.159000397 4.0000000000 22.000000000 2153.0000000 1.0000000000
 1623.1250000 17.333999634 17.763999939 4.0000000000 22.000000000 2153.0000000 1.0000000000
 1623.2500000 20.573999405 18.129999161 4.0000000000 22.000000000 2153.0000000 1.0000000000
 1623.3750000 21.708999634 18.395000458 4.0000000000 22.000000000 2153.0000000 1.0000000000
 1623.5000000 21.924999237 18.527999878 4.0000000000 22.000000000 2153.0000000 1.0000000000
 1623.6250000 20.308000565 18.497999191 4.0000000000 22.000000000 2153.0000000 1.0000000000
 1623.7500000 18.617000580 18.489999771 4.0000000000 22.000000000 2153.0000000 1.0000000000
 1623.8750000 15.579999924 18.489000320 4.0000000000 22.000000000 2153.0000000 1.0000000000
 1624.0000000 13.550000191 18.517000198 4.0000000000 22.000000000 2153.0000000 1.0000000000
 1624.1250000 9.3039999008 18.525999069 4.0000000000 22.000000000 2153.0000000 1.0000000000
 1624.2500000 8.9010000229 18.604999542 4.0000000000 22.000000000 2153.0000000 1.0000000000
 1624.3750000 9.6999998093 18.666999817 4.0000000000 22.000000000 2153.0000000 1.0000000000
 1624.5000000 14.769000053 18.718999863 4.0000000000 22.000000000 2153.0000000 1.0000000000
 1624.6250000 16.625999451 18.725000381 4.0000000000 22.000000000 2153.0000000 1.0000000000
 1624.7500000 17.434000015 18.763000488 4.0000000000 22.000000000 2153.0000000 1.0000000000
 1624.8750000 17.913000107 18.708000183 4.0000000000 22.000000000 2153.0000000 1.0000000000
 1625.0000000 17.479999542 18.611000061 4.0000000000 22.000000000 2153.0000000 1.0000000000
 1625.1250000 14.710000038 18.472999573 4.0000000000 22.000000000 2153.0000000 1.0000000000
 1625.2500000 13.244000435 18.326999664 4.0000000000 22.000000000 2153.0000000 1.0000000000
 1625.3750000 13.211999893 18.150999069 4.0000000000 22.000000000 2153.0000000 1.0000000000
 1625.5000000 15.701999664 17.938999176 4.0000000000 22.000000000 2153.0000000 1.0000000000
 1625.6250000 17.336000443 17.736999512 4.0000000000 22.000000000 2153.0000000 1.0000000000
 1625.7500000 19.294000626 17.556999207 4.0000000000 22.000000000 2153.0000000 1.0000000000
 1625.8750000 20.547000885 17.329999924 4.0000000000 22.000000000 2153.0000000 1.0000000000
 1626.0000000 21.517999649 17.090000153 4.0000000000 22.000000000 2153.0000000 1.0000000000
 1626.1250000 22.073999405 16.878999710 4.0000000000 22.000000000 2153.0000000 1.0000000000
 1626.2500000 22.514999390 16.667999268 4.0000000000 22.000000000 2153.0000000 1.0000000000
 1626.3750000 21.378999710 16.503000259 4.0000000000 22.000000000 2153.0000000 1.0000000000
 1626.5000000 19.149000168 16.375999451 4.0000000000 22.000000000 2153.0000000 1.0000000000
 1626.6250000 18.358999252 16.281000137 4.0000000000 22.000000000 2153.0000000 1.0000000000
 1626.7500000 17.607000351 16.246000290 4.0000000000 22.000000000 2153.0000000 1.0000000000
 1626.8750000 16.700000763 16.274000168 4.0000000000 22.000000000 2153.0000000 1.0000000000
 1627.0000000 15.972999573 16.281000137 4.0000000000 22.000000000 2153.0000000 1.0000000000
 1627.1250000 16.028999329 16.283000946 4.0000000000 22.000000000 2153.0000000 1.0000000000
 1627.2500000 16.847000122 16.354999542 4.0000000000 22.000000000 2153.0000000 1.0000000000
 1627.3750000 17.767999649 16.399000168 4.0000000000 22.000000000 2153.0000000 1.0000000000
 1627.5000000 19.364999771 16.402000427 4.0000000000 22.000000000 2153.0000000 1.0000000000
 1627.6250000 20.111999512 16.440999985 4.0000000000 22.000000000 2153.0000000 1.0000000000
 1627.7500000 20.028999329 16.520999908 4.0000000000 22.000000000 2153.0000000 1.0000000000
 1627.8750000 19.804000854 16.625999451 4.0000000000 22.000000000 2153.0000000 1.0000000000
 1628.0000000 19.520000458 16.718999863 4.0000000000 22.000000000 2153.0000000 1.0000000000
 1628.1250000 19.180000305 16.847000122 4.0000000000 22.000000000 2153.0000000 1.0000000000
 1628.2500000 18.805000305 16.916000366 4.0000000000 22.000000000 2153.0000000 1.0000000000
 1628.3750000 18.868000031 16.996999741 4.0000000000 22.000000000 2153.0000000 1.0000000000
 1628.5000000 19.333999634 17.040000916 4.0000000000 22.000000000 2153.0000000 1.0000000000
 1628.6250000 20.077999115 17.070999146 4.0000000000 22.000000000 2153.0000000 1.0000000000
 1628.7500000 20.809000015 17.108999252 4.0000000000 22.000000000 2153.0000000 1.0000000000
 1628.8750000 21.767999649 17.180000305 4.0000000000 22.000000000 2153.0000000 1.0000000000
 1629.0000000 22.621999741 17.270999908 4.0000000000 22.000000000 2153.0000000 1.0000000000
 1629.1250000 21.087999344 17.375000000 4.0000000000 22.000000000 2153.0000000 1.0000000000
 1629.2500000 14.958999634 17.474000931 4.0000000000 22.000000000 2153.0000000 1.0000000000
 1629.3750000 13.170000076 17.537000656 4.0000000000 22.000000000 2153.0000000 1.0000000000
 1629.5000000 11.961000443 17.556999207 4.0000000000 22.000000000 2153.0000000 1.0000000000
