# LAS format log file from PETREL
# Project units are specified as depth units
#==================================================================
~Version information
VERS.   2.0:
WRAP.   NO:
#==================================================================
~Well
STRT .m      1350.0000000 :
STOP .m      1755.0000000 :
STEP .m     0.12500000 :
NULL .        -999.250000 :
COMP.           : COMPANY
WELL.  5-0165C2   : WELL
FLD.            : FIELD
LOC.            : LOCATION
SRVC.           : SERVICE COMPANY
DATE.  2020-03-08 09:25:09   : Log Export Date {yyyy-MM-dd HH:mm:ss}
PROV.           : PROVINCE
UWI.      : UNIQUE WELL ID
API.            : API NUMBER
#==================================================================
~Curve
DEPT .m                   : DEPTH
RT .ohm.m                 : RT
SP .                      : SP
Fluids .                  : Fluids
POR .m3/m3                : POR
PERM .mD                  : PERM
Lith .                    : Lith
~Parameter
#==================================================================
~Ascii
# ...
 1687.1250000 32.435001373 5.6539998055 3.0000000000 17.000000000 453.00000000 1.0000000000
 1687.2500000 33.025001526 7.3150000572 3.0000000000 17.000000000 453.00000000 1.0000000000
 1687.3750000 33.691001892 8.7829999924 3.0000000000 17.000000000 453.00000000 1.0000000000
 1687.5000000 34.856998444 9.7860002518 3.0000000000 17.000000000 453.00000000 1.0000000000
 1687.6250000 32.527000427 10.439999580 3.0000000000 17.000000000 453.00000000 1.0000000000
 1687.7500000 31.121999741 11.128999710 3.0000000000 17.000000000 453.00000000 1.0000000000
 1687.8750000 30.068000793 12.045000076 3.0000000000 17.000000000 453.00000000 1.0000000000
 1688.0000000 29.143999100 12.696999550 4.0000000000 22.000000000 2283.0000000 1.0000000000
 1688.1250000 28.908000946 13.171999931 4.0000000000 22.000000000 2283.0000000 1.0000000000
 1688.2500000 28.621999741 13.623000145 4.0000000000 22.000000000 2283.0000000 1.0000000000
 1688.3750000 28.549999237 14.060000420 4.0000000000 22.000000000 2283.0000000 1.0000000000
 1688.5000000 28.575000763 14.489000320 4.0000000000 22.000000000 2283.0000000 1.0000000000
 1688.6250000 28.674999237 14.720999718 4.0000000000 22.000000000 2283.0000000 1.0000000000
 1688.7500000 28.885999680 15.074000359 4.0000000000 22.000000000 2283.0000000 1.0000000000
 1688.8750000 29.194999695 15.479999542 4.0000000000 22.000000000 2283.0000000 1.0000000000
 1689.0000000 29.551000595 15.821999550 4.0000000000 22.000000000 2283.0000000 1.0000000000
 1689.1250000 29.864000320 16.163000107 4.0000000000 22.000000000 2283.0000000 1.0000000000
 1689.2500000 29.715000153 16.381000519 4.0000000000 22.000000000 2283.0000000 1.0000000000
 1689.3750000 29.332000732 16.580999374 4.0000000000 22.000000000 2283.0000000 1.0000000000
 1689.5000000 26.445999146 16.753000259 4.0000000000 22.000000000 2283.0000000 1.0000000000
 1689.6250000 24.135000229 16.908000946 4.0000000000 22.000000000 2283.0000000 1.0000000000
 1689.7500000 18.194999695 16.968999863 4.0000000000 22.000000000 2283.0000000 1.0000000000
 1689.8750000 14.663999557 16.885000229 4.0000000000 22.000000000 2283.0000000 1.0000000000
 1690.0000000 13.032999992 16.709999084 4.0000000000 22.000000000 2283.0000000 1.0000000000
 1690.1250000 12.305000305 16.461999893 4.0000000000 22.000000000 2283.0000000 1.0000000000
 1690.2500000 12.062999725 15.998000145 4.0000000000 22.000000000 2283.0000000 1.0000000000
 1690.3750000 11.781000137 15.704999924 4.0000000000 22.000000000 2283.0000000 1.0000000000
 1690.5000000 11.529999733 15.420000076 4.0000000000 22.000000000 2283.0000000 1.0000000000
 1690.6250000 11.482999802 15.069999695 4.0000000000 22.000000000 2283.0000000 1.0000000000
 1690.7500000 11.612000465 14.524999619 4.0000000000 22.000000000 2283.0000000 1.0000000000
 1690.8750000 14.791999817 13.977000237 4.0000000000 22.000000000 2283.0000000 1.0000000000
 1691.0000000 16.280000687 13.425999641 4.0000000000 22.000000000 2283.0000000 1.0000000000
 1691.1250000 14.791000366 12.982000351 4.0000000000 22.000000000 2283.0000000 1.0000000000
 1691.2500000 13.972999573 12.536999702 4.0000000000 22.000000000 2283.0000000 1.0000000000
 1691.3750000 13.154999733 11.991999626 4.0000000000 22.000000000 2283.0000000 1.0000000000
 1691.5000000 12.687999725 11.557999611 4.0000000000 22.000000000 2283.0000000 1.0000000000
 1691.6250000 12.293000221 11.069000244 4.0000000000 22.000000000 2283.0000000 1.0000000000
 1691.7500000 11.980999947 10.690999985 4.0000000000 22.000000000 2283.0000000 1.0000000000
 1691.8750000 11.637000084 10.291000366 4.0000000000 22.000000000 2283.0000000 1.0000000000
 1692.0000000 11.628999710 9.7880001068 4.0000000000 22.000000000 2283.0000000 1.0000000000
 1692.1250000 16.650999069 9.2460002899 4.0000000000 22.000000000 2283.0000000 1.0000000000
 1692.2500000 17.854999542 8.6949996948 4.0000000000 22.000000000 2283.0000000 1.0000000000
 1692.3750000 22.281000137 7.9310002327 4.0000000000 22.000000000 2283.0000000 1.0000000000
 1692.5000000 24.927000046 7.3740000725 4.0000000000 22.000000000 2283.0000000 1.0000000000
 1692.6250000 23.635000229 6.7449998856 4.0000000000 22.000000000 2283.0000000 1.0000000000
 1692.7500000 22.672000885 6.0799999237 4.0000000000 22.000000000 2283.0000000 1.0000000000
 1692.8750000 22.389999390 5.3010001183 4.0000000000 22.000000000 2283.0000000 1.0000000000
 1693.0000000 22.107999802 4.5440001488 4.0000000000 22.000000000 2283.0000000 1.0000000000
 1693.1250000 22.197000504 4.0809998512 4.0000000000 22.000000000 2283.0000000 1.0000000000
 1693.2500000 22.788000107 3.6400001049 4.0000000000 22.000000000 2283.0000000 1.0000000000
 1693.3750000 24.106000900 3.2119998932 4.0000000000 22.000000000 2283.0000000 1.0000000000
 1693.5000000 26.669000626 2.8710000515 4.0000000000 22.000000000 2283.0000000 1.0000000000
 1693.6250000 30.979000092 2.7139999866 4.0000000000 22.000000000 2283.0000000 1.0000000000
 1693.7500000 33.169998169 2.4130001068 4.0000000000 22.000000000 2283.0000000 1.0000000000
 1693.8750000 34.814998627 2.1280000210 4.0000000000 22.000000000 2283.0000000 1.0000000000
 1694.0000000 36.216999054 2.0020000935 4.0000000000 22.000000000 2283.0000000 1.0000000000
 1694.1250000 37.268001556 1.8689999580 4.0000000000 22.000000000 2283.0000000 1.0000000000
 1694.2500000 37.891998291 1.8450000286 4.0000000000 22.000000000 2283.0000000 1.0000000000
 1694.3750000 38.308998108 1.8359999657 4.0000000000 22.000000000 2283.0000000 1.0000000000
 1694.5000000 38.534999847 1.8350000381 4.0000000000 22.000000000 2283.0000000 1.0000000000
 1694.6250000 38.659999847 1.8370000124 4.0000000000 22.000000000 2283.0000000 1.0000000000
 1694.7500000 38.650001526 1.8380000591 4.0000000000 22.000000000 2283.0000000 1.0000000000
 1694.8750000 38.563999176 1.9700000286 4.0000000000 22.000000000 2283.0000000 1.0000000000
 1695.0000000 38.456001282 2.0329999924 4.0000000000 22.000000000 2283.0000000 1.0000000000
 1695.1250000 38.285999298 2.1440000534 4.0000000000 22.000000000 2283.0000000 1.0000000000
 1695.2500000 38.077999115 2.2760000229 4.0000000000 22.000000000 2283.0000000 1.0000000000
 1695.3750000 37.743999481 2.3750000000 4.0000000000 22.000000000 2283.0000000 1.0000000000
 1695.5000000 37.270000458 2.4709999561 4.0000000000 22.000000000 2283.0000000 1.0000000000
 1695.6250000 36.373001099 2.6770000458 4.0000000000 22.000000000 2283.0000000 1.0000000000
 1695.7500000 35.456001282 2.7969999313 4.0000000000 22.000000000 2283.0000000 1.0000000000
 1695.8750000 34.965000153 3.0120000839 4.0000000000 22.000000000 2283.0000000 1.0000000000
 1696.0000000 34.534000397 3.1349999905 4.0000000000 22.000000000 2283.0000000 1.0000000000
 1696.1250000 34.138000488 3.2690000534 4.0000000000 22.000000000 2283.0000000 1.0000000000
 1696.2500000 33.657001495 3.4449999332 4.0000000000 22.000000000 2283.0000000 1.0000000000
 1696.3750000 33.136001587 3.6819999218 4.0000000000 22.000000000 2283.0000000 1.0000000000
 1696.5000000 34.027999878 3.8829998970 4.0000000000 22.000000000 2283.0000000 1.0000000000
 1696.6250000 34.654998779 4.0749998093 4.0000000000 22.000000000 2283.0000000 1.0000000000
 1696.7500000 35.095001221 4.2649998665 4.0000000000 22.000000000 2283.0000000 1.0000000000
 1696.8750000 35.451999664 4.4549999237 4.0000000000 22.000000000 2283.0000000 1.0000000000
 1697.0000000 36.157001495 4.5510001183 4.0000000000 22.000000000 2283.0000000 1.0000000000
 1697.1250000 36.853000641 4.7940001488 4.0000000000 22.000000000 2283.0000000 1.0000000000
 1697.2500000 36.838001251 4.9369997978 4.0000000000 22.000000000 2283.0000000 1.0000000000
 1697.3750000 36.488998413 5.0780000687 4.0000000000 22.000000000 2283.0000000 1.0000000000
 1697.5000000 36.019001007 5.2199997902 4.0000000000 22.000000000 2283.0000000 1.0000000000
 1697.6250000 35.097000122 5.4720001221 4.0000000000 22.000000000 2283.0000000 1.0000000000
 1697.7500000 34.543998718 5.6979999542 4.0000000000 22.000000000 2283.0000000 1.0000000000
 1697.8750000 33.998001099 5.9250001907 4.0000000000 22.000000000 2283.0000000 1.0000000000
