# LAS format log file from PETREL
# Project units are specified as depth units
#==================================================================
~Version information
VERS.   2.0:
WRAP.   NO:
#==================================================================
~Well
STRT .m      1480.0000000 :
STOP .m      1820.0000000 :
STEP .m     0.12500000 :
NULL .        -999.250000 :
COMP.           : COMPANY
WELL.  5-0165   : WELL
FLD.            : FIELD
LOC.            : LOCATION
SRVC.           : SERVICE COMPANY
DATE.  2020-03-08 09:25:09   : Log Export Date {yyyy-MM-dd HH:mm:ss}
PROV.           : PROVINCE
UWI.      : UNIQUE WELL ID
API.            : API NUMBER
#==================================================================
~Curve
DEPT .m                   : DEPTH
RT .ohm.m                 : RT
SP .                      : SP
Fluids .                  : Fluids
POR .m3/m3                : POR
PERM .mD                  : PERM
Lith .                    : Lith
~Parameter
#==================================================================
~Ascii
# ...
 1664.8750000 3.9440000057 45.360000610 4.0000000000 21.000000000 1887.0000000 1.0000000000
 1665.0000000 3.4730000496 45.236000061 4.0000000000 21.000000000 1887.0000000 1.0000000000
 1665.1250000 3.2569999695 45.081001282 4.0000000000 21.000000000 1887.0000000 1.0000000000
 1665.2500000 3.1930000782 44.903999329 4.0000000000 21.000000000 1887.0000000 1.0000000000
 1665.3750000 3.6259999275 44.714000702 4.0000000000 21.000000000 1887.0000000 1.0000000000
 1665.5000000 4.2680001259 44.518001556 4.0000000000 21.000000000 1887.0000000 1.0000000000
 1665.6250000 4.8460001945 44.324001312 4.0000000000 21.000000000 1887.0000000 1.0000000000
 1665.7500000 4.9109997749 44.134998322 4.0000000000 21.000000000 1887.0000000 1.0000000000
 1665.8750000 4.8940000534 43.955001831 4.0000000000 21.000000000 1887.0000000 1.0000000000
 1666.0000000 4.9790000916 43.789001465 4.0000000000 21.000000000 1887.0000000 1.0000000000
 1666.1250000 5.2399997711 43.641998291 4.0000000000 21.000000000 1887.0000000 1.0000000000
 1666.2500000 5.2439999580 43.519001007 4.0000000000 21.000000000 1887.0000000 1.0000000000
 1666.3750000 5.4279999733 43.422000885 4.0000000000 21.000000000 1887.0000000 1.0000000000
 1666.5000000 5.3550000191 43.354000092 4.0000000000 21.000000000 1887.0000000 1.0000000000
 1666.6250000 5.2870001793 43.307998657 4.0000000000 21.000000000 1887.0000000 1.0000000000
 1666.7500000 5.3940000534 43.283000946 4.0000000000 21.000000000 1887.0000000 1.0000000000
 1666.8750000 5.5640001297 43.275001526 4.0000000000 21.000000000 1887.0000000 1.0000000000
 1667.0000000 5.7399997711 43.285999298 4.0000000000 21.000000000 1887.0000000 1.0000000000
 1667.1250000 5.8119997978 43.316001892 4.0000000000 21.000000000 1887.0000000 1.0000000000
 1667.2500000 5.8189997673 43.367000580 4.0000000000 21.000000000 1887.0000000 1.0000000000
 1667.3750000 5.7670001984 43.437000275 4.0000000000 21.000000000 1887.0000000 1.0000000000
 1667.5000000 5.6329998970 43.523998260 4.0000000000 21.000000000 1887.0000000 1.0000000000
 1667.6250000 5.4010000229 43.625000000 4.0000000000 21.000000000 1887.0000000 1.0000000000
 1667.7500000 5.0910000801 43.738998413 4.0000000000 21.000000000 1887.0000000 1.0000000000
 1667.8750000 4.9260001183 43.861999512 4.0000000000 21.000000000 1887.0000000 1.0000000000
 1668.0000000 4.8260002136 43.986999512 4.0000000000 21.000000000 1887.0000000 1.0000000000
 1668.1250000 4.6729998589 44.109001160 4.0000000000 21.000000000 1887.0000000 1.0000000000
 1668.2500000 4.5809998512 44.222999573 4.0000000000 21.000000000 1887.0000000 1.0000000000
 1668.3750000 4.6750001907 44.324001312 4.0000000000 21.000000000 1887.0000000 1.0000000000
 1668.5000000 4.7760000229 44.409999847 4.0000000000 21.000000000 1887.0000000 1.0000000000
 1668.6250000 4.7890000343 44.478000641 4.0000000000 21.000000000 1887.0000000 1.0000000000
 1668.7500000 4.6890001297 44.529998779 4.0000000000 21.000000000 1887.0000000 1.0000000000
 1668.8750000 4.5789999962 44.566001892 4.0000000000 21.000000000 1887.0000000 1.0000000000
 1669.0000000 4.3709998131 44.588001251 4.0000000000 21.000000000 1887.0000000 1.0000000000
 1669.1250000 4.1929998398 44.597000122 4.0000000000 21.000000000 1887.0000000 1.0000000000
 1669.2500000 4.1189999580 44.592998505 4.0000000000 21.000000000 1887.0000000 1.0000000000
 1669.3750000 4.1350002289 44.583000183 4.0000000000 21.000000000 1887.0000000 1.0000000000
 1669.5000000 4.2020001411 44.569000244 4.0000000000 21.000000000 1887.0000000 1.0000000000
 1669.6250000 4.3819999695 44.556999207 4.0000000000 21.000000000 1887.0000000 1.0000000000
 1669.7500000 4.6469998360 44.548999786 4.0000000000 21.000000000 1887.0000000 1.0000000000
 1669.8750000 4.8130002022 44.546001434 4.0000000000 21.000000000 1887.0000000 1.0000000000
 1670.0000000 4.9120001793 44.548999786 4.0000000000 21.000000000 1887.0000000 1.0000000000
 1670.1250000 4.9899997711 44.556999207 4.0000000000 21.000000000 1887.0000000 1.0000000000
 1670.2500000 5.0500001907 44.567001343 4.0000000000 21.000000000 1887.0000000 1.0000000000
 1670.3750000 4.8429999352 44.577999115 4.0000000000 21.000000000 1887.0000000 1.0000000000
 1670.5000000 4.3119997978 44.587001801 4.0000000000 21.000000000 1887.0000000 1.0000000000
 1670.6250000 3.8129999638 44.592998505 4.0000000000 21.000000000 1887.0000000 1.0000000000
 1670.7500000 3.5789999962 44.590000153 4.0000000000 21.000000000 1887.0000000 1.0000000000
 1670.8750000 3.7990000248 44.578998566 4.0000000000 21.000000000 1887.0000000 1.0000000000
 1671.0000000 4.3839998245 44.561000824 4.0000000000 21.000000000 1887.0000000 1.0000000000
 1671.1250000 5.1259999275 44.540000916 4.0000000000 21.000000000 1887.0000000 1.0000000000
 1671.2500000 5.8099999428 44.520999908 4.0000000000 21.000000000 1887.0000000 1.0000000000
 1671.3750000 6.0130000114 44.506999969 4.0000000000 21.000000000 1887.0000000 1.0000000000
 1671.5000000 5.9190001488 44.500000000 4.0000000000 21.000000000 1887.0000000 1.0000000000
 1671.6250000 5.5430002213 44.495998383 4.0000000000 21.000000000 1887.0000000 1.0000000000
 1671.7500000 4.9079999924 44.495998383 4.0000000000 21.000000000 1887.0000000 1.0000000000
 1671.8750000 4.5500001907 44.495998383 4.0000000000 21.000000000 1887.0000000 1.0000000000
 1672.0000000 4.2270002365 44.500000000 4.0000000000 21.000000000 1887.0000000 1.0000000000
 1672.1250000 3.7780001163 44.507999420 4.0000000000 21.000000000 1887.0000000 1.0000000000
 1672.2500000 3.3910000324 44.525001526 4.0000000000 21.000000000 1887.0000000 1.0000000000
 1672.3750000 3.2579998970 44.551998138 4.0000000000 21.000000000 1887.0000000 1.0000000000
 1672.5000000 3.1730000973 44.587001801 4.0000000000 21.000000000 1887.0000000 1.0000000000
 1672.6250000 3.1570000648 44.627998352 4.0000000000 21.000000000 1887.0000000 1.0000000000
 1672.7500000 3.3450000286 44.669998169 4.0000000000 21.000000000 1887.0000000 1.0000000000
 1672.8750000 3.6270000935 44.710998535 4.0000000000 21.000000000 1887.0000000 1.0000000000
 1673.0000000 4.0380001068 44.747001648 4.0000000000 21.000000000 1887.0000000 1.0000000000
 1673.1250000 4.4169998169 44.775001526 4.0000000000 21.000000000 1887.0000000 1.0000000000
 1673.2500000 4.7930002213 44.792999268 4.0000000000 21.000000000 1887.0000000 1.0000000000
 1673.3750000 5.0989999771 44.797000885 4.0000000000 21.000000000 1887.0000000 1.0000000000
 1673.5000000 5.3449997902 44.782001495 4.0000000000 21.000000000 1887.0000000 1.0000000000
 1673.6250000 5.7399997711 44.749000549 4.0000000000 21.000000000 1887.0000000 1.0000000000
 1673.7500000 6.1380000114 44.698001862 4.0000000000 21.000000000 1887.0000000 1.0000000000
 1673.8750000 6.4530000687 44.632999420 4.0000000000 21.000000000 1887.0000000 1.0000000000
 1674.0000000 6.6110000610 44.556999207 4.0000000000 21.000000000 1887.0000000 1.0000000000
 1674.1250000 6.5859999657 44.472999573 4.0000000000 21.000000000 1887.0000000 1.0000000000
 1674.2500000 6.3200001717 44.386001587 4.0000000000 21.000000000 1887.0000000 1.0000000000
 1674.3750000 5.8060002327 44.298000336 4.0000000000 21.000000000 1887.0000000 1.0000000000
 1674.5000000 5.5669999123 44.214000702 4.0000000000 21.000000000 1887.0000000 1.0000000000
 1674.6250000 5.4609999657 44.138000488 4.0000000000 21.000000000 1887.0000000 1.0000000000
 1674.7500000 5.4060001373 44.073001862 4.0000000000 21.000000000 1887.0000000 1.0000000000
 1674.8750000 5.6129999161 44.025001526 4.0000000000 21.000000000 1887.0000000 1.0000000000
 1675.0000000 5.8319997787 43.997001648 4.0000000000 21.000000000 1887.0000000 1.0000000000
 1675.1250000 6.0989999771 43.987998962 4.0000000000 21.000000000 1887.0000000 1.0000000000
 1675.2500000 6.4699997902 43.995998383 4.0000000000 21.000000000 1887.0000000 1.0000000000
 1675.3750000 6.8769998550 44.012001038 4.0000000000 21.000000000 1887.0000000 1.0000000000
 1675.5000000 7.7199997902 44.029998779 4.0000000000 21.000000000 1887.0000000 1.0000000000
 1675.6250000 8.6120004654 44.043998718 4.0000000000 21.000000000 1887.0000000 1.0000000000
