# LAS format log file from PETREL
# Project units are specified as depth units
#==================================================================
~Version information
VERS.   2.0:
WRAP.   NO:
#==================================================================
~Well
STRT .m      1420.0000000 :
STOP .m      1734.8750000 :
STEP .m     0.12500000 :
NULL .        -999.250000 :
COMP.           : COMPANY
WELL.  5-0161C   : WELL
FLD.            : FIELD
LOC.            : LOCATION
SRVC.           : SERVICE COMPANY
DATE.  2020-03-08 09:25:09   : Log Export Date {yyyy-MM-dd HH:mm:ss}
PROV.           : PROVINCE
UWI.      : UNIQUE WELL ID
API.            : API NUMBER
#==================================================================
~Curve
DEPT .m                   : DEPTH
RT .ohm.m                 : RT
SP .                      : SP
Fluids .                  : Fluids
POR .m3/m3                : POR
PERM .mD                  : PERM
Lith .                    : Lith
~Parameter
#==================================================================
~Ascii
# ...
 1681.0000000 56.219001770 -71.95700073 4.0000000000 22.000000000 2428.0000000 1.0000000000
 1681.1250000 56.812000275 -71.94200134 4.0000000000 22.000000000 2428.0000000 1.0000000000
 1681.2500000 58.345001221 -72.07099915 4.0000000000 22.000000000 2428.0000000 1.0000000000
 1681.3750000 60.561000824 -72.26799774 4.0000000000 22.000000000 2428.0000000 1.0000000000
 1681.5000000 62.687999725 -72.39199829 4.0000000000 22.000000000 2428.0000000 1.0000000000
 1681.6250000 64.445999146 -72.30300140 4.0000000000 22.000000000 2428.0000000 1.0000000000
 1681.7500000 65.955001831 -71.98899841 4.0000000000 22.000000000 2428.0000000 1.0000000000
 1681.8750000 67.069000244 -71.41699982 4.0000000000 22.000000000 2428.0000000 1.0000000000
 1682.0000000 64.193000793 -70.66300201 4.0000000000 22.000000000 2428.0000000 1.0000000000
 1682.1250000 56.909999847 -69.72299957 4.0000000000 22.000000000 2428.0000000 1.0000000000
 1682.2500000 48.373001099 -68.69999695 4.0000000000 22.000000000 2428.0000000 1.0000000000
 1682.3750000 39.333999634 -67.71299744 4.0000000000 22.000000000 2428.0000000 1.0000000000
 1682.5000000 32.611000061 -67.09799957 4.0000000000 22.000000000 2428.0000000 1.0000000000
 1682.6250000 30.443000793 -67.01499939 4.0000000000 22.000000000 2428.0000000 1.0000000000
 1682.7500000 30.031000137 -67.41999817 4.0000000000 22.000000000 2428.0000000 1.0000000000
 1682.8750000 29.628000259 -67.94599915 4.0000000000 22.000000000 2428.0000000 1.0000000000
 1683.0000000 29.003000259 -68.29599762 4.0000000000 22.000000000 2428.0000000 1.0000000000
 1683.1250000 28.309999466 -68.40100098 4.0000000000 22.000000000 2428.0000000 1.0000000000
 1683.2500000 27.625999451 -68.33000183 4.0000000000 22.000000000 2428.0000000 1.0000000000
 1683.3750000 27.363000870 -68.08399963 4.0000000000 22.000000000 2428.0000000 1.0000000000
 1683.5000000 27.822999954 -67.68900299 4.0000000000 22.000000000 2428.0000000 1.0000000000
 1683.6250000 29.090999603 -67.19000244 4.0000000000 22.000000000 2428.0000000 1.0000000000
 1683.7500000 31.242000580 -66.93000031 4.0000000000 22.000000000 2428.0000000 1.0000000000
 1683.8750000 33.979999542 -67.30200195 4.0000000000 22.000000000 2428.0000000 1.0000000000
 1684.0000000 36.595001221 -68.46499634 4.0000000000 22.000000000 2428.0000000 1.0000000000
 1684.1250000 38.428001404 -69.95200348 4.0000000000 22.000000000 2428.0000000 1.0000000000
 1684.2500000 39.696998596 -71.15299988 4.0000000000 22.000000000 2428.0000000 1.0000000000
 1684.3750000 39.993000031 -71.64499664 4.0000000000 22.000000000 2428.0000000 1.0000000000
 1684.5000000 38.696998596 -71.54299927 4.0000000000 22.000000000 2428.0000000 1.0000000000
 1684.6250000 36.395000458 -71.16100311 4.0000000000 22.000000000 2428.0000000 1.0000000000
 1684.7500000 34.047000885 -70.83699799 4.0000000000 22.000000000 2428.0000000 1.0000000000
 1684.8750000 31.853000641 -70.66400146 4.0000000000 22.000000000 2428.0000000 1.0000000000
 1685.0000000 30.398000717 -70.49299622 4.0000000000 22.000000000 2428.0000000 1.0000000000
 1685.1250000 29.392999649 -70.23400116 4.0000000000 22.000000000 2428.0000000 1.0000000000
 1685.2500000 28.125000000 -69.88899994 4.0000000000 22.000000000 2428.0000000 1.0000000000
 1685.3750000 26.312999725 -69.46299744 4.0000000000 22.000000000 2428.0000000 1.0000000000
 1685.5000000 23.652000427 -68.95200348 4.0000000000 22.000000000 2428.0000000 1.0000000000
 1685.6250000 21.263999939 -68.45200348 4.0000000000 22.000000000 2428.0000000 1.0000000000
 1685.7500000 20.339000702 -68.05999756 4.0000000000 22.000000000 2428.0000000 1.0000000000
 1685.8750000 20.431999207 -67.67299652 4.0000000000 22.000000000 2428.0000000 1.0000000000
 1686.0000000 20.891000748 -67.16699982 4.0000000000 22.000000000 2428.0000000 1.0000000000
 1686.1250000 21.645000458 -66.55100250 4.0000000000 22.000000000 2428.0000000 1.0000000000
 1686.2500000 22.719999313 -66.02600098 4.0000000000 22.000000000 2428.0000000 1.0000000000
 1686.3750000 24.049999237 -65.63800049 4.0000000000 22.000000000 2428.0000000 1.0000000000
 1686.5000000 25.246999741 -65.28500366 4.0000000000 22.000000000 2428.0000000 1.0000000000
 1686.6250000 26.031000137 -64.88700104 4.0000000000 22.000000000 2428.0000000 1.0000000000
 1686.7500000 26.697999954 -64.43299866 4.0000000000 22.000000000 2428.0000000 1.0000000000
 1686.8750000 27.441999435 -64.10199738 4.0000000000 22.000000000 2428.0000000 1.0000000000
 1687.0000000 28.354000092 -64.19000244 4.0000000000 22.000000000 2428.0000000 1.0000000000
 1687.1250000 29.337999344 -64.90100098 4.0000000000 22.000000000 2428.0000000 1.0000000000
 1687.2500000 30.315000534 -66.11399841 4.0000000000 22.000000000 2428.0000000 1.0000000000
 1687.3750000 31.625000000 -67.46800232 4.0000000000 22.000000000 2428.0000000 1.0000000000
 1687.5000000 33.088001251 -68.59899902 4.0000000000 22.000000000 2428.0000000 1.0000000000
 1687.6250000 34.213001251 -69.31400299 4.0000000000 22.000000000 2428.0000000 1.0000000000
 1687.7500000 34.999000549 -69.56600189 4.0000000000 22.000000000 2428.0000000 1.0000000000
 1687.8750000 35.648998260 -69.44200134 4.0000000000 22.000000000 2428.0000000 1.0000000000
 1688.0000000 36.290000916 -69.14299774 4.0000000000 22.000000000 2428.0000000 1.0000000000
 1688.1250000 36.903999329 -68.85299683 4.0000000000 22.000000000 2428.0000000 1.0000000000
 1688.2500000 36.984001160 -68.60900116 4.0000000000 22.000000000 2428.0000000 1.0000000000
 1688.3750000 36.018001556 -68.38999939 4.0000000000 22.000000000 2428.0000000 1.0000000000
 1688.5000000 34.152999878 -68.23799896 4.0000000000 22.000000000 2428.0000000 1.0000000000
 1688.6250000 31.461000443 -68.24600220 4.0000000000 22.000000000 2428.0000000 1.0000000000
 1688.7500000 28.127000809 -68.31500244 4.0000000000 22.000000000 2428.0000000 1.0000000000
 1688.8750000 25.434000015 -68.23600006 4.0000000000 22.000000000 2428.0000000 1.0000000000
 1689.0000000 22.954000473 -67.98200226 4.0000000000 22.000000000 2428.0000000 1.0000000000
 1689.1250000 19.493999481 -67.65899658 4.0000000000 22.000000000 2428.0000000 1.0000000000
 1689.2500000 16.218999863 -67.29599762 4.0000000000 22.000000000 2428.0000000 1.0000000000
 1689.3750000 14.154999733 -66.78600311 4.0000000000 22.000000000 2428.0000000 1.0000000000
 1689.5000000 12.935000420 -66.06099701 4.0000000000 22.000000000 2428.0000000 1.0000000000
 1689.6250000 12.074000359 -65.14800262 4.0000000000 22.000000000 2428.0000000 1.0000000000
 1689.7500000 11.640000343 -63.98799896 4.0000000000 22.000000000 2428.0000000 1.0000000000
 1689.8750000 11.616999626 -62.51599884 4.0000000000 22.000000000 2428.0000000 1.0000000000
 1690.0000000 11.789999962 -60.77500153 4.0000000000 22.000000000 2428.0000000 1.0000000000
 1690.1250000 12.123999596 -59.01399994  -999.250000 0.1000000015 0.1000000015 0.0000000000
 1690.2500000 12.579999924 -57.53900146  -999.250000 0.1000000015 0.1000000015 0.0000000000
 1690.3750000 13.173000336 -56.39300156  -999.250000 0.1000000015 0.1000000015 0.0000000000
 1690.5000000 13.965000153 -55.43799973  -999.250000 0.1000000015 0.1000000015 0.0000000000
 1690.6250000 15.112000465 -54.65999985  -999.250000 0.1000000015 0.1000000015 0.0000000000
 1690.7500000 16.915000916 -54.22000122  -999.250000 0.1000000015 0.1000000015 0.0000000000
 1690.8750000 18.788000107 -54.28799820  -999.250000 0.1000000015 0.1000000015 0.0000000000
 1691.0000000 19.583999634 -54.81299973  -999.250000 0.1000000015 0.1000000015 0.0000000000
 1691.1250000 19.211000443 -55.66999817  -999.250000 0.1000000015 0.1000000015 0.0000000000
 1691.2500000 18.250999451 -56.80899811  -999.250000 0.1000000015 0.1000000015 0.0000000000
 1691.3750000 17.075000763 -58.18099976  -999.250000 0.1000000015 0.1000000015 0.0000000000
 1691.5000000 15.989999771 -59.60100174  -999.250000 0.1000000015 0.1000000015 0.0000000000
 1691.6250000 15.026000023 -60.76900101 4.0000000000 20.000000000 974.00000000 1.0000000000
 1691.7500000 14.112000465 -61.57500076 4.0000000000 20.000000000 974.00000000 1.0000000000
