# LAS format log file from PETREL
# Project units are specified as depth units
#==================================================================
~Version information
VERS.   2.0:
WRAP.   NO:
#==================================================================
~Well
STRT .m      1350.0000000 :
STOP .m      1755.0000000 :
STEP .m     0.12500000 :
NULL .        -999.250000 :
COMP.           : COMPANY
WELL.  5-0165C2   : WELL
FLD.            : FIELD
LOC.            : LOCATION
SRVC.           : SERVICE COMPANY
DATE.  2020-03-08 09:25:09   : Log Export Date {yyyy-MM-dd HH:mm:ss}
PROV.           : PROVINCE
UWI.      : UNIQUE WELL ID
API.            : API NUMBER
#==================================================================
~Curve
DEPT .m                   : DEPTH
RT .ohm.m                 : RT
SP .                      : SP
Fluids .                  : Fluids
POR .m3/m3                : POR
PERM .mD                  : PERM
Lith .                    : Lith
~Parameter
#==================================================================
~Ascii
# ...
 1632.7500000 19.565000534 17.850999832 4.0000000000 19.000000000 1728.0000000 1.0000000000
 1632.8750000 23.149999619 17.851999283 4.0000000000 19.000000000 1728.0000000 1.0000000000
 1633.0000000 22.864999771 17.854000092 4.0000000000 19.000000000 1728.0000000 1.0000000000
 1633.1250000 22.180000305 17.778999329 4.0000000000 19.000000000 1728.0000000 1.0000000000
 1633.2500000 21.621000290 17.561000824 4.0000000000 19.000000000 1728.0000000 1.0000000000
 1633.3750000 20.950000763 17.016000748 4.0000000000 19.000000000 1728.0000000 1.0000000000
 1633.5000000 13.454999924 16.218999863 4.0000000000 19.000000000 1728.0000000 1.0000000000
 1633.6250000 10.885999680 15.213000298 4.0000000000 19.000000000 1728.0000000 1.0000000000
 1633.7500000 8.3290004730 14.477000237 4.0000000000 19.000000000 1728.0000000 1.0000000000
 1633.8750000 6.9419999123 13.739999771 4.0000000000 19.000000000 1728.0000000 1.0000000000
 1634.0000000 6.2239999771 12.935000420 4.0000000000 19.000000000 1728.0000000 1.0000000000
 1634.1250000 5.4800000191 12.581000328 4.0000000000 19.000000000 1728.0000000 1.0000000000
 1634.2500000 4.5130000114 12.336999893 4.0000000000 19.000000000 1728.0000000 1.0000000000
 1634.3750000 3.7230000496 12.144000053 4.0000000000 19.000000000 1728.0000000 1.0000000000
 1634.5000000 3.4519999027 12.015999794 4.0000000000 19.000000000 1728.0000000 1.0000000000
 1634.6250000 3.4100000858 11.949999809 4.0000000000 19.000000000 1728.0000000 1.0000000000
 1634.7500000 3.5069999695 11.925999641 4.0000000000 19.000000000 1728.0000000 1.0000000000
 1634.8750000 3.8580000401 11.914999962 4.0000000000 19.000000000 1728.0000000 1.0000000000
 1635.0000000 5.4819998741 11.864000320 4.0000000000 19.000000000 1728.0000000 1.0000000000
 1635.1250000 8.2150001526 11.812999725 4.0000000000 19.000000000 1728.0000000 1.0000000000
 1635.2500000 9.9040002823 11.800000191 4.0000000000 19.000000000 1728.0000000 1.0000000000
 1635.3750000 10.413000107 11.800000191 4.0000000000 19.000000000 1728.0000000 1.0000000000
 1635.5000000 10.204000473 11.800999641 4.0000000000 19.000000000 1728.0000000 1.0000000000
 1635.6250000 10.079000473 11.802000046 4.0000000000 19.000000000 1728.0000000 1.0000000000
 1635.7500000 9.9560003281 11.899999619 4.0000000000 19.000000000 1728.0000000 1.0000000000
 1635.8750000 11.326000214 11.913999557 4.0000000000 19.000000000 1728.0000000 1.0000000000
 1636.0000000 12.873999596 12.013999939 4.0000000000 19.000000000 1728.0000000 1.0000000000
 1636.1250000 13.560000420 12.152000427 4.0000000000 19.000000000 1728.0000000 1.0000000000
 1636.2500000 19.979000092 12.291999817 4.0000000000 19.000000000 1728.0000000 1.0000000000
 1636.3750000 20.635999680 12.432999611 4.0000000000 19.000000000 1728.0000000 1.0000000000
 1636.5000000 20.687000275 12.468000412 4.0000000000 19.000000000 1728.0000000 1.0000000000
 1636.6250000 20.479000092 12.564999580 4.0000000000 19.000000000 1728.0000000 1.0000000000
 1636.7500000 20.129999161 12.690999985 4.0000000000 19.000000000 1728.0000000 1.0000000000
 1636.8750000 19.773000717 12.829000473 4.0000000000 19.000000000 1728.0000000 1.0000000000
 1637.0000000 19.372999191 12.902000427 4.0000000000 19.000000000 1728.0000000 1.0000000000
 1637.1250000 18.815999985 13.092000008 4.0000000000 19.000000000 1728.0000000 1.0000000000
 1637.2500000 14.980999947 13.251000404 4.0000000000 19.000000000 1728.0000000 1.0000000000
 1637.3750000 12.722999573 13.434000015 4.0000000000 19.000000000 1728.0000000 1.0000000000
 1637.5000000 11.276000023 13.553000450 4.0000000000 19.000000000 1728.0000000 1.0000000000
 1637.6250000 10.649000168 13.684000015 4.0000000000 19.000000000 1728.0000000 1.0000000000
 1637.7500000 10.156000137 13.720999718 4.0000000000 19.000000000 1728.0000000 1.0000000000
 1637.8750000 9.6700000763 13.737999916 4.0000000000 19.000000000 1728.0000000 1.0000000000
 1638.0000000 9.2650003433 13.656999588 4.0000000000 19.000000000 1728.0000000 1.0000000000
 1638.1250000 9.1300001144 13.644000053 3.0000000000 17.000000000 459.00000000 1.0000000000
 1638.2500000 9.2770004272 13.552000046 3.0000000000 17.000000000 459.00000000 1.0000000000
 1638.3750000 14.793999672 13.427000046 3.0000000000 17.000000000 459.00000000 1.0000000000
 1638.5000000 17.283000946 13.211000443 3.0000000000 17.000000000 459.00000000 1.0000000000
 1638.6250000 18.259000778 12.994000435 3.0000000000 17.000000000 459.00000000 1.0000000000
 1638.7500000 18.121000290 12.878000259 3.0000000000 17.000000000 459.00000000 1.0000000000
 1638.8750000 17.983999252 12.762000084 3.0000000000 17.000000000 459.00000000 1.0000000000
 1639.0000000 17.466999054 12.689000130 3.0000000000 17.000000000 459.00000000 1.0000000000
 1639.1250000 16.607999802 12.661999702 3.0000000000 17.000000000 459.00000000 1.0000000000
 1639.2500000 14.690999985 12.647999763 3.0000000000 17.000000000 459.00000000 1.0000000000
 1639.3750000 13.321000099 12.644000053 3.0000000000 17.000000000 459.00000000 1.0000000000
 1639.5000000 12.470999718 12.642999649 3.0000000000 17.000000000 459.00000000 1.0000000000
 1639.6250000 12.135000229 12.640999794 3.0000000000 17.000000000 459.00000000 1.0000000000
 1639.7500000 11.821000099 12.642999649 3.0000000000 17.000000000 459.00000000 1.0000000000
 1639.8750000 11.562000275 12.644000053 3.0000000000 17.000000000 459.00000000 1.0000000000
 1640.0000000 11.510000229 12.725000381 3.0000000000 17.000000000 459.00000000 1.0000000000
 1640.1250000 11.588000298 12.753999710  -999.250000 0.1000000015 0.1000000015 0.0000000000
 1640.2500000 15.527999878 12.869999886  -999.250000 0.1000000015 0.1000000015 0.0000000000
 1640.3750000 17.287000656 12.875000000  -999.250000 0.1000000015 0.1000000015 0.0000000000
 1640.5000000 17.872999191 12.876999855 2.0000000000 27.000000000 4249.0000000 1.0000000000
 1640.6250000 16.760999680 12.932999611 2.0000000000 27.000000000 4249.0000000 1.0000000000
 1640.7500000 15.649000168 12.989999771 2.0000000000 27.000000000 4249.0000000 1.0000000000
 1640.8750000 14.958000183 12.993000031 2.0000000000 27.000000000 4249.0000000 1.0000000000
 1641.0000000 13.045999527 12.920000076 2.0000000000 27.000000000 4249.0000000 1.0000000000
 1641.1250000 11.133000374 12.633000374 2.0000000000 27.000000000 4249.0000000 1.0000000000
 1641.2500000 10.652000427 12.152000427 2.0000000000 27.000000000 4249.0000000 1.0000000000
 1641.3750000 10.381999969 11.604000092 2.0000000000 27.000000000 4249.0000000 1.0000000000
 1641.5000000 10.265999794 11.057000160 2.0000000000 27.000000000 4249.0000000 1.0000000000
 1641.6250000 11.982000351 10.630999565 2.0000000000 27.000000000 4249.0000000 1.0000000000
 1641.7500000 12.890000343 10.211999893 2.0000000000 27.000000000 4249.0000000 1.0000000000
 1641.8750000 13.194000244 9.8889999390 2.0000000000 27.000000000 4249.0000000 1.0000000000
 1642.0000000 13.222999573 9.5939998627 2.0000000000 27.000000000 4249.0000000 1.0000000000
 1642.1250000 13.102000237 9.2989997864 2.0000000000 27.000000000 4249.0000000 1.0000000000
 1642.2500000 12.039999962 8.9540004730 2.0000000000 27.000000000 4249.0000000 1.0000000000
 1642.3750000 11.649999619 8.7139997482 2.0000000000 27.000000000 4249.0000000 1.0000000000
 1642.5000000 12.317999840 8.4569997787 2.0000000000 27.000000000 4249.0000000 1.0000000000
 1642.6250000 12.710000038 8.1870002747 2.0000000000 27.000000000 4249.0000000 1.0000000000
 1642.7500000 12.697999954 7.9800000191 2.0000000000 27.000000000 4249.0000000 1.0000000000
 1642.8750000 12.489999771 7.7290000916 2.0000000000 27.000000000 4249.0000000 1.0000000000
 1643.0000000 12.286999702 7.5159997940 2.0000000000 27.000000000 4249.0000000 1.0000000000
 1643.1250000 12.059000015 7.3039999008 2.0000000000 27.000000000 4249.0000000 1.0000000000
 1643.2500000 12.194999695 7.0329999924 2.0000000000 27.000000000 4249.0000000 1.0000000000
 1643.3750000 15.928999901 6.7579998970 2.0000000000 27.000000000 4249.0000000 1.0000000000
 1643.5000000 17.951999664 6.5339999199 2.0000000000 27.000000000 4249.0000000 1.0000000000
