# LAS format log file from PETREL
# Project units are specified as depth units
#==================================================================
~Version information
VERS.   2.0:
WRAP.   NO:
#==================================================================
~Well
STRT .m      725.00000000 :
STOP .m      1752.0000000 :
STEP .m     0.12500000 :
NULL .        -999.250000 :
COMP.           : COMPANY
WELL.  5-0166   : WELL
FLD.            : FIELD
LOC.            : LOCATION
SRVC.           : SERVICE COMPANY
DATE.  2020-03-08 09:25:09   : Log Export Date {yyyy-MM-dd HH:mm:ss}
PROV.           : PROVINCE
UWI.      : UNIQUE WELL ID
API.            : API NUMBER
#==================================================================
~Curve
DEPT .m                   : DEPTH
RT .ohm.m                 : RT
SP .                      : SP
Fluids .                  : Fluids
POR .m3/m3                : POR
PERM .mD                  : PERM
Lith .                    : Lith
~Parameter
#==================================================================
~Ascii
# ...
 1627.6250000 12.292699814 -9999.000000  -999.250000 0.1000000015 0.1000000015 0.0000000000
 1627.7500000 10.105500221 -9999.000000  -999.250000 0.1000000015 0.1000000015 0.0000000000
 1627.8750000 7.9182000160 -9999.000000  -999.250000 0.1000000015 0.1000000015 0.0000000000
 1628.0000000 5.7309999466 -9999.000000  -999.250000 0.1000000015 0.1000000015 0.0000000000
 1628.1250000 8.3039999008 -9999.000000  -999.250000 0.1000000015 0.1000000015 0.0000000000
 1628.2500000 10.876999855 -9999.000000  -999.250000 0.1000000015 0.1000000015 0.0000000000
 1628.3750000 13.449999809 -9999.000000  -999.250000 0.1000000015 0.1000000015 0.0000000000
 1628.5000000 16.023000717 -9999.000000 3.0000000000 22.000000000 479.00000000 1.0000000000
 1628.6250000 13.675999641 -9999.000000 3.0000000000 22.000000000 479.00000000 1.0000000000
 1628.7500000 11.329000473 -9999.000000 3.0000000000 22.000000000 479.00000000 1.0000000000
 1628.8750000 8.9820003510 -9999.000000 3.0000000000 22.000000000 479.00000000 1.0000000000
 1629.0000000 6.6350002289 -9999.000000  -999.250000 0.1000000015 0.1000000015 0.0000000000
 1629.1250000 7.8039999008 -9999.000000  -999.250000 0.1000000015 0.1000000015 0.0000000000
 1629.2500000 8.9729995728 -9999.000000  -999.250000 0.1000000015 0.1000000015 0.0000000000
 1629.3750000 10.142000198 -9999.000000  -999.250000 0.1000000015 0.1000000015 0.0000000000
 1629.5000000 11.310999870 -9999.000000 3.0000000000 20.000000000 297.00000000 1.0000000000
 1629.6250000 9.9844999313 -9999.000000 3.0000000000 20.000000000 297.00000000 1.0000000000
 1629.7500000 8.6579999924 -9999.000000  -999.250000 0.1000000015 0.1000000015 0.0000000000
 1629.8750000 7.3315000534 -9999.000000  -999.250000 0.1000000015 0.1000000015 0.0000000000
 1630.0000000 6.0050001144 -9999.000000  -999.250000 0.1000000015 0.1000000015 0.0000000000
 1630.1250000 6.1147999763 -9999.000000  -999.250000 0.1000000015 0.1000000015 0.0000000000
 1630.2500000 6.2245001793 -9999.000000  -999.250000 0.1000000015 0.1000000015 0.0000000000
 1630.3750000 6.3341999054 -9999.000000  -999.250000 0.1000000015 0.1000000015 0.0000000000
 1630.5000000 6.4439997673 -9999.000000  -999.250000 0.1000000015 0.1000000015 0.0000000000
 1630.6250000 8.1021995544 -9999.000000 3.0000000000 15.000000000 99.000000000 1.0000000000
 1630.7500000 9.7604999542 -9999.000000 3.0000000000 15.000000000 99.000000000 1.0000000000
 1630.8750000 11.418700218 -9999.000000 3.0000000000 15.000000000 99.000000000 1.0000000000
 1631.0000000 13.076999664 -9999.000000 3.0000000000 15.000000000 99.000000000 1.0000000000
 1631.1250000 12.833499908 -9999.000000 3.0000000000 15.000000000 99.000000000 1.0000000000
 1631.2500000 12.590000153 -9999.000000 3.0000000000 15.000000000 99.000000000 1.0000000000
 1631.3750000 12.346500397 -9999.000000 3.0000000000 15.000000000 99.000000000 1.0000000000
 1631.5000000 12.102999687 -9999.000000 3.0000000000 15.000000000 99.000000000 1.0000000000
 1631.6250000 11.277700424 -9999.000000 3.0000000000 15.000000000 99.000000000 1.0000000000
 1631.7500000 10.452500343 -9999.000000 3.0000000000 15.000000000 99.000000000 1.0000000000
 1631.8750000 9.6272001266 -9999.000000 3.0000000000 15.000000000 99.000000000 1.0000000000
 1632.0000000 8.8020000458 -9999.000000 3.0000000000 15.000000000 99.000000000 1.0000000000
 1632.1250000 8.1437997818 -9999.000000  -999.250000 0.1000000015 0.1000000015 0.0000000000
 1632.2500000 7.4854998589 -9999.000000  -999.250000 0.1000000015 0.1000000015 0.0000000000
 1632.3750000 6.8273000717 -9999.000000  -999.250000 0.1000000015 0.1000000015 0.0000000000
 1632.5000000 6.1690001488 -9999.000000  -999.250000 0.1000000015 0.1000000015 0.0000000000
 1632.6250000 6.6189999580 -9999.000000  -999.250000 0.1000000015 0.1000000015 0.0000000000
 1632.7500000 7.0689997673 -9999.000000  -999.250000 0.1000000015 0.1000000015 0.0000000000
 1632.8750000 7.5190000534 -9999.000000  -999.250000 0.1000000015 0.1000000015 0.0000000000
 1633.0000000 7.9689998627 -9999.000000  -999.250000 0.1000000015 0.1000000015 0.0000000000
 1633.1250000 7.7525000572 -9999.000000  -999.250000 0.1000000015 0.1000000015 0.0000000000
 1633.2500000 7.5359997749 -9999.000000  -999.250000 0.1000000015 0.1000000015 0.0000000000
 1633.3750000 7.3194999695 -9999.000000  -999.250000 0.1000000015 0.1000000015 0.0000000000
 1633.5000000 7.1030001640 -9999.000000  -999.250000 0.1000000015 0.1000000015 0.0000000000
 1633.6250000 7.0507998466 -9999.000000  -999.250000 0.1000000015 0.1000000015 0.0000000000
 1633.7500000 6.9984998703 -9999.000000  -999.250000 0.1000000015 0.1000000015 0.0000000000
 1633.8750000 6.9463000298 -9999.000000  -999.250000 0.1000000015 0.1000000015 0.0000000000
 1634.0000000 6.8940000534 -9999.000000  -999.250000 0.1000000015 0.1000000015 0.0000000000
 1634.1250000 7.8625001907 -9999.000000  -999.250000 0.1000000015 0.1000000015 0.0000000000
 1634.2500000 8.8310003281 -9999.000000  -999.250000 0.1000000015 0.1000000015 0.0000000000
 1634.3750000 9.7995004654 -9999.000000  -999.250000 0.1000000015 0.1000000015 0.0000000000
 1634.5000000 10.767999649 -9999.000000  -999.250000 0.1000000015 0.1000000015 0.0000000000
 1634.6250000 9.4215002060 -9999.000000  -999.250000 0.1000000015 0.1000000015 0.0000000000
 1634.7500000 8.0749998093 -9999.000000  -999.250000 0.1000000015 0.1000000015 0.0000000000
 1634.8750000 6.7284998894 -9999.000000  -999.250000 0.1000000015 0.1000000015 0.0000000000
 1635.0000000 5.3819999695 -9999.000000  -999.250000 0.1000000015 0.1000000015 0.0000000000
 1635.1250000 5.3821997643 -9999.000000  -999.250000 0.1000000015 0.1000000015 0.0000000000
 1635.2500000 5.3825001717 -9999.000000  -999.250000 0.1000000015 0.1000000015 0.0000000000
 1635.3750000 5.3826999664 -9999.000000  -999.250000 0.1000000015 0.1000000015 0.0000000000
 1635.5000000 5.3829998970 -9999.000000  -999.250000 0.1000000015 0.1000000015 0.0000000000
 1635.6250000 5.3751997948 -9999.000000  -999.250000 0.1000000015 0.1000000015 0.0000000000
 1635.7500000 5.3674998283 -9999.000000  -999.250000 0.1000000015 0.1000000015 0.0000000000
 1635.8750000 5.3597998619 -9999.000000  -999.250000 0.1000000015 0.1000000015 0.0000000000
 1636.0000000 5.3520002365 -9999.000000  -999.250000 0.1000000015 0.1000000015 0.0000000000
 1636.1250000 5.0387997627 -9999.000000  -999.250000 0.1000000015 0.1000000015 0.0000000000
 1636.2500000 4.7255001068 -9999.000000  -999.250000 0.1000000015 0.1000000015 0.0000000000
 1636.3750000 4.4123001099 -9999.000000  -999.250000 0.1000000015 0.1000000015 0.0000000000
 1636.5000000 4.0989999771 -9999.000000  -999.250000 0.1000000015 0.1000000015 0.0000000000
 1636.6250000 3.7469999790 -9999.000000  -999.250000 0.1000000015 0.1000000015 0.0000000000
 1636.7500000 3.3949999809 -9999.000000  -999.250000 0.1000000015 0.1000000015 0.0000000000
 1636.8750000 3.0429999828 -9999.000000  -999.250000 0.1000000015 0.1000000015 0.0000000000
 1637.0000000 2.6909999847 -9999.000000  -999.250000 0.1000000015 0.1000000015 0.0000000000
 1637.1250000 2.7592000961 -9999.000000  -999.250000 0.1000000015 0.1000000015 0.0000000000
 1637.2500000 2.8275001049 -9999.000000  -999.250000 0.1000000015 0.1000000015 0.0000000000
 1637.3750000 2.8956999779 -9999.000000  -999.250000 0.1000000015 0.1000000015 0.0000000000
 1637.5000000 2.9639999866 -9999.000000  -999.250000 0.1000000015 0.1000000015 0.0000000000
 1637.6250000 3.2314999104 -9999.000000  -999.250000 0.1000000015 0.1000000015 0.0000000000
 1637.7500000 3.4990000725 -9999.000000  -999.250000 0.1000000015 0.1000000015 0.0000000000
 1637.8750000 3.7664999962 -9999.000000  -999.250000 0.1000000015 0.1000000015 0.0000000000
 1638.0000000 4.0339999199 -9999.000000  -999.250000 0.1000000015 0.1000000015 0.0000000000
 1638.1250000 3.6979999542 -9999.000000  -999.250000 0.1000000015 0.1000000015 0.0000000000
 1638.2500000 3.3619999886 -9999.000000  -999.250000 0.1000000015 0.1000000015 0.0000000000
 1638.3750000 3.0260000229 -9999.000000  -999.250000 0.1000000015 0.1000000015 0.0000000000
