# LAS format log file from PETREL
# Project units are specified as depth units
#==================================================================
~Version information
VERS.   2.0:
WRAP.   NO:
#==================================================================
~Well
STRT .m      1420.0000000 :
STOP .m      1734.8750000 :
STEP .m     0.12500000 :
NULL .        -999.250000 :
COMP.           : COMPANY
WELL.  5-0161C   : WELL
FLD.            : FIELD
LOC.            : LOCATION
SRVC.           : SERVICE COMPANY
DATE.  2020-03-08 09:25:09   : Log Export Date {yyyy-MM-dd HH:mm:ss}
PROV.           : PROVINCE
UWI.      : UNIQUE WELL ID
API.            : API NUMBER
#==================================================================
~Curve
DEPT .m                   : DEPTH
RT .ohm.m                 : RT
SP .                      : SP
Fluids .                  : Fluids
POR .m3/m3                : POR
PERM .mD                  : PERM
Lith .                    : Lith
~Parameter
#==================================================================
~Ascii
# ...
 1561.3750000 39.158000946 -67.33599854 4.0000000000 25.000000000 3630.0000000 1.0000000000
 1561.5000000 38.578998566 -67.35199738 4.0000000000 25.000000000 3630.0000000 1.0000000000
 1561.6250000 38.053001404 -67.53299713 4.0000000000 25.000000000 3630.0000000 1.0000000000
 1561.7500000 37.141998291 -67.66200256 4.0000000000 25.000000000 3630.0000000 1.0000000000
 1561.8750000 34.837001801 -67.56199646 4.0000000000 25.000000000 3630.0000000 1.0000000000
 1562.0000000 32.279998779 -67.25299835 4.0000000000 25.000000000 3630.0000000 1.0000000000
 1562.1250000 30.676000595 -66.91200256 4.0000000000 25.000000000 3630.0000000 1.0000000000
 1562.2500000 30.145000458 -66.66000366 4.0000000000 25.000000000 3630.0000000 1.0000000000
 1562.3750000 30.583000183 -66.63600159 4.0000000000 25.000000000 3630.0000000 1.0000000000
 1562.5000000 30.726999283 -66.84400177 4.0000000000 25.000000000 3630.0000000 1.0000000000
 1562.6250000 29.930000305 -67.18299866 4.0000000000 25.000000000 3630.0000000 1.0000000000
 1562.7500000 28.444000244 -67.45200348 4.0000000000 25.000000000 3630.0000000 1.0000000000
 1562.8750000 26.277000427 -67.47499847 4.0000000000 25.000000000 3630.0000000 1.0000000000
 1563.0000000 24.544000626 -67.25099945 4.0000000000 25.000000000 3630.0000000 1.0000000000
 1563.1250000 22.704999924 -66.86699677 4.0000000000 25.000000000 3630.0000000 1.0000000000
 1563.2500000 21.434000015 -66.43199921 4.0000000000 25.000000000 3630.0000000 1.0000000000
 1563.3750000 20.496000290 -65.99099731 4.0000000000 25.000000000 3630.0000000 1.0000000000
 1563.5000000 19.523000717 -65.57800293 4.0000000000 25.000000000 3630.0000000 1.0000000000
 1563.6250000 19.079999924 -65.33599854 4.0000000000 25.000000000 3630.0000000 1.0000000000
 1563.7500000 19.145000458 -65.21700287  -999.250000 0.1000000015 0.1000000015 0.0000000000
 1563.8750000 19.530000687 -64.91899872  -999.250000 0.1000000015 0.1000000015 0.0000000000
 1564.0000000 20.370000839 -64.23100281  -999.250000 0.1000000015 0.1000000015 0.0000000000
 1564.1250000 21.309000015 -63.35599899  -999.250000 0.1000000015 0.1000000015 0.0000000000
 1564.2500000 22.052000046 -62.77899933  -999.250000 0.1000000015 0.1000000015 0.0000000000
 1564.3750000 22.392000198 -62.63199997  -999.250000 0.1000000015 0.1000000015 0.0000000000
 1564.5000000 21.968000412 -62.84099960  -999.250000 0.1000000015 0.1000000015 0.0000000000
 1564.6250000 20.479000092 -63.19100189  -999.250000 0.1000000015 0.1000000015 0.0000000000
 1564.7500000 18.586999893 -63.44400024  -999.250000 0.1000000015 0.1000000015 0.0000000000
 1564.8750000 17.097000122 -63.43600082  -999.250000 0.1000000015 0.1000000015 0.0000000000
 1565.0000000 16.145999908 -63.25899887 4.0000000000 20.000000000 1440.0000000 1.0000000000
 1565.1250000 16.396999359 -63.17900085 4.0000000000 20.000000000 1440.0000000 1.0000000000
 1565.2500000 16.981000900 -63.39400101 4.0000000000 20.000000000 1440.0000000 1.0000000000
 1565.3750000 17.347000122 -63.87300110 4.0000000000 20.000000000 1440.0000000 1.0000000000
 1565.5000000 17.455999374 -64.48899841 4.0000000000 20.000000000 1440.0000000 1.0000000000
 1565.6250000 17.379999161 -65.02100372 4.0000000000 20.000000000 1440.0000000 1.0000000000
 1565.7500000 17.621999741 -65.24199677 4.0000000000 20.000000000 1440.0000000 1.0000000000
 1565.8750000 18.285999298 -65.05799866 4.0000000000 20.000000000 1440.0000000 1.0000000000
 1566.0000000 19.816999435 -64.61199951 4.0000000000 20.000000000 1440.0000000 1.0000000000
 1566.1250000 22.410999298 -64.17199707 4.0000000000 20.000000000 1440.0000000 1.0000000000
 1566.2500000 25.143999100 -64.00800323 4.0000000000 20.000000000 1440.0000000 1.0000000000
 1566.3750000 27.261999130 -64.34899902 4.0000000000 20.000000000 1440.0000000 1.0000000000
 1566.5000000 27.857999802 -65.11799622 4.0000000000 20.000000000 1440.0000000 1.0000000000
 1566.6250000 27.142000198 -65.99700165 4.0000000000 20.000000000 1440.0000000 1.0000000000
 1566.7500000 25.003999710 -66.67299652 4.0000000000 20.000000000 1440.0000000 1.0000000000
 1566.8750000 22.666000366 -67.03199768 4.0000000000 20.000000000 1440.0000000 1.0000000000
 1567.0000000 21.351999283 -67.15499878 4.0000000000 20.000000000 1440.0000000 1.0000000000
 1567.1250000 20.021999359 -67.06300354 4.0000000000 20.000000000 1440.0000000 1.0000000000
 1567.2500000 18.834999084 -66.87100220 4.0000000000 20.000000000 1440.0000000 1.0000000000
 1567.3750000 18.163999557 -66.72499847 4.0000000000 20.000000000 1440.0000000 1.0000000000
 1567.5000000 17.615999222 -66.64099884 4.0000000000 20.000000000 1440.0000000 1.0000000000
 1567.6250000 17.188999176 -66.52400208 4.0000000000 20.000000000 1440.0000000 1.0000000000
 1567.7500000 16.427000046 -66.28900146  -999.250000 0.1000000015 0.1000000015 0.0000000000
 1567.8750000 15.597000122 -65.94499969  -999.250000 0.1000000015 0.1000000015 0.0000000000
 1568.0000000 15.093000412 -65.54499817  -999.250000 0.1000000015 0.1000000015 0.0000000000
 1568.1250000 14.767999649 -65.09100342  -999.250000 0.1000000015 0.1000000015 0.0000000000
 1568.2500000 14.506999969 -64.63099670  -999.250000 0.1000000015 0.1000000015 0.0000000000
 1568.3750000 14.175999641 -64.30599976  -999.250000 0.1000000015 0.1000000015 0.0000000000
 1568.5000000 13.737000465 -64.14399719  -999.250000 0.1000000015 0.1000000015 0.0000000000
 1568.6250000 13.545000076 -64.09300232  -999.250000 0.1000000015 0.1000000015 0.0000000000
 1568.7500000 13.279999733 -63.91500092  -999.250000 0.1000000015 0.1000000015 0.0000000000
 1568.8750000 12.763999939 -63.60400009  -999.250000 0.1000000015 0.1000000015 0.0000000000
 1569.0000000 11.798000336 -63.19699860  -999.250000 0.1000000015 0.1000000015 0.0000000000
 1569.1250000 10.211999893 -62.74499893  -999.250000 0.1000000015 0.1000000015 0.0000000000
 1569.2500000 8.8789997101 -62.33499908  -999.250000 0.1000000015 0.1000000015 0.0000000000
 1569.3750000 8.5760002136 -62.08599854  -999.250000 0.1000000015 0.1000000015 0.0000000000
 1569.5000000 8.7749996185 -61.99200058  -999.250000 0.1000000015 0.1000000015 0.0000000000
 1569.6250000 8.9940004349 -61.92399979  -999.250000 0.1000000015 0.1000000015 0.0000000000
 1569.7500000 9.1899995804 -61.92399979  -999.250000 0.1000000015 0.1000000015 0.0000000000
 1569.8750000 9.2290000916 -62.16500092  -999.250000 0.1000000015 0.1000000015 0.0000000000
 1570.0000000 8.7159996033 -62.60400009  -999.250000 0.1000000015 0.1000000015 0.0000000000
 1570.1250000 7.9340000153 -62.92399979  -999.250000 0.1000000015 0.1000000015 0.0000000000
 1570.2500000 7.1440000534 -62.97399902  -999.250000 0.1000000015 0.1000000015 0.0000000000
 1570.3750000 6.2199997902 -62.65900040  -999.250000 0.1000000015 0.1000000015 0.0000000000
 1570.5000000 5.5250000954 -62.01699829  -999.250000 0.1000000015 0.1000000015 0.0000000000
 1570.6250000 4.9019999504 -61.29000092  -999.250000 0.1000000015 0.1000000015 0.0000000000
 1570.7500000 4.6110000610 -60.98300171  -999.250000 0.1000000015 0.1000000015 0.0000000000
 1570.8750000 4.6059999466 -61.38399887  -999.250000 0.1000000015 0.1000000015 0.0000000000
 1571.0000000 4.8480000496 -62.05899811  -999.250000 0.1000000015 0.1000000015 0.0000000000
 1571.1250000 5.4559998512 -62.48799896  -999.250000 0.1000000015 0.1000000015 0.0000000000
 1571.2500000 6.1739997864 -62.25999832  -999.250000 0.1000000015 0.1000000015 0.0000000000
 1571.3750000 6.6950001717 -61.36899948  -999.250000 0.1000000015 0.1000000015 0.0000000000
 1571.5000000 7.1350002289 -60.11600113  -999.250000 0.1000000015 0.1000000015 0.0000000000
 1571.6250000 7.6449999809 -58.70000076  -999.250000 0.1000000015 0.1000000015 0.0000000000
 1571.7500000 7.9970002174 -57.28099823  -999.250000 0.1000000015 0.1000000015 0.0000000000
 1571.8750000 8.1149997711 -56.00500107  -999.250000 0.1000000015 0.1000000015 0.0000000000
 1572.0000000 8.0480003357 -55.17200089  -999.250000 0.1000000015 0.1000000015 0.0000000000
 1572.1250000 7.8740000725 -55.04399872  -999.250000 0.1000000015 0.1000000015 0.0000000000
