# LAS format log file from PETREL
# Project units are specified as depth units
#==================================================================
~Version information
VERS.   2.0:
WRAP.   NO:
#==================================================================
~Well
STRT .m      730.00000000 :
STOP .m      1729.5000000 :
STEP .m     0.12500000 :
NULL .        -999.250000 :
COMP.           : COMPANY
WELL.  5-0163   : WELL
FLD.            : FIELD
LOC.            : LOCATION
SRVC.           : SERVICE COMPANY
DATE.  2020-03-08 09:25:09   : Log Export Date {yyyy-MM-dd HH:mm:ss}
PROV.           : PROVINCE
UWI.      : UNIQUE WELL ID
API.            : API NUMBER
#==================================================================
~Curve
DEPT .m                   : DEPTH
RT .ohm.m                 : RT
SP .                      : SP
Fluids .                  : Fluids
POR .m3/m3                : POR
PERM .mD                  : PERM
Lith .                    : Lith
~Parameter
#==================================================================
~Ascii
# ...
 1556.5000000 38.615001678 -9999.000000 4.0000000000 18.000000000 216.00000000 1.0000000000
 1556.6250000 36.239799500 -9999.000000 4.0000000000 18.000000000 216.00000000 1.0000000000
 1556.7500000 33.864498138 -9999.000000 4.0000000000 18.000000000 216.00000000 1.0000000000
 1556.8750000 31.489299774 -9999.000000 4.0000000000 18.000000000 216.00000000 1.0000000000
 1557.0000000 29.114000320 -9999.000000 4.0000000000 18.000000000 216.00000000 1.0000000000
 1557.1250000 25.806800842 -9999.000000 4.0000000000 18.000000000 216.00000000 1.0000000000
 1557.2500000 22.499500275 -9999.000000 4.0000000000 18.000000000 216.00000000 1.0000000000
 1557.3750000 19.192300797 -9999.000000 4.0000000000 18.000000000 216.00000000 1.0000000000
 1557.5000000 15.885000229 -9999.000000 4.0000000000 18.000000000 216.00000000 1.0000000000
 1557.6250000 17.794000626 -9999.000000 4.0000000000 18.000000000 216.00000000 1.0000000000
 1557.7500000 19.702999115 -9999.000000 4.0000000000 18.000000000 216.00000000 1.0000000000
 1557.8750000 21.611999512 -9999.000000 4.0000000000 18.000000000 216.00000000 1.0000000000
 1558.0000000 23.520999908 -9999.000000 4.0000000000 18.000000000 216.00000000 1.0000000000
 1558.1250000 27.295700073 -9999.000000 4.0000000000 18.000000000 216.00000000 1.0000000000
 1558.2500000 31.070499420 -9999.000000 4.0000000000 18.000000000 216.00000000 1.0000000000
 1558.3750000 34.845199585 -9999.000000 4.0000000000 18.000000000 216.00000000 1.0000000000
 1558.5000000 38.619998932 -9999.000000 4.0000000000 18.000000000 216.00000000 1.0000000000
 1558.6250000 37.229000092 -9999.000000 4.0000000000 18.000000000 216.00000000 1.0000000000
 1558.7500000 35.838001251 -9999.000000 4.0000000000 18.000000000 216.00000000 1.0000000000
 1558.8750000 34.446998596 -9999.000000 4.0000000000 18.000000000 216.00000000 1.0000000000
 1559.0000000 33.055999756 -9999.000000 4.0000000000 18.000000000 216.00000000 1.0000000000
 1559.1250000 34.993698120 -9999.000000 4.0000000000 18.000000000 216.00000000 1.0000000000
 1559.2500000 36.931499481 -9999.000000 4.0000000000 18.000000000 216.00000000 1.0000000000
 1559.3750000 38.869201660 -9999.000000 4.0000000000 18.000000000 216.00000000 1.0000000000
 1559.5000000 40.806999207 -9999.000000 3.0000000000 13.000000000 68.000000000 1.0000000000
 1559.6250000 35.661998749 -9999.000000 3.0000000000 13.000000000 68.000000000 1.0000000000
 1559.7500000 30.517000198 -9999.000000 3.0000000000 13.000000000 68.000000000 1.0000000000
 1559.8750000 25.371999741 -9999.000000 3.0000000000 13.000000000 68.000000000 1.0000000000
 1560.0000000 20.226999283 -9999.000000 3.0000000000 13.000000000 68.000000000 1.0000000000
 1560.1250000 18.802000046 -9999.000000 3.0000000000 13.000000000 68.000000000 1.0000000000
 1560.2500000 17.377000809 -9999.000000 3.0000000000 13.000000000 68.000000000 1.0000000000
 1560.3750000 15.951999664 -9999.000000 3.0000000000 13.000000000 68.000000000 1.0000000000
 1560.5000000 14.527000427 -9999.000000 3.0000000000 13.000000000 68.000000000 1.0000000000
 1560.6250000 14.443499565 -9999.000000 3.0000000000 13.000000000 68.000000000 1.0000000000
 1560.7500000 14.359999657 -9999.000000 3.0000000000 13.000000000 68.000000000 1.0000000000
 1560.8750000 14.276499748 -9999.000000 3.0000000000 13.000000000 68.000000000 1.0000000000
 1561.0000000 14.192999840 -9999.000000 3.0000000000 13.000000000 68.000000000 1.0000000000
 1561.1250000 14.215499878 -9999.000000 3.0000000000 13.000000000 68.000000000 1.0000000000
 1561.2500000 14.237999916 -9999.000000 3.0000000000 13.000000000 68.000000000 1.0000000000
 1561.3750000 14.260499954 -9999.000000 3.0000000000 13.000000000 68.000000000 1.0000000000
 1561.5000000 14.282999992 -9999.000000  -999.250000 0.1000000015 0.1000000015 0.0000000000
 1561.6250000 11.487199783 -9999.000000  -999.250000 0.1000000015 0.1000000015 0.0000000000
 1561.7500000 8.6914997101 -9999.000000  -999.250000 0.1000000015 0.1000000015 0.0000000000
 1561.8750000 5.8956999779 -9999.000000  -999.250000 0.1000000015 0.1000000015 0.0000000000
 1562.0000000 3.0999999046 -9999.000000  -999.250000 0.1000000015 0.1000000015 0.0000000000
 1562.1250000 3.1264998913 -9999.000000  -999.250000 0.1000000015 0.1000000015 0.0000000000
 1562.2500000 3.1530001163 -9999.000000  -999.250000 0.1000000015 0.1000000015 0.0000000000
 1562.3750000 3.1795001030 -9999.000000  -999.250000 0.1000000015 0.1000000015 0.0000000000
 1562.5000000 3.2060000896 -9999.000000  -999.250000 0.1000000015 0.1000000015 0.0000000000
 1562.6250000 3.1050000191 -9999.000000  -999.250000 0.1000000015 0.1000000015 0.0000000000
 1562.7500000 3.0039999485 -9999.000000  -999.250000 0.1000000015 0.1000000015 0.0000000000
 1562.8750000 2.9030001163 -9999.000000  -999.250000 0.1000000015 0.1000000015 0.0000000000
 1563.0000000 2.8020000458 -9999.000000  -999.250000 0.1000000015 0.1000000015 0.0000000000
 1563.1250000 2.9272999763 -9999.000000  -999.250000 0.1000000015 0.1000000015 0.0000000000
 1563.2500000 3.0525000095 -9999.000000  -999.250000 0.1000000015 0.1000000015 0.0000000000
 1563.3750000 3.1777000427 -9999.000000  -999.250000 0.1000000015 0.1000000015 0.0000000000
 1563.5000000 3.3029999733 -9999.000000  -999.250000 0.1000000015 0.1000000015 0.0000000000
 1563.6250000 3.2788000107 -9999.000000  -999.250000 0.1000000015 0.1000000015 0.0000000000
 1563.7500000 3.2544999123 -9999.000000  -999.250000 0.1000000015 0.1000000015 0.0000000000
 1563.8750000 3.2302999496 -9999.000000  -999.250000 0.1000000015 0.1000000015 0.0000000000
 1564.0000000 3.2060000896 -9999.000000  -999.250000 0.1000000015 0.1000000015 0.0000000000
 1564.1250000 3.5980000496 -9999.000000  -999.250000 0.1000000015 0.1000000015 0.0000000000
 1564.2500000 3.9900000095 -9999.000000  -999.250000 0.1000000015 0.1000000015 0.0000000000
 1564.3750000 4.3819999695 -9999.000000  -999.250000 0.1000000015 0.1000000015 0.0000000000
 1564.5000000 4.7740001678 -9999.000000 3.0000000000 15.000000000 143.00000000 1.0000000000
 1564.6250000 9.5321998596 -9999.000000 3.0000000000 15.000000000 143.00000000 1.0000000000
 1564.7500000 14.290499687 -9999.000000 3.0000000000 15.000000000 143.00000000 1.0000000000
 1564.8750000 19.048700333 -9999.000000 3.0000000000 15.000000000 143.00000000 1.0000000000
 1565.0000000 23.806999207 -9999.000000 3.0000000000 15.000000000 143.00000000 1.0000000000
 1565.1250000 21.024200439 -9999.000000 3.0000000000 15.000000000 143.00000000 1.0000000000
 1565.2500000 18.241500854 -9999.000000 3.0000000000 15.000000000 143.00000000 1.0000000000
 1565.3750000 15.458700180 -9999.000000 3.0000000000 15.000000000 143.00000000 1.0000000000
 1565.5000000 12.675999641 -9999.000000 3.0000000000 15.000000000 143.00000000 1.0000000000
 1565.6250000 11.639699936 -9999.000000 3.0000000000 15.000000000 143.00000000 1.0000000000
 1565.7500000 10.603500366 -9999.000000 3.0000000000 15.000000000 143.00000000 1.0000000000
 1565.8750000 9.5672998428 -9999.000000 3.0000000000 15.000000000 143.00000000 1.0000000000
 1566.0000000 8.5310001373 -9999.000000  -999.250000 0.1000000015 0.1000000015 0.0000000000
 1566.1250000 8.2678003311 -9999.000000  -999.250000 0.1000000015 0.1000000015 0.0000000000
 1566.2500000 8.0045003891 -9999.000000  -999.250000 0.1000000015 0.1000000015 0.0000000000
 1566.3750000 7.7413001060 -9999.000000  -999.250000 0.1000000015 0.1000000015 0.0000000000
 1566.5000000 7.4780001640 -9999.000000  -999.250000 0.1000000015 0.1000000015 0.0000000000
 1566.6250000 10.184000015 -9999.000000  -999.250000 0.1000000015 0.1000000015 0.0000000000
 1566.7500000 12.890000343 -9999.000000 4.0000000000 20.000000000 333.00000000 1.0000000000
 1566.8750000 15.595999718 -9999.000000 4.0000000000 20.000000000 333.00000000 1.0000000000
 1567.0000000 18.302000046 -9999.000000 4.0000000000 20.000000000 333.00000000 1.0000000000
 1567.1250000 21.714000702 -9999.000000 4.0000000000 20.000000000 333.00000000 1.0000000000
 1567.2500000 25.125999451 -9999.000000 4.0000000000 20.000000000 333.00000000 1.0000000000
