# LAS format log file from PETREL
# Project units are specified as depth units
#==================================================================
~Version information
VERS.   2.0:
WRAP.   NO:
#==================================================================
~Well
STRT .m      1480.0000000 :
STOP .m      1820.0000000 :
STEP .m     0.12500000 :
NULL .        -999.250000 :
COMP.           : COMPANY
WELL.  5-0165   : WELL
FLD.            : FIELD
LOC.            : LOCATION
SRVC.           : SERVICE COMPANY
DATE.  2020-03-08 09:25:09   : Log Export Date {yyyy-MM-dd HH:mm:ss}
PROV.           : PROVINCE
UWI.      : UNIQUE WELL ID
API.            : API NUMBER
#==================================================================
~Curve
DEPT .m                   : DEPTH
RT .ohm.m                 : RT
SP .                      : SP
Fluids .                  : Fluids
POR .m3/m3                : POR
PERM .mD                  : PERM
Lith .                    : Lith
~Parameter
#==================================================================
~Ascii
# ...
 1632.2500000 2.8420000076 47.119998932 4.0000000000 22.000000000 3016.0000000 1.0000000000
 1632.3750000 2.8670001030 46.902000427 4.0000000000 22.000000000 3016.0000000 1.0000000000
 1632.5000000 2.9260001183 46.672000885 4.0000000000 22.000000000 3016.0000000 1.0000000000
 1632.6250000 3.0230000019 46.437000275 4.0000000000 22.000000000 3016.0000000 1.0000000000
 1632.7500000 2.8239998817 46.206001282 4.0000000000 22.000000000 3016.0000000 1.0000000000
 1632.8750000 2.5929999352 45.981998444 4.0000000000 22.000000000 3016.0000000 1.0000000000
 1633.0000000 2.7690000534 45.770999908 4.0000000000 22.000000000 3016.0000000 1.0000000000
 1633.1250000 2.8519999981 45.569999695 4.0000000000 22.000000000 3016.0000000 1.0000000000
 1633.2500000 2.8619999886 45.376998901 4.0000000000 22.000000000 3016.0000000 1.0000000000
 1633.3750000 2.9670000076 45.192001343 4.0000000000 22.000000000 3016.0000000 1.0000000000
 1633.5000000 3.0350000858 45.013999939 4.0000000000 22.000000000 3016.0000000 1.0000000000
 1633.6250000 3.0539999008 44.847000122 4.0000000000 22.000000000 3016.0000000 1.0000000000
 1633.7500000 2.8919999599 44.691001892 4.0000000000 22.000000000 3016.0000000 1.0000000000
 1633.8750000 2.6870000362 44.548000336 4.0000000000 22.000000000 3016.0000000 1.0000000000
 1634.0000000 2.6280000210 44.417999268 4.0000000000 22.000000000 3016.0000000 1.0000000000
 1634.1250000 2.7030000687 44.300998688 4.0000000000 22.000000000 3016.0000000 1.0000000000
 1634.2500000 2.7860000134 44.194000244 4.0000000000 22.000000000 3016.0000000 1.0000000000
 1634.3750000 3.7079999447 44.099998474 4.0000000000 22.000000000 3016.0000000 1.0000000000
 1634.5000000 4.0419998169 44.018001556 4.0000000000 22.000000000 3016.0000000 1.0000000000
 1634.6250000 4.1640000343 43.952999115 4.0000000000 22.000000000 3016.0000000 1.0000000000
 1634.7500000 4.0359997749 43.902999878 4.0000000000 22.000000000 3016.0000000 1.0000000000
 1634.8750000 3.8469998837 43.870998383 4.0000000000 22.000000000 3016.0000000 1.0000000000
 1635.0000000 3.7780001163 43.852001190 4.0000000000 22.000000000 3016.0000000 1.0000000000
 1635.1250000 3.9730000496 43.846000671 4.0000000000 22.000000000 3016.0000000 1.0000000000
 1635.2500000 4.1259999275 43.852001190 4.0000000000 22.000000000 3016.0000000 1.0000000000
 1635.3750000 4.6090002060 43.873001099 4.0000000000 22.000000000 3016.0000000 1.0000000000
 1635.5000000 5.2439999580 43.908000946 4.0000000000 22.000000000 3016.0000000 1.0000000000
 1635.6250000 5.4450001717 43.958000183 4.0000000000 22.000000000 3016.0000000 1.0000000000
 1635.7500000 5.1519999504 44.019001007 4.0000000000 22.000000000 3016.0000000 1.0000000000
 1635.8750000 4.5339999199 44.087001801 4.0000000000 22.000000000 3016.0000000 1.0000000000
 1636.0000000 3.5429999828 44.157001495 4.0000000000 22.000000000 3016.0000000 1.0000000000
 1636.1250000 2.9270000458 44.227001190 4.0000000000 22.000000000 3016.0000000 1.0000000000
 1636.2500000 2.6830000877 44.293998718 4.0000000000 22.000000000 3016.0000000 1.0000000000
 1636.3750000 2.6689999104 44.362998962 4.0000000000 22.000000000 3016.0000000 1.0000000000
 1636.5000000 3.1280000210 44.437999725 4.0000000000 22.000000000 3016.0000000 1.0000000000
 1636.6250000 3.4309999943 44.520999908 4.0000000000 22.000000000 3016.0000000 1.0000000000
 1636.7500000 3.5620000362 44.617000580 4.0000000000 22.000000000 3016.0000000 1.0000000000
 1636.8750000 3.4549999237 44.722999573 4.0000000000 22.000000000 3016.0000000 1.0000000000
 1637.0000000 3.1879999638 44.839000702 4.0000000000 22.000000000 3016.0000000 1.0000000000
 1637.1250000 3.0179998875 44.960998535 4.0000000000 22.000000000 3016.0000000 1.0000000000
 1637.2500000 2.9719998837 45.088001251 4.0000000000 22.000000000 3016.0000000 1.0000000000
 1637.3750000 3.0490000248 45.215000153 4.0000000000 22.000000000 3016.0000000 1.0000000000
 1637.5000000 3.6779999733 45.340999603 4.0000000000 22.000000000 3016.0000000 1.0000000000
 1637.6250000 4.0000000000 45.464000702 4.0000000000 22.000000000 3016.0000000 1.0000000000
 1637.7500000 4.2659997940 45.583999634 4.0000000000 22.000000000 3016.0000000 1.0000000000
 1637.8750000 4.4159998894 45.702999115 4.0000000000 22.000000000 3016.0000000 1.0000000000
 1638.0000000 4.5260000229 45.819999695 4.0000000000 22.000000000 3016.0000000 1.0000000000
 1638.1250000 4.5729999542 45.936000824 4.0000000000 22.000000000 3016.0000000 1.0000000000
 1638.2500000 4.5040001869 46.047000885 4.0000000000 22.000000000 3016.0000000 1.0000000000
 1638.3750000 4.4149999619 46.151000977 4.0000000000 22.000000000 3016.0000000 1.0000000000
 1638.5000000 4.3200001717 46.243999481 4.0000000000 22.000000000 3016.0000000 1.0000000000
 1638.6250000 4.2589998245 46.326999664 4.0000000000 22.000000000 3016.0000000 1.0000000000
 1638.7500000 4.2600002289 46.402000427 4.0000000000 22.000000000 3016.0000000 1.0000000000
 1638.8750000 4.2109999657 46.471000671 4.0000000000 22.000000000 3016.0000000 1.0000000000
 1639.0000000 4.0599999428 46.536998749 4.0000000000 22.000000000 3016.0000000 1.0000000000
 1639.1250000 4.2459998131 46.599998474 4.0000000000 22.000000000 3016.0000000 1.0000000000
 1639.2500000 4.4229998589 46.655998230 4.0000000000 22.000000000 3016.0000000 1.0000000000
 1639.3750000 4.4099998474 46.701999664 4.0000000000 22.000000000 3016.0000000 1.0000000000
 1639.5000000 4.2069997787 46.731998444 4.0000000000 22.000000000 3016.0000000 1.0000000000
 1639.6250000 3.8359999657 46.744998932 4.0000000000 22.000000000 3016.0000000 1.0000000000
 1639.7500000 3.1849999428 46.740001678 4.0000000000 22.000000000 3016.0000000 1.0000000000
 1639.8750000 2.8220000267 46.719001770 4.0000000000 22.000000000 3016.0000000 1.0000000000
 1640.0000000 2.7799999714 46.686000824 4.0000000000 22.000000000 3016.0000000 1.0000000000
 1640.1250000 2.5469999313 46.641998291 4.0000000000 22.000000000 3016.0000000 1.0000000000
 1640.2500000 2.3099999428 46.588001251 4.0000000000 22.000000000 3016.0000000 1.0000000000
 1640.3750000 2.0580000877 46.520999908  -999.250000 0.1000000015 0.1000000015 0.0000000000
 1640.5000000 1.7940000296 46.441001892  -999.250000 0.1000000015 0.1000000015 0.0000000000
 1640.6250000 1.5030000210 46.348999023 4.0000000000 15.000000000 512.00000000 1.0000000000
 1640.7500000 2.2999999523 46.248001099 4.0000000000 15.000000000 512.00000000 1.0000000000
 1640.8750000 2.3099999428 46.143001556 4.0000000000 15.000000000 512.00000000 1.0000000000
 1641.0000000 3.5069999695 46.036998749 4.0000000000 15.000000000 512.00000000 1.0000000000
 1641.1250000 4.5560002327 45.936000824 4.0000000000 15.000000000 512.00000000 1.0000000000
 1641.2500000 5.2399997711 45.842998505 4.0000000000 15.000000000 512.00000000 1.0000000000
 1641.3750000 5.3619999886 45.759998322 4.0000000000 15.000000000 512.00000000 1.0000000000
 1641.5000000 5.0489997864 45.688999176 4.0000000000 15.000000000 512.00000000 1.0000000000
 1641.6250000 4.5260000229 45.627998352 4.0000000000 15.000000000 512.00000000 1.0000000000
 1641.7500000 4.2620000839 45.575000763 4.0000000000 15.000000000 512.00000000 1.0000000000
 1641.8750000 3.9119999409 45.528999329 4.0000000000 15.000000000 512.00000000 1.0000000000
 1642.0000000 3.5329999924 45.491001129 4.0000000000 15.000000000 512.00000000 1.0000000000
 1642.1250000 3.0239999294 45.463001251 4.0000000000 15.000000000 512.00000000 1.0000000000
 1642.2500000 2.6570000648 45.448001862 4.0000000000 15.000000000 512.00000000 1.0000000000
 1642.3750000 2.5529999733 45.445999146 4.0000000000 15.000000000 512.00000000 1.0000000000
 1642.5000000 2.4800000191 45.455001831 4.0000000000 15.000000000 512.00000000 1.0000000000
 1642.6250000 2.4130001068 45.473999023 4.0000000000 15.000000000 512.00000000 1.0000000000
 1642.7500000 2.3589999676 45.499000549 4.0000000000 15.000000000 512.00000000 1.0000000000
 1642.8750000 2.5420000553 45.527999878 4.0000000000 15.000000000 512.00000000 1.0000000000
 1643.0000000 2.4530000687 45.561000824 4.0000000000 15.000000000 512.00000000 1.0000000000
