# LAS format log file from PETREL
# Project units are specified as depth units
#==================================================================
~Version information
VERS.   2.0:
WRAP.   NO:
#==================================================================
~Well
STRT .m      745.00000000 :
STOP .m      1730.0000000 :
STEP .m     0.12500000 :
NULL .        -999.250000 :
COMP.           : COMPANY
WELL.  5-0158   : WELL
FLD.            : FIELD
LOC.            : LOCATION
SRVC.           : SERVICE COMPANY
DATE.  2020-03-08 09:25:08   : Log Export Date {yyyy-MM-dd HH:mm:ss}
PROV.           : PROVINCE
UWI.      : UNIQUE WELL ID
API.            : API NUMBER
#==================================================================
~Curve
DEPT .m                   : DEPTH
RT .ohm.m                 : RT
SP .                      : SP
Fluids .                  : Fluids
POR .m3/m3                : POR
PERM .mD                  : PERM
Lith .                    : Lith
~Parameter
#==================================================================
~Ascii
# ...
 1647.6250000 29.347799301 -9999.000000 4.0000000000 15.000000000 138.00000000 1.0000000000
 1647.7500000 28.199499130 -9999.000000 4.0000000000 15.000000000 138.00000000 1.0000000000
 1647.8750000 27.051200867 -9999.000000 4.0000000000 15.000000000 138.00000000 1.0000000000
 1648.0000000 25.902999878 -9999.000000 4.0000000000 15.000000000 138.00000000 1.0000000000
 1648.1250000 31.547700882 -9999.000000 4.0000000000 15.000000000 138.00000000 1.0000000000
 1648.2500000 37.192501068 -9999.000000 4.0000000000 15.000000000 138.00000000 1.0000000000
 1648.3750000 42.837200165 -9999.000000 4.0000000000 15.000000000 138.00000000 1.0000000000
 1648.5000000 48.481998444 -9999.000000 4.0000000000 15.000000000 138.00000000 1.0000000000
 1648.6250000 44.682498932 -9999.000000 4.0000000000 15.000000000 138.00000000 1.0000000000
 1648.7500000 40.882999420 -9999.000000 4.0000000000 15.000000000 138.00000000 1.0000000000
 1648.8750000 37.083499908 -9999.000000 4.0000000000 15.000000000 138.00000000 1.0000000000
 1649.0000000 33.284000397 -9999.000000 4.0000000000 15.000000000 138.00000000 1.0000000000
 1649.1250000 31.832799911 -9999.000000 4.0000000000 15.000000000 138.00000000 1.0000000000
 1649.2500000 30.381500244 -9999.000000 4.0000000000 15.000000000 138.00000000 1.0000000000
 1649.3750000 28.930299759 -9999.000000 4.0000000000 15.000000000 138.00000000 1.0000000000
 1649.5000000 27.479000092 -9999.000000 4.0000000000 15.000000000 138.00000000 1.0000000000
 1649.6250000 28.243200302 -9999.000000 4.0000000000 15.000000000 138.00000000 1.0000000000
 1649.7500000 29.007499695 -9999.000000 4.0000000000 15.000000000 138.00000000 1.0000000000
 1649.8750000 29.771699905 -9999.000000 4.0000000000 15.000000000 138.00000000 1.0000000000
 1650.0000000 30.535999298 -9999.000000 4.0000000000 15.000000000 138.00000000 1.0000000000
 1650.1250000 32.703498840 -9999.000000 4.0000000000 15.000000000 138.00000000 1.0000000000
 1650.2500000 34.870998383 -9999.000000 4.0000000000 15.000000000 138.00000000 1.0000000000
 1650.3750000 37.038501740 -9999.000000 4.0000000000 15.000000000 138.00000000 1.0000000000
 1650.5000000 39.206001282 -9999.000000 4.0000000000 15.000000000 138.00000000 1.0000000000
 1650.6250000 42.111000061 -9999.000000 4.0000000000 15.000000000 138.00000000 1.0000000000
 1650.7500000 45.015998840 -9999.000000 4.0000000000 15.000000000 138.00000000 1.0000000000
 1650.8750000 47.921001434 -9999.000000 4.0000000000 15.000000000 138.00000000 1.0000000000
 1651.0000000 50.826000214 -9999.000000 4.0000000000 15.000000000 138.00000000 1.0000000000
 1651.1250000 56.047500610 -9999.000000 4.0000000000 15.000000000 138.00000000 1.0000000000
 1651.2500000 61.269001007 -9999.000000 4.0000000000 15.000000000 138.00000000 1.0000000000
 1651.3750000 66.490501404 -9999.000000 4.0000000000 15.000000000 138.00000000 1.0000000000
 1651.5000000 71.711997986 -9999.000000 4.0000000000 15.000000000 138.00000000 1.0000000000
 1651.6250000 72.297203064 -9999.000000 4.0000000000 15.000000000 138.00000000 1.0000000000
 1651.7500000 72.882499695 -9999.000000 4.0000000000 15.000000000 138.00000000 1.0000000000
 1651.8750000 73.467796326 -9999.000000 4.0000000000 15.000000000 138.00000000 1.0000000000
 1652.0000000 74.053001404 -9999.000000 4.0000000000 15.000000000 138.00000000 1.0000000000
 1652.1250000 63.601799011 -9999.000000 4.0000000000 15.000000000 138.00000000 1.0000000000
 1652.2500000 53.150501251 -9999.000000 4.0000000000 15.000000000 138.00000000 1.0000000000
 1652.3750000 42.699298859 -9999.000000 4.0000000000 15.000000000 138.00000000 1.0000000000
 1652.5000000 32.248001099 -9999.000000 4.0000000000 15.000000000 138.00000000 1.0000000000
 1652.6250000 34.029998779 -9999.000000 4.0000000000 15.000000000 138.00000000 1.0000000000
 1652.7500000 35.812000275 -9999.000000 4.0000000000 15.000000000 138.00000000 1.0000000000
 1652.8750000 37.594001770 -9999.000000 4.0000000000 15.000000000 138.00000000 1.0000000000
 1653.0000000 39.375999451 -9999.000000 4.0000000000 15.000000000 138.00000000 1.0000000000
 1653.1250000 42.068199158 -9999.000000 4.0000000000 15.000000000 138.00000000 1.0000000000
 1653.2500000 44.760501862 -9999.000000 4.0000000000 15.000000000 138.00000000 1.0000000000
 1653.3750000 47.452800751 -9999.000000 4.0000000000 15.000000000 138.00000000 1.0000000000
 1653.5000000 50.145000458 -9999.000000 4.0000000000 15.000000000 138.00000000 1.0000000000
 1653.6250000 44.986999512 -9999.000000 4.0000000000 15.000000000 138.00000000 1.0000000000
 1653.7500000 39.828998566 -9999.000000 4.0000000000 15.000000000 138.00000000 1.0000000000
 1653.8750000 34.671001434 -9999.000000 4.0000000000 15.000000000 138.00000000 1.0000000000
 1654.0000000 29.513000488 -9999.000000 4.0000000000 15.000000000 138.00000000 1.0000000000
 1654.1250000 31.837499619 -9999.000000 4.0000000000 15.000000000 138.00000000 1.0000000000
 1654.2500000 34.161998749 -9999.000000 4.0000000000 15.000000000 138.00000000 1.0000000000
 1654.3750000 36.486499786 -9999.000000 4.0000000000 15.000000000 138.00000000 1.0000000000
 1654.5000000 38.811000824 -9999.000000 4.0000000000 15.000000000 138.00000000 1.0000000000
 1654.6250000 40.955299377 -9999.000000 4.0000000000 15.000000000 138.00000000 1.0000000000
 1654.7500000 43.099498749 -9999.000000 4.0000000000 15.000000000 138.00000000 1.0000000000
 1654.8750000 45.243801117 -9999.000000 4.0000000000 15.000000000 138.00000000 1.0000000000
 1655.0000000 47.388000488 -9999.000000 4.0000000000 15.000000000 138.00000000 1.0000000000
 1655.1250000 48.916000366 -9999.000000 4.0000000000 15.000000000 138.00000000 1.0000000000
 1655.2500000 50.444000244 -9999.000000 4.0000000000 15.000000000 138.00000000 1.0000000000
 1655.3750000 51.972000122 -9999.000000 4.0000000000 15.000000000 138.00000000 1.0000000000
 1655.5000000 53.500000000 -9999.000000 4.0000000000 15.000000000 138.00000000 1.0000000000
 1655.6250000 55.334300995 -9999.000000 4.0000000000 15.000000000 138.00000000 1.0000000000
 1655.7500000 57.168498993 -9999.000000 4.0000000000 15.000000000 138.00000000 1.0000000000
 1655.8750000 59.002799988 -9999.000000 4.0000000000 15.000000000 138.00000000 1.0000000000
 1656.0000000 60.837001801 -9999.000000 4.0000000000 15.000000000 138.00000000 1.0000000000
 1656.1250000 53.006000519 -9999.000000 4.0000000000 15.000000000 138.00000000 1.0000000000
 1656.2500000 45.174999237 -9999.000000 4.0000000000 15.000000000 138.00000000 1.0000000000
 1656.3750000 37.344001770 -9999.000000 4.0000000000 15.000000000 138.00000000 1.0000000000
 1656.5000000 29.513000488 -9999.000000 4.0000000000 15.000000000 138.00000000 1.0000000000
 1656.6250000 30.143499374 -9999.000000 4.0000000000 15.000000000 138.00000000 1.0000000000
 1656.7500000 30.774000168 -9999.000000 4.0000000000 15.000000000 138.00000000 1.0000000000
 1656.8750000 31.404499054 -9999.000000 4.0000000000 15.000000000 138.00000000 1.0000000000
 1657.0000000 32.034999847 -9999.000000 4.0000000000 15.000000000 138.00000000 1.0000000000
 1657.1250000 47.097198486 -9999.000000 4.0000000000 15.000000000 138.00000000 1.0000000000
 1657.2500000 62.159500122 -9999.000000 4.0000000000 15.000000000 138.00000000 1.0000000000
 1657.3750000 77.221702576 -9999.000000 4.0000000000 15.000000000 138.00000000 1.0000000000
 1657.5000000 92.283996582 -9999.000000 4.0000000000 15.000000000 138.00000000 1.0000000000
 1657.6250000 97.635696411 -9999.000000 4.0000000000 15.000000000 138.00000000 1.0000000000
 1657.7500000 102.98750305 -9999.000000 4.0000000000 15.000000000 138.00000000 1.0000000000
 1657.8750000 108.33930206 -9999.000000 4.0000000000 15.000000000 138.00000000 1.0000000000
 1658.0000000 113.69100189 -9999.000000 4.0000000000 15.000000000 138.00000000 1.0000000000
 1658.1250000 110.85449982 -9999.000000 4.0000000000 15.000000000 138.00000000 1.0000000000
 1658.2500000 108.01799774 -9999.000000 4.0000000000 15.000000000 138.00000000 1.0000000000
 1658.3750000 105.18150330 -9999.000000 4.0000000000 15.000000000 138.00000000 1.0000000000
