# LAS format log file from PETREL
# Project units are specified as depth units
#==================================================================
~Version information
VERS.   2.0:
WRAP.   NO:
#==================================================================
~Well
STRT .m      1480.0000000 :
STOP .m      1820.0000000 :
STEP .m     0.12500000 :
NULL .        -999.250000 :
COMP.           : COMPANY
WELL.  5-0165   : WELL
FLD.            : FIELD
LOC.            : LOCATION
SRVC.           : SERVICE COMPANY
DATE.  2020-03-08 09:25:09   : Log Export Date {yyyy-MM-dd HH:mm:ss}
PROV.           : PROVINCE
UWI.      : UNIQUE WELL ID
API.            : API NUMBER
#==================================================================
~Curve
DEPT .m                   : DEPTH
RT .ohm.m                 : RT
SP .                      : SP
Fluids .                  : Fluids
POR .m3/m3                : POR
PERM .mD                  : PERM
Lith .                    : Lith
~Parameter
#==================================================================
~Ascii
# ...
 1610.5000000 2.9800000191 55.145999908 4.0000000000 22.000000000 3016.0000000 1.0000000000
 1610.6250000 3.4300000668 55.145999908 4.0000000000 22.000000000 3016.0000000 1.0000000000
 1610.7500000 3.8599998951 55.145999908 4.0000000000 22.000000000 3016.0000000 1.0000000000
 1610.8750000 3.5829999447 55.145999908 4.0000000000 22.000000000 3016.0000000 1.0000000000
 1611.0000000 3.0629999638 55.145999908 4.0000000000 22.000000000 3016.0000000 1.0000000000
 1611.1250000 3.0350000858 55.145999908 4.0000000000 22.000000000 3016.0000000 1.0000000000
 1611.2500000 3.5910000801 55.145999908 4.0000000000 22.000000000 3016.0000000 1.0000000000
 1611.3750000 4.0110001564 55.145999908 4.0000000000 22.000000000 3016.0000000 1.0000000000
 1611.5000000 4.6830000877 55.145999908 4.0000000000 22.000000000 3016.0000000 1.0000000000
 1611.6250000 4.7600002289 55.145999908 4.0000000000 22.000000000 3016.0000000 1.0000000000
 1611.7500000 4.7649998665 55.145999908 4.0000000000 22.000000000 3016.0000000 1.0000000000
 1611.8750000 4.7849998474 55.145999908 4.0000000000 22.000000000 3016.0000000 1.0000000000
 1612.0000000 4.8270001411 55.145999908 4.0000000000 22.000000000 3016.0000000 1.0000000000
 1612.1250000 5.1620001793 55.145999908 4.0000000000 22.000000000 3016.0000000 1.0000000000
 1612.2500000 5.3200001717 55.150001526 4.0000000000 22.000000000 3016.0000000 1.0000000000
 1612.3750000 5.3569998741 55.158000946 4.0000000000 22.000000000 3016.0000000 1.0000000000
 1612.5000000 5.3260002136 55.172000885 4.0000000000 22.000000000 3016.0000000 1.0000000000
 1612.6250000 4.9489998817 55.189998627 4.0000000000 22.000000000 3016.0000000 1.0000000000
 1612.7500000 4.1560001373 55.210998535 4.0000000000 22.000000000 3016.0000000 1.0000000000
 1612.8750000 3.1449999809 55.229999542 4.0000000000 22.000000000 3016.0000000 1.0000000000
 1613.0000000 2.9489998817 55.243999481 4.0000000000 22.000000000 3016.0000000 1.0000000000
 1613.1250000 3.0620000362 55.250999451 4.0000000000 22.000000000 3016.0000000 1.0000000000
 1613.2500000 3.4460000992 55.251998901 4.0000000000 22.000000000 3016.0000000 1.0000000000
 1613.3750000 4.3169999123 55.247001648 4.0000000000 22.000000000 3016.0000000 1.0000000000
 1613.5000000 4.8699998856 55.237998962 4.0000000000 22.000000000 3016.0000000 1.0000000000
 1613.6250000 5.1050000191 55.224998474 4.0000000000 22.000000000 3016.0000000 1.0000000000
 1613.7500000 4.8660001755 55.208000183 4.0000000000 22.000000000 3016.0000000 1.0000000000
 1613.8750000 4.6659998894 55.192001343 4.0000000000 22.000000000 3016.0000000 1.0000000000
 1614.0000000 4.6160001755 55.175998688 4.0000000000 22.000000000 3016.0000000 1.0000000000
 1614.1250000 4.9759998322 55.164001465 4.0000000000 22.000000000 3016.0000000 1.0000000000
 1614.2500000 5.3810000420 55.153999329 4.0000000000 22.000000000 3016.0000000 1.0000000000
 1614.3750000 5.5430002213 55.150001526 4.0000000000 22.000000000 3016.0000000 1.0000000000
 1614.5000000 5.5060000420 55.151000977 4.0000000000 22.000000000 3016.0000000 1.0000000000
 1614.6250000 5.2760000229 55.159000397 4.0000000000 22.000000000 3016.0000000 1.0000000000
 1614.7500000 4.7800002098 55.173000336 4.0000000000 22.000000000 3016.0000000 1.0000000000
 1614.8750000 3.8269999027 55.192001343 4.0000000000 22.000000000 3016.0000000 1.0000000000
 1615.0000000 3.6500000954 55.213001251 4.0000000000 22.000000000 3016.0000000 1.0000000000
 1615.1250000 3.6210000515 55.230998993 4.0000000000 22.000000000 3016.0000000 1.0000000000
 1615.2500000 4.0089998245 55.244998932 4.0000000000 22.000000000 3016.0000000 1.0000000000
 1615.3750000 4.9120001793 55.251998901 4.0000000000 22.000000000 3016.0000000 1.0000000000
 1615.5000000 6.0269999504 55.255001068 4.0000000000 22.000000000 3016.0000000 1.0000000000
 1615.6250000 6.3200001717 55.256000519 4.0000000000 22.000000000 3016.0000000 1.0000000000
 1615.7500000 6.4120001793 55.255001068 4.0000000000 22.000000000 3016.0000000 1.0000000000
 1615.8750000 6.0329999924 55.250999451 4.0000000000 22.000000000 3016.0000000 1.0000000000
 1616.0000000 5.6710000038 55.242000580 4.0000000000 22.000000000 3016.0000000 1.0000000000
 1616.1250000 5.5409998894 55.228000641 4.0000000000 22.000000000 3016.0000000 1.0000000000
 1616.2500000 5.4260001183 55.208000183 4.0000000000 22.000000000 3016.0000000 1.0000000000
 1616.3750000 5.1490001678 55.187999725 4.0000000000 22.000000000 3016.0000000 1.0000000000
 1616.5000000 5.0450000763 55.169998169 4.0000000000 22.000000000 3016.0000000 1.0000000000
 1616.6250000 5.2160000801 55.157001495 4.0000000000 22.000000000 3016.0000000 1.0000000000
 1616.7500000 5.3499999046 55.148998260 4.0000000000 22.000000000 3016.0000000 1.0000000000
 1616.8750000 5.4369997978 55.145999908 4.0000000000 22.000000000 3016.0000000 1.0000000000
 1617.0000000 5.4860000610 55.145999908 4.0000000000 22.000000000 3016.0000000 1.0000000000
 1617.1250000 4.5019998550 55.146999359 4.0000000000 22.000000000 3016.0000000 1.0000000000
 1617.2500000 3.0780000687 55.151000977 4.0000000000 22.000000000 3016.0000000 1.0000000000
 1617.3750000 2.8399999142 55.160999298 4.0000000000 22.000000000 3016.0000000 1.0000000000
 1617.5000000 2.7330000401 55.174999237 4.0000000000 22.000000000 3016.0000000 1.0000000000
 1617.6250000 3.2309999466 55.195999146 4.0000000000 22.000000000 3016.0000000 1.0000000000
 1617.7500000 3.9210000038 55.219001770 4.0000000000 22.000000000 3016.0000000 1.0000000000
 1617.8750000 4.8200001717 55.242000580 4.0000000000 22.000000000 3016.0000000 1.0000000000
 1618.0000000 5.3880000114 55.259998322 4.0000000000 22.000000000 3016.0000000 1.0000000000
 1618.1250000 5.4460000992 55.270999908 4.0000000000 22.000000000 3016.0000000 1.0000000000
 1618.2500000 5.2960000038 55.275001526 4.0000000000 22.000000000 3016.0000000 1.0000000000
 1618.3750000 5.3550000191 55.272998810 4.0000000000 22.000000000 3016.0000000 1.0000000000
 1618.5000000 5.0130000114 55.269001007 4.0000000000 22.000000000 3016.0000000 1.0000000000
 1618.6250000 5.0120000839 55.263000488 4.0000000000 22.000000000 3016.0000000 1.0000000000
 1618.7500000 5.2379999161 55.257999420 4.0000000000 22.000000000 3016.0000000 1.0000000000
 1618.8750000 5.6129999161 55.256000519 4.0000000000 22.000000000 3016.0000000 1.0000000000
 1619.0000000 5.9260001183 55.254001617 4.0000000000 22.000000000 3016.0000000 1.0000000000
 1619.1250000 6.3639998436 55.250999451 4.0000000000 22.000000000 3016.0000000 1.0000000000
 1619.2500000 6.4990000725 55.245998383 4.0000000000 22.000000000 3016.0000000 1.0000000000
 1619.3750000 6.6449999809 55.241001129 4.0000000000 22.000000000 3016.0000000 1.0000000000
 1619.5000000 6.7709999084 55.236000061 4.0000000000 22.000000000 3016.0000000 1.0000000000
 1619.6250000 6.8779997826 55.236000061 4.0000000000 22.000000000 3016.0000000 1.0000000000
 1619.7500000 6.8670001030 55.237998962 4.0000000000 22.000000000 3016.0000000 1.0000000000
 1619.8750000 6.5819997787 55.243999481 4.0000000000 22.000000000 3016.0000000 1.0000000000
 1620.0000000 6.2979998589 55.249000549 4.0000000000 22.000000000 3016.0000000 1.0000000000
 1620.1250000 5.8569998741 55.252998352 4.0000000000 22.000000000 3016.0000000 1.0000000000
 1620.2500000 5.2800002098 55.254001617 4.0000000000 22.000000000 3016.0000000 1.0000000000
 1620.3750000 4.8860001564 55.250000000 4.0000000000 22.000000000 3016.0000000 1.0000000000
 1620.5000000 4.8540000916 55.240001678 4.0000000000 22.000000000 3016.0000000 1.0000000000
 1620.6250000 4.9739999771 55.223999023 4.0000000000 22.000000000 3016.0000000 1.0000000000
 1620.7500000 5.2160000801 55.205001831 4.0000000000 22.000000000 3016.0000000 1.0000000000
 1620.8750000 5.4330000877 55.185001373 4.0000000000 22.000000000 3016.0000000 1.0000000000
 1621.0000000 5.5310001373 55.166000366 4.0000000000 22.000000000 3016.0000000 1.0000000000
 1621.1250000 5.5159997940 55.148998260 4.0000000000 22.000000000 3016.0000000 1.0000000000
 1621.2500000 5.5560002327 55.131999969 4.0000000000 22.000000000 3016.0000000 1.0000000000
