# LAS format log file from PETREL
# Project units are specified as depth units
#==================================================================
~Version information
VERS.   2.0:
WRAP.   NO:
#==================================================================
~Well
STRT .m      745.00000000 :
STOP .m      1730.0000000 :
STEP .m     0.12500000 :
NULL .        -999.250000 :
COMP.           : COMPANY
WELL.  5-0158   : WELL
FLD.            : FIELD
LOC.            : LOCATION
SRVC.           : SERVICE COMPANY
DATE.  2020-03-08 09:25:08   : Log Export Date {yyyy-MM-dd HH:mm:ss}
PROV.           : PROVINCE
UWI.      : UNIQUE WELL ID
API.            : API NUMBER
#==================================================================
~Curve
DEPT .m                   : DEPTH
RT .ohm.m                 : RT
SP .                      : SP
Fluids .                  : Fluids
POR .m3/m3                : POR
PERM .mD                  : PERM
Lith .                    : Lith
~Parameter
#==================================================================
~Ascii
# ...
 1571.5000000 21.594999313 -9999.000000 2.0000000000 19.000000000 304.00000000 1.0000000000
 1571.6250000 22.636699677 -9999.000000 2.0000000000 19.000000000 304.00000000 1.0000000000
 1571.7500000 23.678499222 -9999.000000 2.0000000000 19.000000000 304.00000000 1.0000000000
 1571.8750000 24.720199585 -9999.000000 2.0000000000 19.000000000 304.00000000 1.0000000000
 1572.0000000 25.761999130 -9999.000000 2.0000000000 19.000000000 304.00000000 1.0000000000
 1572.1250000 22.096200943 -9999.000000 2.0000000000 19.000000000 304.00000000 1.0000000000
 1572.2500000 18.430500031 -9999.000000 2.0000000000 19.000000000 304.00000000 1.0000000000
 1572.3750000 14.764699936 -9999.000000 2.0000000000 19.000000000 304.00000000 1.0000000000
 1572.5000000 11.098999977 -9999.000000 2.0000000000 19.000000000 304.00000000 1.0000000000
 1572.6250000 15.076999664 -9999.000000 2.0000000000 19.000000000 304.00000000 1.0000000000
 1572.7500000 19.055000305 -9999.000000 2.0000000000 19.000000000 304.00000000 1.0000000000
 1572.8750000 23.033000946 -9999.000000 2.0000000000 19.000000000 304.00000000 1.0000000000
 1573.0000000 27.010999680 -9999.000000 2.0000000000 19.000000000 304.00000000 1.0000000000
 1573.1250000 27.749200821 -9999.000000 2.0000000000 19.000000000 304.00000000 1.0000000000
 1573.2500000 28.487499237 -9999.000000 2.0000000000 19.000000000 304.00000000 1.0000000000
 1573.3750000 29.225799561 -9999.000000 2.0000000000 19.000000000 304.00000000 1.0000000000
 1573.5000000 29.964000702 -9999.000000 2.0000000000 19.000000000 304.00000000 1.0000000000
 1573.6250000 26.692300797 -9999.000000 2.0000000000 19.000000000 304.00000000 1.0000000000
 1573.7500000 23.420499802 -9999.000000 2.0000000000 19.000000000 304.00000000 1.0000000000
 1573.8750000 20.148799896 -9999.000000 2.0000000000 19.000000000 304.00000000 1.0000000000
 1574.0000000 16.877000809 -9999.000000 2.0000000000 19.000000000 304.00000000 1.0000000000
 1574.1250000 15.675999641 -9999.000000 2.0000000000 19.000000000 304.00000000 1.0000000000
 1574.2500000 14.475000381 -9999.000000 2.0000000000 19.000000000 304.00000000 1.0000000000
 1574.3750000 13.274000168 -9999.000000 2.0000000000 19.000000000 304.00000000 1.0000000000
 1574.5000000 12.072999954 -9999.000000 2.0000000000 19.000000000 304.00000000 1.0000000000
 1574.6250000 13.241299629 -9999.000000 2.0000000000 19.000000000 304.00000000 1.0000000000
 1574.7500000 14.409500122 -9999.000000 2.0000000000 19.000000000 304.00000000 1.0000000000
 1574.8750000 15.577799797 -9999.000000 2.0000000000 19.000000000 304.00000000 1.0000000000
 1575.0000000 16.746000290 -9999.000000 2.0000000000 19.000000000 304.00000000 1.0000000000
 1575.1250000 17.581800461 -9999.000000 2.0000000000 19.000000000 304.00000000 1.0000000000
 1575.2500000 18.417499542 -9999.000000 2.0000000000 19.000000000 304.00000000 1.0000000000
 1575.3750000 19.253299713 -9999.000000 2.0000000000 19.000000000 304.00000000 1.0000000000
 1575.5000000 20.089000702 -9999.000000 2.0000000000 19.000000000 304.00000000 1.0000000000
 1575.6250000 17.771999359 -9999.000000 2.0000000000 19.000000000 304.00000000 1.0000000000
 1575.7500000 15.454999924 -9999.000000 2.0000000000 19.000000000 304.00000000 1.0000000000
 1575.8750000 13.137999535 -9999.000000 2.0000000000 19.000000000 304.00000000 1.0000000000
 1576.0000000 10.821000099 -9999.000000 2.0000000000 19.000000000 304.00000000 1.0000000000
 1576.1250000 13.956500053 -9999.000000 2.0000000000 19.000000000 304.00000000 1.0000000000
 1576.2500000 17.091999054 -9999.000000 2.0000000000 19.000000000 304.00000000 1.0000000000
 1576.3750000 20.227500916 -9999.000000 2.0000000000 19.000000000 304.00000000 1.0000000000
 1576.5000000 23.363000870 -9999.000000 2.0000000000 19.000000000 304.00000000 1.0000000000
 1576.6250000 19.529499054 -9999.000000 2.0000000000 19.000000000 304.00000000 1.0000000000
 1576.7500000 15.696000099 -9999.000000 2.0000000000 19.000000000 304.00000000 1.0000000000
 1576.8750000 11.862500191 -9999.000000 2.0000000000 19.000000000 304.00000000 1.0000000000
 1577.0000000 8.0290002823 -9999.000000 2.0000000000 19.000000000 304.00000000 1.0000000000
 1577.1250000 10.786299706 -9999.000000 2.0000000000 19.000000000 304.00000000 1.0000000000
 1577.2500000 13.543499947 -9999.000000 2.0000000000 19.000000000 304.00000000 1.0000000000
 1577.3750000 16.300800323 -9999.000000 2.0000000000 19.000000000 304.00000000 1.0000000000
 1577.5000000 19.058000565 -9999.000000 2.0000000000 19.000000000 304.00000000 1.0000000000
 1577.6250000 17.690500259 -9999.000000 2.0000000000 19.000000000 304.00000000 1.0000000000
 1577.7500000 16.322999954 -9999.000000 2.0000000000 19.000000000 304.00000000 1.0000000000
 1577.8750000 14.955499649 -9999.000000 2.0000000000 19.000000000 304.00000000 1.0000000000
 1578.0000000 13.588000298 -9999.000000 2.0000000000 19.000000000 304.00000000 1.0000000000
 1578.1250000 13.429800034 -9999.000000  -999.250000 0.1000000015 0.1000000015 0.0000000000
 1578.2500000 13.271499634 -9999.000000  -999.250000 0.1000000015 0.1000000015 0.0000000000
 1578.3750000 13.113300323 -9999.000000  -999.250000 0.1000000015 0.1000000015 0.0000000000
 1578.5000000 12.954999924 -9999.000000 2.0000000000 18.000000000 290.00000000 1.0000000000
 1578.6250000 17.848199844 -9999.000000 2.0000000000 18.000000000 290.00000000 1.0000000000
 1578.7500000 22.741500854 -9999.000000 2.0000000000 18.000000000 290.00000000 1.0000000000
 1578.8750000 27.634700775 -9999.000000 2.0000000000 18.000000000 290.00000000 1.0000000000
 1579.0000000 32.527999878 -9999.000000 2.0000000000 18.000000000 290.00000000 1.0000000000
 1579.1250000 29.472499847 -9999.000000 2.0000000000 18.000000000 290.00000000 1.0000000000
 1579.2500000 26.416999817 -9999.000000 2.0000000000 18.000000000 290.00000000 1.0000000000
 1579.3750000 23.361499786 -9999.000000 2.0000000000 18.000000000 290.00000000 1.0000000000
 1579.5000000 20.305999756 -9999.000000 2.0000000000 18.000000000 290.00000000 1.0000000000
 1579.6250000 19.559999466 -9999.000000 2.0000000000 18.000000000 290.00000000 1.0000000000
 1579.7500000 18.813999176 -9999.000000 2.0000000000 18.000000000 290.00000000 1.0000000000
 1579.8750000 18.068000793 -9999.000000 2.0000000000 18.000000000 290.00000000 1.0000000000
 1580.0000000 17.322000504 -9999.000000 2.0000000000 18.000000000 290.00000000 1.0000000000
 1580.1250000 17.345500946 -9999.000000 2.0000000000 18.000000000 290.00000000 1.0000000000
 1580.2500000 17.368999481 -9999.000000 2.0000000000 18.000000000 290.00000000 1.0000000000
 1580.3750000 17.392499924 -9999.000000 2.0000000000 18.000000000 290.00000000 1.0000000000
 1580.5000000 17.416000366 -9999.000000 2.0000000000 18.000000000 290.00000000 1.0000000000
 1580.6250000 16.470300674 -9999.000000 2.0000000000 18.000000000 290.00000000 1.0000000000
 1580.7500000 15.524499893 -9999.000000 2.0000000000 18.000000000 290.00000000 1.0000000000
 1580.8750000 14.578800201 -9999.000000 2.0000000000 18.000000000 290.00000000 1.0000000000
 1581.0000000 13.633000374 -9999.000000 2.0000000000 18.000000000 290.00000000 1.0000000000
 1581.1250000 16.427799225 -9999.000000 2.0000000000 18.000000000 290.00000000 1.0000000000
 1581.2500000 19.222499847 -9999.000000 2.0000000000 18.000000000 290.00000000 1.0000000000
 1581.3750000 22.017299652 -9999.000000 2.0000000000 18.000000000 290.00000000 1.0000000000
 1581.5000000 24.812000275 -9999.000000 2.0000000000 18.000000000 290.00000000 1.0000000000
 1581.6250000 22.604999542 -9999.000000 2.0000000000 18.000000000 290.00000000 1.0000000000
 1581.7500000 20.398000717 -9999.000000 2.0000000000 18.000000000 290.00000000 1.0000000000
 1581.8750000 18.190999985 -9999.000000 2.0000000000 18.000000000 290.00000000 1.0000000000
 1582.0000000 15.984000206 -9999.000000 2.0000000000 18.000000000 290.00000000 1.0000000000
 1582.1250000 15.311300278 -9999.000000 2.0000000000 18.000000000 290.00000000 1.0000000000
 1582.2500000 14.638500214 -9999.000000 2.0000000000 18.000000000 290.00000000 1.0000000000
