# LAS format log file from PETREL
# Project units are specified as depth units
#==================================================================
~Version information
VERS.   2.0:
WRAP.   NO:
#==================================================================
~Well
STRT .m      1338.0000000 :
STOP .m      1710.0000000 :
STEP .m     0.12500000 :
NULL .        -999.250000 :
COMP.           : COMPANY
WELL.  5-0162C2   : WELL
FLD.            : FIELD
LOC.            : LOCATION
SRVC.           : SERVICE COMPANY
DATE.  2020-03-08 09:25:09   : Log Export Date {yyyy-MM-dd HH:mm:ss}
PROV.           : PROVINCE
UWI.      : UNIQUE WELL ID
API.            : API NUMBER
#==================================================================
~Curve
DEPT .m                   : DEPTH
RT .ohm.m                 : RT
SP .                      : SP
Fluids .                  : Fluids
POR .m3/m3                : POR
PERM .mD                  : PERM
Lith .                    : Lith
~Parameter
#==================================================================
~Ascii
# ...
 1686.0000000 15.100000381 -54.93999863 3.0000000000 18.000000000 357.00000000 1.0000000000
 1686.1250000 13.899999619 -54.93999863 3.0000000000 18.000000000 357.00000000 1.0000000000
 1686.2500000 13.300000191 -54.74000168 3.0000000000 18.000000000 357.00000000 1.0000000000
 1686.3750000 13.279999733 -54.34999847 3.0000000000 18.000000000 357.00000000 1.0000000000
 1686.5000000 13.409999847 -53.79000092 3.0000000000 18.000000000 357.00000000 1.0000000000
 1686.6250000 13.140000343 -53.08000183 3.0000000000 18.000000000 357.00000000 1.0000000000
 1686.7500000 12.329999924 -52.22000122 3.0000000000 18.000000000 357.00000000 1.0000000000
 1686.8750000 11.199999809 -51.24000168 3.0000000000 18.000000000 357.00000000 1.0000000000
 1687.0000000 9.8500003815 -50.18999863 3.0000000000 18.000000000 357.00000000 1.0000000000
 1687.1250000 8.3500003815 -49.13999939 3.0000000000 18.000000000 357.00000000 1.0000000000
 1687.2500000 6.9299998283 -48.18000031  -999.250000 0.1000000015 0.1000000015 0.0000000000
 1687.3750000 5.8400001526 -47.36000061  -999.250000 0.1000000015 0.1000000015 0.0000000000
 1687.5000000 5.1799998283 -46.70999908  -999.250000 0.1000000015 0.1000000015 0.0000000000
 1687.6250000 4.9299998283 -46.25999832  -999.250000 0.1000000015 0.1000000015 0.0000000000
 1687.7500000 5.0100002289 -45.99000168  -999.250000 0.1000000015 0.1000000015 0.0000000000
 1687.8750000 5.2399997711 -45.88000107  -999.250000 0.1000000015 0.1000000015 0.0000000000
 1688.0000000 5.4200000763 -45.90000153  -999.250000 0.1000000015 0.1000000015 0.0000000000
 1688.1250000 5.4699997902 -46.06999969  -999.250000 0.1000000015 0.1000000015 0.0000000000
 1688.2500000 5.3699998856 -46.41999817  -999.250000 0.1000000015 0.1000000015 0.0000000000
 1688.3750000 5.2100000381 -46.83000183  -999.250000 0.1000000015 0.1000000015 0.0000000000
 1688.5000000 5.0999999046 -47.27999878  -999.250000 0.1000000015 0.1000000015 0.0000000000
 1688.6250000 5.2699999809 -47.75000000  -999.250000 0.1000000015 0.1000000015 0.0000000000
 1688.7500000 5.8899998665 -48.25999832  -999.250000 0.1000000015 0.1000000015 0.0000000000
 1688.8750000 7.0599999428 -48.77999878  -999.250000 0.1000000015 0.1000000015 0.0000000000
 1689.0000000 8.9099998474 -49.20999908 3.0000000000 12.000000000 88.000000000 1.0000000000
 1689.1250000 11.479999542 -49.43999863 3.0000000000 12.000000000 88.000000000 1.0000000000
 1689.2500000 14.340000153 -49.56999969 3.0000000000 12.000000000 88.000000000 1.0000000000
 1689.3750000 16.649999619 -49.54999924 3.0000000000 12.000000000 88.000000000 1.0000000000
 1689.5000000 17.690000534 -49.38000107 3.0000000000 12.000000000 88.000000000 1.0000000000
 1689.6250000 17.110000610 -49.06000137 3.0000000000 12.000000000 88.000000000 1.0000000000
 1689.7500000 15.020000458 -48.59999847 3.0000000000 12.000000000 88.000000000 1.0000000000
 1689.8750000 11.979999542 -48.06000137 3.0000000000 12.000000000 88.000000000 1.0000000000
 1690.0000000 9.0100002289 -47.47000122 3.0000000000 12.000000000 88.000000000 1.0000000000
 1690.1250000 6.8099999428 -46.84999847  -999.250000 0.1000000015 0.1000000015 0.0000000000
 1690.2500000 5.5000000000 -46.25999832  -999.250000 0.1000000015 0.1000000015 0.0000000000
 1690.3750000 4.8600001335 -45.70000076  -999.250000 0.1000000015 0.1000000015 0.0000000000
 1690.5000000 4.6399998665 -45.18000031  -999.250000 0.1000000015 0.1000000015 0.0000000000
 1690.6250000 4.5199999809 -44.70999908  -999.250000 0.1000000015 0.1000000015 0.0000000000
 1690.7500000 4.3800001144 -44.27999878  -999.250000 0.1000000015 0.1000000015 0.0000000000
 1690.8750000 4.3000001907 -43.90000153  -999.250000 0.1000000015 0.1000000015 0.0000000000
 1691.0000000 4.3499999046 -43.54000092  -999.250000 0.1000000015 0.1000000015 0.0000000000
 1691.1250000 4.4800000191 -43.20000076  -999.250000 0.1000000015 0.1000000015 0.0000000000
 1691.2500000 4.5799999237 -42.86000061  -999.250000 0.1000000015 0.1000000015 0.0000000000
 1691.3750000 4.5300002098 -42.52999878  -999.250000 0.1000000015 0.1000000015 0.0000000000
 1691.5000000 4.1999998093 -42.20000076  -999.250000 0.1000000015 0.1000000015 0.0000000000
 1691.6250000 3.6400001049 -41.88000107  -999.250000 0.1000000015 0.1000000015 0.0000000000
 1691.7500000 3.0999999046 -41.56999969  -999.250000 0.1000000015 0.1000000015 0.0000000000
 1691.8750000 2.7599999905 -41.27000046  -999.250000 0.1000000015 0.1000000015 0.0000000000
 1692.0000000 2.6600000858 -40.97999954  -999.250000 0.1000000015 0.1000000015 0.0000000000
 1692.1250000 2.7699999809 -40.72000122  -999.250000 0.1000000015 0.1000000015 0.0000000000
 1692.2500000 3.0799999237 -40.50999832  -999.250000 0.1000000015 0.1000000015 0.0000000000
 1692.3750000 3.6300001144 -40.34000015  -999.250000 0.1000000015 0.1000000015 0.0000000000
 1692.5000000 4.3800001144 -40.24000168  -999.250000 0.1000000015 0.1000000015 0.0000000000
 1692.6250000 5.2600002289 -40.18999863  -999.250000 0.1000000015 0.1000000015 0.0000000000
 1692.7500000 6.2800002098 -40.20000076 0.0000000000 5.0000000000 3.0000000000 1.0000000000
 1692.8750000 7.5599999428 -40.27999878 0.0000000000 5.0000000000 3.0000000000 1.0000000000
 1693.0000000 9.0000000000 -40.40000153 0.0000000000 5.0000000000 3.0000000000 1.0000000000
 1693.1250000 10.220000267 -40.56000137 0.0000000000 5.0000000000 3.0000000000 1.0000000000
 1693.2500000 11.130000114 -40.75999832 0.0000000000 5.0000000000 3.0000000000 1.0000000000
 1693.3750000 12.010000229 -40.97999954 0.0000000000 5.0000000000 3.0000000000 1.0000000000
 1693.5000000 13.159999847 -41.25000000 0.0000000000 5.0000000000 3.0000000000 1.0000000000
 1693.6250000 14.659999847 -41.54999924 0.0000000000 5.0000000000 3.0000000000 1.0000000000
 1693.7500000 16.590000153 -41.90000153 0.0000000000 5.0000000000 3.0000000000 1.0000000000
 1693.8750000 19.000000000 -42.27999878 0.0000000000 5.0000000000 3.0000000000 1.0000000000
 1694.0000000 21.510000229 -42.70000076 0.0000000000 5.0000000000 3.0000000000 1.0000000000
 1694.1250000 23.500000000 -43.15000153 0.0000000000 5.0000000000 3.0000000000 1.0000000000
 1694.2500000 24.620000839 -43.63999939 0.0000000000 5.0000000000 3.0000000000 1.0000000000
 1694.3750000 24.690000534 -44.11999893 0.0000000000 5.0000000000 3.0000000000 1.0000000000
 1694.5000000 23.440000534 -44.56000137 0.0000000000 5.0000000000 3.0000000000 1.0000000000
 1694.6250000 20.819999695 -44.93999863 0.0000000000 5.0000000000 3.0000000000 1.0000000000
 1694.7500000 17.120000839 -45.22000122 0.0000000000 5.0000000000 3.0000000000 1.0000000000
 1694.8750000 12.880000114 -45.38000107 0.0000000000 5.0000000000 3.0000000000 1.0000000000
 1695.0000000 8.9099998474 -45.40000153 0.0000000000 5.0000000000 3.0000000000 1.0000000000
 1695.1250000 5.8400001526 -45.27999878 0.0000000000 5.0000000000 3.0000000000 1.0000000000
 1695.2500000 4.0500001907 -45.00999832  -999.250000  -999.250000  -999.250000  -999.250000
 1695.3750000 3.1500000954 -44.61000061  -999.250000  -999.250000  -999.250000  -999.250000
 1695.5000000 2.7000000477 -44.09999847  -999.250000  -999.250000  -999.250000  -999.250000
 1695.6250000 2.5199999809 -43.52999878  -999.250000  -999.250000  -999.250000  -999.250000
 1695.7500000 2.5299999714 -42.90999985  -999.250000  -999.250000  -999.250000  -999.250000
 1695.8750000 2.6600000858 -42.29000092  -999.250000  -999.250000  -999.250000  -999.250000
 1696.0000000 2.9000000954 -41.66999817  -999.250000  -999.250000  -999.250000  -999.250000
 1696.1250000 3.2100000381 -41.11000061  -999.250000  -999.250000  -999.250000  -999.250000
 1696.2500000 3.4800000191 -40.61000061  -999.250000  -999.250000  -999.250000  -999.250000
 1696.3750000 3.5000000000 -40.20000076  -999.250000  -999.250000  -999.250000  -999.250000
 1696.5000000 3.3199999332 -39.86000061  -999.250000  -999.250000  -999.250000  -999.250000
 1696.6250000 3.0599999428 -39.63000107  -999.250000  -999.250000  -999.250000  -999.250000
 1696.7500000 2.8800001144 -39.45999908  -999.250000  -999.250000  -999.250000  -999.250000
