# LAS format log file from PETREL
# Project units are specified as depth units
#==================================================================
~Version information
VERS.   2.0:
WRAP.   NO:
#==================================================================
~Well
STRT .m      1420.0000000 :
STOP .m      1734.8750000 :
STEP .m     0.12500000 :
NULL .        -999.250000 :
COMP.           : COMPANY
WELL.  5-0161C   : WELL
FLD.            : FIELD
LOC.            : LOCATION
SRVC.           : SERVICE COMPANY
DATE.  2020-03-08 09:25:09   : Log Export Date {yyyy-MM-dd HH:mm:ss}
PROV.           : PROVINCE
UWI.      : UNIQUE WELL ID
API.            : API NUMBER
#==================================================================
~Curve
DEPT .m                   : DEPTH
RT .ohm.m                 : RT
SP .                      : SP
Fluids .                  : Fluids
POR .m3/m3                : POR
PERM .mD                  : PERM
Lith .                    : Lith
~Parameter
#==================================================================
~Ascii
# ...
 1659.2500000 44.425998688 -76.63300323 4.0000000000 22.000000000 2428.0000000 1.0000000000
 1659.3750000 41.278999329 -77.42099762 4.0000000000 22.000000000 2428.0000000 1.0000000000
 1659.5000000 38.414001465 -77.93299866 4.0000000000 22.000000000 2428.0000000 1.0000000000
 1659.6250000 37.124000549 -78.17800140 4.0000000000 22.000000000 2428.0000000 1.0000000000
 1659.7500000 37.777999878 -78.18499756 4.0000000000 22.000000000 2428.0000000 1.0000000000
 1659.8750000 39.499000549 -77.99900055 4.0000000000 22.000000000 2428.0000000 1.0000000000
 1660.0000000 41.655998230 -77.73100281 4.0000000000 22.000000000 2428.0000000 1.0000000000
 1660.1250000 43.581001282 -77.44100189 4.0000000000 22.000000000 2428.0000000 1.0000000000
 1660.2500000 44.016998291 -77.16999817 4.0000000000 22.000000000 2428.0000000 1.0000000000
 1660.3750000 43.127998352 -76.86100006 4.0000000000 22.000000000 2428.0000000 1.0000000000
 1660.5000000 41.555999756 -76.54900360 4.0000000000 22.000000000 2428.0000000 1.0000000000
 1660.6250000 38.755001068 -76.14900208 4.0000000000 22.000000000 2428.0000000 1.0000000000
 1660.7500000 35.657001495 -75.66100311 4.0000000000 22.000000000 2428.0000000 1.0000000000
 1660.8750000 32.650001526 -75.13200378 4.0000000000 22.000000000 2428.0000000 1.0000000000
 1661.0000000 30.129999161 -74.81900024 4.0000000000 22.000000000 2428.0000000 1.0000000000
 1661.1250000 28.872999191 -74.81900024 4.0000000000 22.000000000 2428.0000000 1.0000000000
 1661.2500000 28.145000458 -75.06199646 4.0000000000 22.000000000 2428.0000000 1.0000000000
 1661.3750000 27.686000824 -75.37200165 4.0000000000 22.000000000 2428.0000000 1.0000000000
 1661.5000000 27.340000153 -75.70099640 4.0000000000 22.000000000 2428.0000000 1.0000000000
 1661.6250000 27.187999725 -76.00700378 4.0000000000 22.000000000 2428.0000000 1.0000000000
 1661.7500000 27.044000626 -76.18800354 4.0000000000 22.000000000 2428.0000000 1.0000000000
 1661.8750000 26.878999710 -76.22200012 4.0000000000 22.000000000 2428.0000000 1.0000000000
 1662.0000000 26.893999100 -76.17600250 4.0000000000 22.000000000 2428.0000000 1.0000000000
 1662.1250000 26.820999146 -76.15399933 4.0000000000 22.000000000 2428.0000000 1.0000000000
 1662.2500000 26.596000671 -76.18000031 4.0000000000 22.000000000 2428.0000000 1.0000000000
 1662.3750000 26.500000000 -76.19400024 4.0000000000 22.000000000 2428.0000000 1.0000000000
 1662.5000000 26.493000031 -76.15799713 4.0000000000 22.000000000 2428.0000000 1.0000000000
 1662.6250000 26.302000046 -76.09500122 4.0000000000 22.000000000 2428.0000000 1.0000000000
 1662.7500000 26.020999908 -75.97699738 4.0000000000 22.000000000 2428.0000000 1.0000000000
 1662.8750000 25.778999329 -75.77700043 4.0000000000 22.000000000 2428.0000000 1.0000000000
 1663.0000000 25.760999680 -75.44200134 4.0000000000 22.000000000 2428.0000000 1.0000000000
 1663.1250000 25.906000137 -75.10900116 4.0000000000 22.000000000 2428.0000000 1.0000000000
 1663.2500000 25.875000000 -74.94200134 4.0000000000 22.000000000 2428.0000000 1.0000000000
 1663.3750000 25.346000671 -74.98999786 4.0000000000 22.000000000 2428.0000000 1.0000000000
 1663.5000000 24.458000183 -75.05500031 4.0000000000 22.000000000 2428.0000000 1.0000000000
 1663.6250000 23.954000473 -74.93000031 4.0000000000 22.000000000 2428.0000000 1.0000000000
 1663.7500000 24.233999252 -74.60700226 4.0000000000 22.000000000 2428.0000000 1.0000000000
 1663.8750000 25.297000885 -74.18599701 4.0000000000 22.000000000 2428.0000000 1.0000000000
 1664.0000000 27.312000275 -73.73500061 4.0000000000 22.000000000 2428.0000000 1.0000000000
 1664.1250000 29.239000320 -73.26300049 4.0000000000 22.000000000 2428.0000000 1.0000000000
 1664.2500000 30.777000427 -72.85800171 4.0000000000 22.000000000 2428.0000000 1.0000000000
 1664.3750000 32.105998993 -72.64600372 4.0000000000 22.000000000 2428.0000000 1.0000000000
 1664.5000000 32.969001770 -72.69499969 4.0000000000 22.000000000 2428.0000000 1.0000000000
 1664.6250000 33.429000854 -72.84400177 4.0000000000 22.000000000 2428.0000000 1.0000000000
 1664.7500000 33.668998718 -72.73799896 4.0000000000 22.000000000 2428.0000000 1.0000000000
 1664.8750000 33.750999451 -72.15399933 4.0000000000 22.000000000 2428.0000000 1.0000000000
 1665.0000000 33.993999481 -71.08200073 4.0000000000 22.000000000 2428.0000000 1.0000000000
 1665.1250000 34.722000122 -69.77999878 4.0000000000 22.000000000 2428.0000000 1.0000000000
 1665.2500000 35.891998291 -68.32599640 4.0000000000 22.000000000 2428.0000000 1.0000000000
 1665.3750000 37.018001556 -66.80200195 4.0000000000 22.000000000 2428.0000000 1.0000000000
 1665.5000000 37.932998657 -65.19899750 4.0000000000 22.000000000 2428.0000000 1.0000000000
 1665.6250000 38.658000946 -63.91799927 4.0000000000 22.000000000 2428.0000000 1.0000000000
 1665.7500000 38.798999786 -63.44100189 4.0000000000 22.000000000 2428.0000000 1.0000000000
 1665.8750000 38.800998688 -64.06400299 4.0000000000 22.000000000 2428.0000000 1.0000000000
 1666.0000000 39.006000519 -65.57399750 4.0000000000 22.000000000 2428.0000000 1.0000000000
 1666.1250000 39.773998260 -67.56300354 4.0000000000 22.000000000 2428.0000000 1.0000000000
 1666.2500000 40.937999725 -69.49900055 4.0000000000 22.000000000 2428.0000000 1.0000000000
 1666.3750000 41.995998383 -70.83599854 4.0000000000 22.000000000 2428.0000000 1.0000000000
 1666.5000000 42.590000153 -71.30699921 4.0000000000 22.000000000 2428.0000000 1.0000000000
 1666.6250000 43.504001617 -71.15399933 4.0000000000 22.000000000 2428.0000000 1.0000000000
 1666.7500000 45.742000580 -70.86100006 4.0000000000 22.000000000 2428.0000000 1.0000000000
 1666.8750000 48.252998352 -70.76899719 4.0000000000 22.000000000 2428.0000000 1.0000000000
 1667.0000000 50.247001648 -70.91300201 4.0000000000 22.000000000 2428.0000000 1.0000000000
 1667.1250000 51.207000732 -71.22799683 4.0000000000 22.000000000 2428.0000000 1.0000000000
 1667.2500000 51.682998657 -71.64700317 4.0000000000 22.000000000 2428.0000000 1.0000000000
 1667.3750000 52.104000092 -72.07599640 4.0000000000 22.000000000 2428.0000000 1.0000000000
 1667.5000000 53.161998749 -72.51300049 4.0000000000 22.000000000 2428.0000000 1.0000000000
 1667.6250000 54.347999573 -72.90799713 4.0000000000 22.000000000 2428.0000000 1.0000000000
 1667.7500000 55.657001495 -73.31400299 4.0000000000 22.000000000 2428.0000000 1.0000000000
 1667.8750000 57.437000275 -73.77799988 4.0000000000 22.000000000 2428.0000000 1.0000000000
 1668.0000000 59.193000793 -74.22599792 4.0000000000 22.000000000 2428.0000000 1.0000000000
 1668.1250000 60.450000763 -74.50099945 4.0000000000 22.000000000 2428.0000000 1.0000000000
 1668.2500000 61.597000122 -74.56300354 4.0000000000 22.000000000 2428.0000000 1.0000000000
 1668.3750000 63.205001831 -74.46600342 4.0000000000 22.000000000 2428.0000000 1.0000000000
 1668.5000000 65.390998840 -74.42400360 4.0000000000 22.000000000 2428.0000000 1.0000000000
 1668.6250000 67.686996460 -74.47599792 4.0000000000 22.000000000 2428.0000000 1.0000000000
 1668.7500000 68.584999084 -74.59300232 4.0000000000 22.000000000 2428.0000000 1.0000000000
 1668.8750000 68.095001221 -74.77400208 4.0000000000 22.000000000 2428.0000000 1.0000000000
 1669.0000000 66.804000854 -74.89399719 4.0000000000 22.000000000 2428.0000000 1.0000000000
 1669.1250000 66.001998901 -74.90100098 4.0000000000 22.000000000 2428.0000000 1.0000000000
 1669.2500000 66.592002869 -74.79100037 4.0000000000 22.000000000 2428.0000000 1.0000000000
 1669.3750000 68.583999634 -74.65699768 4.0000000000 22.000000000 2428.0000000 1.0000000000
 1669.5000000 71.931999207 -74.61699677 4.0000000000 22.000000000 2428.0000000 1.0000000000
 1669.6250000 76.255996704 -74.63700104 4.0000000000 22.000000000 2428.0000000 1.0000000000
 1669.7500000 80.351997375 -74.73200226 4.0000000000 22.000000000 2428.0000000 1.0000000000
 1669.8750000 83.705001831 -74.88700104 4.0000000000 22.000000000 2428.0000000 1.0000000000
 1670.0000000 87.329002380 -75.11599731 4.0000000000 22.000000000 2428.0000000 1.0000000000
