# LAS format log file from PETREL
# Project units are specified as depth units
#==================================================================
~Version information
VERS.   2.0:
WRAP.   NO:
#==================================================================
~Well
STRT .m      1450.0000000 :
STOP .m      1594.0000000 :
STEP .m     0.12500000 :
NULL .        -999.250000 :
COMP.           : COMPANY
WELL.  5-0161   : WELL
FLD.            : FIELD
LOC.            : LOCATION
SRVC.           : SERVICE COMPANY
DATE.  2020-03-08 09:25:09   : Log Export Date {yyyy-MM-dd HH:mm:ss}
PROV.           : PROVINCE
UWI.      : UNIQUE WELL ID
API.            : API NUMBER
#==================================================================
~Curve
DEPT .m                   : DEPTH
RT .ohm.m                 : RT
SP .                      : SP
Fluids .                  : Fluids
POR .m3/m3                : POR
PERM .mD                  : PERM
Lith .                    : Lith
~Parameter
#==================================================================
~Ascii
# ...
 1547.8750000 25.690000534 14.189999580 4.0000000000 18.000000000 1126.0000000 1.0000000000
 1548.0000000 18.590000153 14.010000229 4.0000000000 18.000000000 1126.0000000 1.0000000000
 1548.1250000 17.729999542 13.800000191 4.0000000000 18.000000000 1126.0000000 1.0000000000
 1548.2500000 21.379999161 13.550000191 4.0000000000 18.000000000 1126.0000000 1.0000000000
 1548.3750000 24.600000381 13.310000420 4.0000000000 18.000000000 1126.0000000 1.0000000000
 1548.5000000 26.239999771 13.090000153 4.0000000000 18.000000000 1126.0000000 1.0000000000
 1548.6250000 25.340000153 12.939999580 4.0000000000 18.000000000 1126.0000000 1.0000000000
 1548.7500000 23.879999161 12.859999657 4.0000000000 18.000000000 1126.0000000 1.0000000000
 1548.8750000 23.440000534 12.989999771 4.0000000000 18.000000000 1126.0000000 1.0000000000
 1549.0000000 24.360000610 13.180000305 4.0000000000 18.000000000 1126.0000000 1.0000000000
 1549.1250000 24.870000839 13.609999657 4.0000000000 18.000000000 1126.0000000 1.0000000000
 1549.2500000 23.250000000 14.100000381 4.0000000000 18.000000000 1126.0000000 1.0000000000
 1549.3750000 19.170000076 14.630000114 4.0000000000 18.000000000 1126.0000000 1.0000000000
 1549.5000000 15.960000038 15.189999580 4.0000000000 18.000000000 1126.0000000 1.0000000000
 1549.6250000 7.9699997902 15.680000305 4.0000000000 18.000000000 1126.0000000 1.0000000000
 1549.7500000 5.8800001144 16.000000000 4.0000000000 18.000000000 1126.0000000 1.0000000000
 1549.8750000 9.4499998093 15.989999771 4.0000000000 18.000000000 1126.0000000 1.0000000000
 1550.0000000 13.829999924 16.020000458 4.0000000000 18.000000000 1126.0000000 1.0000000000
 1550.1250000 21.420000076 16.079999924 4.0000000000 18.000000000 1126.0000000 1.0000000000
 1550.2500000 31.139999390 16.139999390 4.0000000000 18.000000000 1126.0000000 1.0000000000
 1550.3750000 32.319999695 16.200000763 4.0000000000 18.000000000 1126.0000000 1.0000000000
 1550.5000000 32.689998627 16.260000229 4.0000000000 18.000000000 1126.0000000 1.0000000000
 1550.6250000 32.250000000 16.469999313 4.0000000000 18.000000000 1126.0000000 1.0000000000
 1550.7500000 30.729999542 16.690000534 4.0000000000 18.000000000 1126.0000000 1.0000000000
 1550.8750000 29.309999466 16.959999084 4.0000000000 18.000000000 1126.0000000 1.0000000000
 1551.0000000 26.170000076 17.239999771 4.0000000000 18.000000000 1126.0000000 1.0000000000
 1551.1250000 22.610000610 17.520000458 4.0000000000 18.000000000 1126.0000000 1.0000000000
 1551.2500000 16.690000534 17.840000153 4.0000000000 18.000000000 1126.0000000 1.0000000000
 1551.3750000 12.899999619 18.170000076 4.0000000000 18.000000000 1126.0000000 1.0000000000
 1551.5000000 11.369999886 18.590000153  -999.250000 0.1000000015 0.1000000015 0.0000000000
 1551.6250000 10.020000458 19.170000076  -999.250000 0.1000000015 0.1000000015 0.0000000000
 1551.7500000 5.9000000954 19.790000916  -999.250000 0.1000000015 0.1000000015 0.0000000000
 1551.8750000 3.7799999714 20.450000763  -999.250000 0.1000000015 0.1000000015 0.0000000000
 1552.0000000 4.5000000000 9.0299997330  -999.250000 0.1000000015 0.1000000015 0.0000000000
 1552.1250000 4.6300001144 9.1199998856  -999.250000 0.1000000015 0.1000000015 0.0000000000
 1552.2500000 5.6100001335 8.9399995804  -999.250000 0.1000000015 0.1000000015 0.0000000000
 1552.3750000 7.1100001335 8.7399997711  -999.250000 0.1000000015 0.1000000015 0.0000000000
 1552.5000000 8.8800001144 8.4899997711 4.0000000000 22.000000000 2098.0000000 1.0000000000
 1552.6250000 10.850000381 8.1499996185 4.0000000000 22.000000000 2098.0000000 1.0000000000
 1552.7500000 13.710000038 7.8200001717 4.0000000000 22.000000000 2098.0000000 1.0000000000
 1552.8750000 17.430000305 7.5100002289 4.0000000000 22.000000000 2098.0000000 1.0000000000
 1553.0000000 21.370000839 7.2399997711 4.0000000000 22.000000000 2098.0000000 1.0000000000
 1553.1250000 25.590000153 6.9899997711 4.0000000000 22.000000000 2098.0000000 1.0000000000
 1553.2500000 30.540000916 6.7300000191 4.0000000000 22.000000000 2098.0000000 1.0000000000
 1553.3750000 30.579999924 6.5300002098 4.0000000000 22.000000000 2098.0000000 1.0000000000
 1553.5000000 28.049999237 6.5000000000 4.0000000000 22.000000000 2098.0000000 1.0000000000
 1553.6250000 24.479999542 6.5900001526 4.0000000000 22.000000000 2098.0000000 1.0000000000
 1553.7500000 17.799999237 6.7300000191 4.0000000000 22.000000000 2098.0000000 1.0000000000
 1553.8750000 15.180000305 6.9400000572 4.0000000000 22.000000000 2098.0000000 1.0000000000
 1554.0000000 15.619999886 7.1599998474 4.0000000000 22.000000000 2098.0000000 1.0000000000
 1554.1250000 17.190000534 7.4200000763 4.0000000000 22.000000000 2098.0000000 1.0000000000
 1554.2500000 18.930000305 7.7600002289 4.0000000000 22.000000000 2098.0000000 1.0000000000
 1554.3750000 18.020000458 8.0900001526 4.0000000000 22.000000000 2098.0000000 1.0000000000
 1554.5000000 16.350000381 8.4200000763 4.0000000000 22.000000000 2098.0000000 1.0000000000
 1554.6250000 14.409999847 8.7600002289 4.0000000000 22.000000000 2098.0000000 1.0000000000
 1554.7500000 13.770000458 9.1499996185 4.0000000000 22.000000000 2098.0000000 1.0000000000
 1554.8750000 12.750000000 9.5500001907 4.0000000000 22.000000000 2098.0000000 1.0000000000
 1555.0000000 12.279999733 9.9399995804 4.0000000000 22.000000000 2098.0000000 1.0000000000
 1555.1250000 13.159999847 10.359999657 4.0000000000 22.000000000 2098.0000000 1.0000000000
 1555.2500000 15.829999924 10.880000114 4.0000000000 22.000000000 2098.0000000 1.0000000000
 1555.3750000 25.489999771 11.399999619 4.0000000000 22.000000000 2098.0000000 1.0000000000
 1555.5000000 28.850000381 11.920000076 4.0000000000 22.000000000 2098.0000000 1.0000000000
 1555.6250000 32.650001526 12.460000038 4.0000000000 22.000000000 2098.0000000 1.0000000000
 1555.7500000 33.740001678 12.930000305 4.0000000000 22.000000000 2098.0000000 1.0000000000
 1555.8750000 31.049999237 13.250000000 4.0000000000 22.000000000 2098.0000000 1.0000000000
 1556.0000000 28.129999161 13.569999695 4.0000000000 22.000000000 2098.0000000 1.0000000000
 1556.1250000 30.129999161 13.939999580 4.0000000000 22.000000000 2098.0000000 1.0000000000
 1556.2500000 39.909999847 14.479999542 4.0000000000 22.000000000 2098.0000000 1.0000000000
 1556.3750000 43.650001526 15.020000458 4.0000000000 22.000000000 2098.0000000 1.0000000000
 1556.5000000 44.400001526 15.560000420 4.0000000000 22.000000000 2098.0000000 1.0000000000
 1556.6250000 42.500000000 16.139999390 4.0000000000 22.000000000 2098.0000000 1.0000000000
 1556.7500000 39.080001831 16.750000000 4.0000000000 22.000000000 2098.0000000 1.0000000000
 1556.8750000 36.189998627 17.350000381 4.0000000000 22.000000000 2098.0000000 1.0000000000
 1557.0000000 34.299999237 17.940000534 4.0000000000 22.000000000 2098.0000000 1.0000000000
 1557.1250000 32.830001831 18.530000687 4.0000000000 22.000000000 2098.0000000 1.0000000000
 1557.2500000 33.439998627 19.110000610 4.0000000000 22.000000000 2098.0000000 1.0000000000
 1557.3750000 34.040000916 19.620000839 4.0000000000 22.000000000 2098.0000000 1.0000000000
 1557.5000000 34.189998627 20.100000381 4.0000000000 22.000000000 2098.0000000 1.0000000000
 1557.6250000 33.369998932 20.360000610 4.0000000000 22.000000000 2098.0000000 1.0000000000
 1557.7500000 31.690000534 20.610000610 4.0000000000 22.000000000 2098.0000000 1.0000000000
 1557.8750000 30.340000153 20.870000839 4.0000000000 22.000000000 2098.0000000 1.0000000000
 1558.0000000 30.360000610 21.129999161 4.0000000000 22.000000000 2098.0000000 1.0000000000
 1558.1250000 29.340000153 21.399999619 4.0000000000 22.000000000 2098.0000000 1.0000000000
 1558.2500000 24.120000839 21.700000763 4.0000000000 22.000000000 2098.0000000 1.0000000000
 1558.3750000 23.969999313 22.000000000 4.0000000000 22.000000000 2098.0000000 1.0000000000
 1558.5000000 25.479999542 22.290000916 4.0000000000 22.000000000 2098.0000000 1.0000000000
 1558.6250000 26.940000534 22.549999237 4.0000000000 22.000000000 2098.0000000 1.0000000000
