# LAS format log file from PETREL
# Project units are specified as depth units
#==================================================================
~Version information
VERS.   2.0:
WRAP.   NO:
#==================================================================
~Well
STRT .m      730.00000000 :
STOP .m      1729.5000000 :
STEP .m     0.12500000 :
NULL .        -999.250000 :
COMP.           : COMPANY
WELL.  5-0163   : WELL
FLD.            : FIELD
LOC.            : LOCATION
SRVC.           : SERVICE COMPANY
DATE.  2020-03-08 09:25:09   : Log Export Date {yyyy-MM-dd HH:mm:ss}
PROV.           : PROVINCE
UWI.      : UNIQUE WELL ID
API.            : API NUMBER
#==================================================================
~Curve
DEPT .m                   : DEPTH
RT .ohm.m                 : RT
SP .                      : SP
Fluids .                  : Fluids
POR .m3/m3                : POR
PERM .mD                  : PERM
Lith .                    : Lith
~Parameter
#==================================================================
~Ascii
# ...
 1676.1250000 9.1358003616 -9999.000000 3.0000000000 5.0000000000 4.0000000000 1.0000000000
 1676.2500000 9.9925003052 -9999.000000 3.0000000000 5.0000000000 4.0000000000 1.0000000000
 1676.3750000 10.849300385 -9999.000000 3.0000000000 5.0000000000 4.0000000000 1.0000000000
 1676.5000000 11.706000328 -9999.000000 3.0000000000 5.0000000000 4.0000000000 1.0000000000
 1676.6250000 10.903800011 -9999.000000 3.0000000000 5.0000000000 4.0000000000 1.0000000000
 1676.7500000 10.101499557 -9999.000000 3.0000000000 5.0000000000 4.0000000000 1.0000000000
 1676.8750000 9.2992000580 -9999.000000 3.0000000000 5.0000000000 4.0000000000 1.0000000000
 1677.0000000 8.4969997406 -9999.000000 3.0000000000 5.0000000000 4.0000000000 1.0000000000
 1677.1250000 8.2526998520 -9999.000000 3.0000000000 5.0000000000 4.0000000000 1.0000000000
 1677.2500000 8.0085000992 -9999.000000 3.0000000000 5.0000000000 4.0000000000 1.0000000000
 1677.3750000 7.7642002106 -9999.000000 3.0000000000 5.0000000000 4.0000000000 1.0000000000
 1677.5000000 7.5199999809 -9999.000000 3.0000000000 5.0000000000 4.0000000000 1.0000000000
 1677.6250000 7.9809999466 -9999.000000 3.0000000000 5.0000000000 4.0000000000 1.0000000000
 1677.7500000 8.4420003891 -9999.000000 3.0000000000 5.0000000000 4.0000000000 1.0000000000
 1677.8750000 8.9029998779 -9999.000000 3.0000000000 5.0000000000 4.0000000000 1.0000000000
 1678.0000000 9.3640003204 -9999.000000  -999.250000 0.1000000015 0.1000000015 0.0000000000
 1678.1250000 8.4010000229 -9999.000000  -999.250000 0.1000000015 0.1000000015 0.0000000000
 1678.2500000 7.4380002022 -9999.000000  -999.250000 0.1000000015 0.1000000015 0.0000000000
 1678.3750000 6.4749999046 -9999.000000  -999.250000 0.1000000015 0.1000000015 0.0000000000
 1678.5000000 5.5120000839 -9999.000000  -999.250000 0.1000000015 0.1000000015 0.0000000000
 1678.6250000 5.3358001709 -9999.000000  -999.250000 0.1000000015 0.1000000015 0.0000000000
 1678.7500000 5.1595001221 -9999.000000  -999.250000 0.1000000015 0.1000000015 0.0000000000
 1678.8750000 4.9833002090 -9999.000000  -999.250000 0.1000000015 0.1000000015 0.0000000000
 1679.0000000 4.8070001602 -9999.000000  -999.250000 0.1000000015 0.1000000015 0.0000000000
 1679.1250000 4.5520000458 -9999.000000  -999.250000 0.1000000015 0.1000000015 0.0000000000
 1679.2500000 4.2969999313 -9999.000000  -999.250000 0.1000000015 0.1000000015 0.0000000000
 1679.3750000 4.0419998169 -9999.000000  -999.250000 0.1000000015 0.1000000015 0.0000000000
 1679.5000000 3.7869999409 -9999.000000  -999.250000 0.1000000015 0.1000000015 0.0000000000
 1679.6250000 4.6571998596 -9999.000000  -999.250000 0.1000000015 0.1000000015 0.0000000000
 1679.7500000 5.5275001526 -9999.000000  -999.250000 0.1000000015 0.1000000015 0.0000000000
 1679.8750000 6.3977999687 -9999.000000  -999.250000 0.1000000015 0.1000000015 0.0000000000
 1680.0000000 7.2680001259 -9999.000000 3.0000000000 13.000000000 48.000000000 1.0000000000
 1680.1250000 8.9584999084 -9999.000000 3.0000000000 13.000000000 48.000000000 1.0000000000
 1680.2500000 10.649000168 -9999.000000 3.0000000000 13.000000000 48.000000000 1.0000000000
 1680.3750000 12.339500427 -9999.000000 3.0000000000 13.000000000 48.000000000 1.0000000000
 1680.5000000 14.029999733 -9999.000000 3.0000000000 13.000000000 48.000000000 1.0000000000
 1680.6250000 11.754699707 -9999.000000 3.0000000000 13.000000000 48.000000000 1.0000000000
 1680.7500000 9.4794998169 -9999.000000  -999.250000 0.1000000015 0.1000000015 0.0000000000
 1680.8750000 7.2041997910 -9999.000000  -999.250000 0.1000000015 0.1000000015 0.0000000000
 1681.0000000 4.9289999008 -9999.000000  -999.250000 0.1000000015 0.1000000015 0.0000000000
 1681.1250000 5.3134999275 -9999.000000  -999.250000 0.1000000015 0.1000000015 0.0000000000
 1681.2500000 5.6979999542 -9999.000000  -999.250000 0.1000000015 0.1000000015 0.0000000000
 1681.3750000 6.0824999809 -9999.000000  -999.250000 0.1000000015 0.1000000015 0.0000000000
 1681.5000000 6.4670000076 -9999.000000  -999.250000 0.1000000015 0.1000000015 0.0000000000
 1681.6250000 6.3354997635 -9999.000000  -999.250000 0.1000000015 0.1000000015 0.0000000000
 1681.7500000 6.2039999962 -9999.000000  -999.250000 0.1000000015 0.1000000015 0.0000000000
 1681.8750000 6.0725002289 -9999.000000  -999.250000 0.1000000015 0.1000000015 0.0000000000
 1682.0000000 5.9409999847 -9999.000000  -999.250000 0.1000000015 0.1000000015 0.0000000000
 1682.1250000 6.0104999542 -9999.000000  -999.250000 0.1000000015 0.1000000015 0.0000000000
 1682.2500000 6.0799999237 -9999.000000  -999.250000 0.1000000015 0.1000000015 0.0000000000
 1682.3750000 6.1494998932 -9999.000000  -999.250000 0.1000000015 0.1000000015 0.0000000000
 1682.5000000 6.2189998627 -9999.000000 3.0000000000 5.0000000000 5.0000000000 1.0000000000
 1682.6250000 7.7142000198 -9999.000000 3.0000000000 5.0000000000 5.0000000000 1.0000000000
 1682.7500000 9.2095003128 -9999.000000 3.0000000000 5.0000000000 5.0000000000 1.0000000000
 1682.8750000 10.704700470 -9999.000000 3.0000000000 5.0000000000 5.0000000000 1.0000000000
 1683.0000000 12.199999809 -9999.000000 3.0000000000 5.0000000000 5.0000000000 1.0000000000
 1683.1250000 11.059499741 -9999.000000 3.0000000000 5.0000000000 5.0000000000 1.0000000000
 1683.2500000 9.9189996719 -9999.000000 3.0000000000 5.0000000000 5.0000000000 1.0000000000
 1683.3750000 8.7784996033 -9999.000000 3.0000000000 5.0000000000 5.0000000000 1.0000000000
 1683.5000000 7.6380000114 -9999.000000 3.0000000000 5.0000000000 5.0000000000 1.0000000000
 1683.6250000 8.6422004700 -9999.000000 3.0000000000 5.0000000000 5.0000000000 1.0000000000
 1683.7500000 9.6464996338 -9999.000000 3.0000000000 5.0000000000 5.0000000000 1.0000000000
 1683.8750000 10.650699615 -9999.000000 3.0000000000 5.0000000000 5.0000000000 1.0000000000
 1684.0000000 11.654999733 -9999.000000 3.0000000000 5.0000000000 5.0000000000 1.0000000000
 1684.1250000 11.810700417 -9999.000000 3.0000000000 5.0000000000 5.0000000000 1.0000000000
 1684.2500000 11.966500282 -9999.000000 3.0000000000 5.0000000000 5.0000000000 1.0000000000
 1684.3750000 12.122200012 -9999.000000 3.0000000000 5.0000000000 5.0000000000 1.0000000000
 1684.5000000 12.277999878 -9999.000000  -999.250000 0.1000000015 0.1000000015 0.0000000000
 1684.6250000 10.762200356 -9999.000000  -999.250000 0.1000000015 0.1000000015 0.0000000000
 1684.7500000 9.2465000153 -9999.000000  -999.250000 0.1000000015 0.1000000015 0.0000000000
 1684.8750000 7.7308001518 -9999.000000  -999.250000 0.1000000015 0.1000000015 0.0000000000
 1685.0000000 6.2150001526 -9999.000000  -999.250000 0.1000000015 0.1000000015 0.0000000000
 1685.1250000 6.6409997940 -9999.000000  -999.250000 0.1000000015 0.1000000015 0.0000000000
 1685.2500000 7.0669999123 -9999.000000  -999.250000 0.1000000015 0.1000000015 0.0000000000
 1685.3750000 7.4930000305 -9999.000000  -999.250000 0.1000000015 0.1000000015 0.0000000000
 1685.5000000 7.9190001488 -9999.000000  -999.250000 0.1000000015 0.1000000015 0.0000000000
 1685.6250000 8.0570001602 -9999.000000  -999.250000 0.1000000015 0.1000000015 0.0000000000
 1685.7500000 8.1949996948 -9999.000000  -999.250000 0.1000000015 0.1000000015 0.0000000000
 1685.8750000 8.3330001831 -9999.000000  -999.250000 0.1000000015 0.1000000015 0.0000000000
 1686.0000000 8.4709997177 -9999.000000  -999.250000 0.1000000015 0.1000000015 0.0000000000
 1686.1250000 9.8252000809 -9999.000000  -999.250000 0.1000000015 0.1000000015 0.0000000000
 1686.2500000 11.179499626 -9999.000000 3.0000000000 9.0000000000 15.000000000 1.0000000000
 1686.3750000 12.533699989 -9999.000000 3.0000000000 9.0000000000 15.000000000 1.0000000000
 1686.5000000 13.887999535 -9999.000000 3.0000000000 9.0000000000 15.000000000 1.0000000000
 1686.6250000 16.575500488 -9999.000000 3.0000000000 9.0000000000 15.000000000 1.0000000000
 1686.7500000 19.263000488 -9999.000000 3.0000000000 9.0000000000 15.000000000 1.0000000000
 1686.8750000 21.950500488 -9999.000000 3.0000000000 9.0000000000 15.000000000 1.0000000000
