# LAS format log file from PETREL
# Project units are specified as depth units
#==================================================================
~Version information
VERS.   2.0:
WRAP.   NO:
#==================================================================
~Well
STRT .m      1510.0000000 :
STOP .m      1750.0000000 :
STEP .m     0.12500000 :
NULL .        -999.250000 :
COMP.           : COMPANY
WELL.  5-0165C   : WELL
FLD.            : FIELD
LOC.            : LOCATION
SRVC.           : SERVICE COMPANY
DATE.  2020-03-08 09:25:09   : Log Export Date {yyyy-MM-dd HH:mm:ss}
PROV.           : PROVINCE
UWI.      : UNIQUE WELL ID
API.            : API NUMBER
#==================================================================
~Curve
DEPT .m                   : DEPTH
RT .ohm.m                 : RT
SP .                      : SP
Fluids .                  : Fluids
POR .m3/m3                : POR
PERM .mD                  : PERM
Lith .                    : Lith
~Parameter
#==================================================================
~Ascii
# ...
 1586.1250000 3.7219998837 24.145000458  -999.250000 0.1000000015 0.1000000015 0.0000000000
 1586.2500000 5.4210000038 23.652999878  -999.250000 0.1000000015 0.1000000015 0.0000000000
 1586.3750000 13.347000122 23.037000656  -999.250000 0.1000000015 0.1000000015 0.0000000000
 1586.5000000 15.003000259 22.475000381 4.0000000000 27.000000000 4832.0000000 1.0000000000
 1586.6250000 15.552000046 21.938999176 4.0000000000 27.000000000 4832.0000000 1.0000000000
 1586.7500000 15.689000130 21.510000229 4.0000000000 27.000000000 4832.0000000 1.0000000000
 1586.8750000 14.911000252 21.148000717 4.0000000000 27.000000000 4832.0000000 1.0000000000
 1587.0000000 14.255999565 20.499000549 4.0000000000 27.000000000 4832.0000000 1.0000000000
 1587.1250000 14.197999954 19.865999222 4.0000000000 27.000000000 4832.0000000 1.0000000000
 1587.2500000 14.951000214 19.247999191 4.0000000000 27.000000000 4832.0000000 1.0000000000
 1587.3750000 21.642999649 18.711999893 4.0000000000 27.000000000 4832.0000000 1.0000000000
 1587.5000000 23.111000061 18.340999603 4.0000000000 27.000000000 4832.0000000 1.0000000000
 1587.6250000 23.961999893 18.072000504 4.0000000000 27.000000000 4832.0000000 1.0000000000
 1587.7500000 24.090000153 17.860000610 4.0000000000 27.000000000 4832.0000000 1.0000000000
 1587.8750000 22.000000000 17.753000259 4.0000000000 27.000000000 4832.0000000 1.0000000000
 1588.0000000 18.655000687 17.659000397 4.0000000000 27.000000000 4832.0000000 1.0000000000
 1588.1250000 13.095999718 17.583999634 4.0000000000 27.000000000 4832.0000000 1.0000000000
 1588.2500000 12.274999619 17.513000488 4.0000000000 27.000000000 4832.0000000 1.0000000000
 1588.3750000 12.399000168 17.458999634 4.0000000000 27.000000000 4832.0000000 1.0000000000
 1588.5000000 15.098999977 17.422000885 4.0000000000 27.000000000 4832.0000000 1.0000000000
 1588.6250000 15.829000473 17.375999451 4.0000000000 27.000000000 4832.0000000 1.0000000000
 1588.7500000 22.103000641 17.340000153 4.0000000000 27.000000000 4832.0000000 1.0000000000
 1588.8750000 27.964000702 17.243000031 4.0000000000 27.000000000 4832.0000000 1.0000000000
 1589.0000000 29.681999207 17.180999756 4.0000000000 27.000000000 4832.0000000 1.0000000000
 1589.1250000 31.204000473 17.090999603 4.0000000000 27.000000000 4832.0000000 1.0000000000
 1589.2500000 32.529998779 17.018999100 4.0000000000 27.000000000 4832.0000000 1.0000000000
 1589.3750000 33.414001465 16.927000046 4.0000000000 27.000000000 4832.0000000 1.0000000000
 1589.5000000 34.015998840 16.864999771 4.0000000000 27.000000000 4832.0000000 1.0000000000
 1589.6250000 34.188999176 16.775999069 4.0000000000 27.000000000 4832.0000000 1.0000000000
 1589.7500000 34.444999695 16.702999115 4.0000000000 27.000000000 4832.0000000 1.0000000000
 1589.8750000 34.813999176 16.586000443 4.0000000000 27.000000000 4832.0000000 1.0000000000
 1590.0000000 35.275001526 16.426000595 4.0000000000 27.000000000 4832.0000000 1.0000000000
 1590.1250000 35.835998535 16.225000381 4.0000000000 27.000000000 4832.0000000 1.0000000000
 1590.2500000 36.490001678 16.111999512 4.0000000000 27.000000000 4832.0000000 1.0000000000
 1590.3750000 35.854999542 16.197999954 4.0000000000 27.000000000 4832.0000000 1.0000000000
 1590.5000000 34.259998322 16.604000092 4.0000000000 27.000000000 4832.0000000 1.0000000000
 1590.6250000 29.306999207 17.291000366 4.0000000000 27.000000000 4832.0000000 1.0000000000
 1590.7500000 27.632999420 17.905000687 4.0000000000 27.000000000 4832.0000000 1.0000000000
 1590.8750000 15.246000290 18.597999573 4.0000000000 27.000000000 4832.0000000 1.0000000000
 1591.0000000 11.647999763 19.357999802 4.0000000000 27.000000000 4832.0000000 1.0000000000
 1591.1250000 10.873999596 19.906999588 4.0000000000 27.000000000 4832.0000000 1.0000000000
 1591.2500000 10.543999672 20.283000946 4.0000000000 27.000000000 4832.0000000 1.0000000000
 1591.3750000 13.163000107 20.496999741 4.0000000000 27.000000000 4832.0000000 1.0000000000
 1591.5000000 14.527999878 20.656999588 4.0000000000 27.000000000 4832.0000000 1.0000000000
 1591.6250000 15.779000282 20.759000778 4.0000000000 27.000000000 4832.0000000 1.0000000000
 1591.7500000 16.590999603 20.864000320 4.0000000000 27.000000000 4832.0000000 1.0000000000
 1591.8750000 17.323999405 20.888999939 4.0000000000 27.000000000 4832.0000000 1.0000000000
 1592.0000000 18.056999207 20.989000320 4.0000000000 27.000000000 4832.0000000 1.0000000000
 1592.1250000 17.489999771 21.122999191 4.0000000000 27.000000000 4832.0000000 1.0000000000
 1592.2500000 14.065999985 21.329999924 4.0000000000 27.000000000 4832.0000000 1.0000000000
 1592.3750000 13.029999733 21.540000916 4.0000000000 27.000000000 4832.0000000 1.0000000000
 1592.5000000 12.331999779 21.687999725 4.0000000000 27.000000000 4832.0000000 1.0000000000
 1592.6250000 11.923000336 21.804000854 4.0000000000 27.000000000 4832.0000000 1.0000000000
 1592.7500000 12.762999535 21.922000885 4.0000000000 27.000000000 4832.0000000 1.0000000000
 1592.8750000 15.383000374 22.004999161 4.0000000000 27.000000000 4832.0000000 1.0000000000
 1593.0000000 17.077999115 22.079000473 4.0000000000 27.000000000 4832.0000000 1.0000000000
 1593.1250000 18.184999466 22.138999939 4.0000000000 27.000000000 4832.0000000 1.0000000000
 1593.2500000 20.600999832 22.162000656 4.0000000000 27.000000000 4832.0000000 1.0000000000
 1593.3750000 23.927999496 22.115999222 4.0000000000 27.000000000 4832.0000000 1.0000000000
 1593.5000000 20.318000793 22.062000275 4.0000000000 27.000000000 4832.0000000 1.0000000000
 1593.6250000 18.826999664 21.986000061 4.0000000000 27.000000000 4832.0000000 1.0000000000
 1593.7500000 18.096000671 21.892000198 4.0000000000 27.000000000 4832.0000000 1.0000000000
 1593.8750000 19.386999130 21.770000458 4.0000000000 27.000000000 4832.0000000 1.0000000000
 1594.0000000 20.913000107 21.586999893 4.0000000000 27.000000000 4832.0000000 1.0000000000
 1594.1250000 23.278999329 21.326000214 4.0000000000 27.000000000 4832.0000000 1.0000000000
 1594.2500000 26.045000076 21.076999664 4.0000000000 27.000000000 4832.0000000 1.0000000000
 1594.3750000 26.430000305 20.829999924 4.0000000000 27.000000000 4832.0000000 1.0000000000
 1594.5000000 25.964000702 20.648000717 4.0000000000 27.000000000 4832.0000000 1.0000000000
 1594.6250000 24.892000198 20.531999588 4.0000000000 27.000000000 4832.0000000 1.0000000000
 1594.7500000 23.662000656 20.493999481 4.0000000000 27.000000000 4832.0000000 1.0000000000
 1594.8750000 17.718000412 20.400999069 4.0000000000 27.000000000 4832.0000000 1.0000000000
 1595.0000000 17.457000732 20.299999237 4.0000000000 27.000000000 4832.0000000 1.0000000000
 1595.1250000 18.393999100 20.194999695 4.0000000000 27.000000000 4832.0000000 1.0000000000
 1595.2500000 19.065999985 20.139999390 4.0000000000 27.000000000 4832.0000000 1.0000000000
 1595.3750000 19.603000641 20.062999725 4.0000000000 27.000000000 4832.0000000 1.0000000000
 1595.5000000 20.107999802 20.007999420 4.0000000000 27.000000000 4832.0000000 1.0000000000
 1595.6250000 19.770000458 19.937999725 4.0000000000 27.000000000 4832.0000000 1.0000000000
 1595.7500000 18.688999176 19.892999649 4.0000000000 27.000000000 4832.0000000 1.0000000000
 1595.8750000 16.920999527 20.041000366 4.0000000000 27.000000000 4832.0000000 1.0000000000
 1596.0000000 16.485000610 20.297000885 4.0000000000 27.000000000 4832.0000000 1.0000000000
 1596.1250000 16.173999786 20.510999680 4.0000000000 27.000000000 4832.0000000 1.0000000000
 1596.2500000 14.637999535 20.825000763 4.0000000000 27.000000000 4832.0000000 1.0000000000
 1596.3750000 14.406999588 21.072999954 4.0000000000 27.000000000 4832.0000000 1.0000000000
 1596.5000000 14.038000107 21.292999268 4.0000000000 27.000000000 4832.0000000 1.0000000000
 1596.6250000 13.786999702 21.493000031 4.0000000000 27.000000000 4832.0000000 1.0000000000
 1596.7500000 14.109000206 21.635000229 4.0000000000 27.000000000 4832.0000000 1.0000000000
 1596.8750000 14.760000229 21.739999771 4.0000000000 27.000000000 4832.0000000 1.0000000000
