# LAS format log file from PETREL
# Project units are specified as depth units
#==================================================================
~Version information
VERS.   2.0:
WRAP.   NO:
#==================================================================
~Well
STRT .m      1450.0000000 :
STOP .m      1594.0000000 :
STEP .m     0.12500000 :
NULL .        -999.250000 :
COMP.           : COMPANY
WELL.  5-0161   : WELL
FLD.            : FIELD
LOC.            : LOCATION
SRVC.           : SERVICE COMPANY
DATE.  2020-03-08 09:25:09   : Log Export Date {yyyy-MM-dd HH:mm:ss}
PROV.           : PROVINCE
UWI.      : UNIQUE WELL ID
API.            : API NUMBER
#==================================================================
~Curve
DEPT .m                   : DEPTH
RT .ohm.m                 : RT
SP .                      : SP
Fluids .                  : Fluids
POR .m3/m3                : POR
PERM .mD                  : PERM
Lith .                    : Lith
~Parameter
#==================================================================
~Ascii
# ...
 1558.7500000 29.139999390 22.809999466 4.0000000000 22.000000000 2098.0000000 1.0000000000
 1558.8750000 32.189998627 22.959999084 4.0000000000 22.000000000 2098.0000000 1.0000000000
 1559.0000000 34.509998322 23.010000229 4.0000000000 22.000000000 2098.0000000 1.0000000000
 1559.1250000 34.279998779 23.049999237 4.0000000000 22.000000000 2098.0000000 1.0000000000
 1559.2500000 33.509998322 23.079999924 4.0000000000 22.000000000 2098.0000000 1.0000000000
 1559.3750000 33.720001221 23.120000839 4.0000000000 22.000000000 2098.0000000 1.0000000000
 1559.5000000 33.849998474 23.149999619 4.0000000000 22.000000000 2098.0000000 1.0000000000
 1559.6250000 32.819999695 23.190000534 4.0000000000 22.000000000 2098.0000000 1.0000000000
 1559.7500000 29.100000381 23.229999542 4.0000000000 22.000000000 2098.0000000 1.0000000000
 1559.8750000 27.290000916 23.280000687 4.0000000000 22.000000000 2098.0000000 1.0000000000
 1560.0000000 27.879999161 23.329999924 4.0000000000 22.000000000 2098.0000000 1.0000000000
 1560.1250000 29.110000610 23.379999161 4.0000000000 22.000000000 2098.0000000 1.0000000000
 1560.2500000 28.719999313 23.430000305 4.0000000000 22.000000000 2098.0000000 1.0000000000
 1560.3750000 25.750000000 23.469999313 4.0000000000 22.000000000 2098.0000000 1.0000000000
 1560.5000000 22.020000458 23.510000229 4.0000000000 22.000000000 2098.0000000 1.0000000000
 1560.6250000 19.520000458 23.540000916 4.0000000000 22.000000000 2098.0000000 1.0000000000
 1560.7500000 17.559999466 23.579999924 4.0000000000 22.000000000 2098.0000000 1.0000000000
 1560.8750000 15.829999924 23.590000153 4.0000000000 22.000000000 2098.0000000 1.0000000000
 1561.0000000 14.850000381 23.590000153 4.0000000000 22.000000000 2098.0000000 1.0000000000
 1561.1250000 14.270000458 23.620000839 4.0000000000 22.000000000 2098.0000000 1.0000000000
 1561.2500000 12.729999542 23.629999161 4.0000000000 22.000000000 2098.0000000 1.0000000000
 1561.3750000 11.670000076 23.610000610 4.0000000000 22.000000000 2098.0000000 1.0000000000
 1561.5000000 13.050000191 23.549999237 4.0000000000 22.000000000 2098.0000000 1.0000000000
 1561.6250000 15.199999809 23.379999161 4.0000000000 22.000000000 2098.0000000 1.0000000000
 1561.7500000 17.340000153 23.209999084 4.0000000000 22.000000000 2098.0000000 1.0000000000
 1561.8750000 19.620000839 23.049999237 4.0000000000 22.000000000 2098.0000000 1.0000000000
 1562.0000000 22.139999390 22.899999619 4.0000000000 22.000000000 2098.0000000 1.0000000000
 1562.1250000 19.040000916 22.760000229 4.0000000000 22.000000000 2098.0000000 1.0000000000
 1562.2500000 19.149999619 22.639999390 4.0000000000 22.000000000 2098.0000000 1.0000000000
 1562.3750000 21.479999542 22.520000458 4.0000000000 22.000000000 2098.0000000 1.0000000000
 1562.5000000 39.349998474 22.409999847 4.0000000000 22.000000000 2098.0000000 1.0000000000
 1562.6250000 49.540000916 22.360000610 4.0000000000 22.000000000 2098.0000000 1.0000000000
 1562.7500000 59.959999084 22.370000839 4.0000000000 22.000000000 2098.0000000 1.0000000000
 1562.8750000 67.889999390 22.389999390 4.0000000000 22.000000000 2098.0000000 1.0000000000
 1563.0000000 66.099998474 22.479999542 4.0000000000 22.000000000 2098.0000000 1.0000000000
 1563.1250000 62.909999847 22.620000839 4.0000000000 22.000000000 2098.0000000 1.0000000000
 1563.2500000 30.440000534 22.750000000 4.0000000000 22.000000000 2098.0000000 1.0000000000
 1563.3750000 14.619999886 22.909999847 4.0000000000 22.000000000 2098.0000000 1.0000000000
 1563.5000000 10.069999695 23.000000000 4.0000000000 22.000000000 2098.0000000 1.0000000000
 1563.6250000 10.489999771 22.920000076 4.0000000000 22.000000000 2098.0000000 1.0000000000
 1563.7500000 10.449999809 22.809999466 4.0000000000 22.000000000 2098.0000000 1.0000000000
 1563.8750000 9.8699998856 22.690000534 4.0000000000 22.000000000 2098.0000000 1.0000000000
 1564.0000000 11.180000305 22.610000610 4.0000000000 22.000000000 2098.0000000 1.0000000000
 1564.1250000 37.639999390 22.530000687 4.0000000000 22.000000000 2098.0000000 1.0000000000
 1564.2500000 48.700000763 22.489999771 4.0000000000 22.000000000 2098.0000000 1.0000000000
 1564.3750000 50.159999847 22.530000687 4.0000000000 22.000000000 2098.0000000 1.0000000000
 1564.5000000 48.130001068 22.569999695 4.0000000000 22.000000000 2098.0000000 1.0000000000
 1564.6250000 12.680000305 22.670000076 4.0000000000 22.000000000 2098.0000000 1.0000000000
 1564.7500000 16.690000534 22.770000458 4.0000000000 22.000000000 2098.0000000 1.0000000000
 1564.8750000 22.690000534 22.899999619 4.0000000000 22.000000000 2098.0000000 1.0000000000
 1565.0000000 26.350000381 23.030000687 4.0000000000 22.000000000 2098.0000000 1.0000000000
 1565.1250000 24.239999771 23.170000076 4.0000000000 22.000000000 2098.0000000 1.0000000000
 1565.2500000 15.920000076 23.309999466 4.0000000000 22.000000000 2098.0000000 1.0000000000
 1565.3750000 12.880000114 23.450000763 4.0000000000 22.000000000 2098.0000000 1.0000000000
 1565.5000000 11.430000305 23.590000153 3.0000000000 7.0000000000 5.0000000000 1.0000000000
 1565.6250000 9.6400003433 23.739999771 3.0000000000 7.0000000000 5.0000000000 1.0000000000
 1565.7500000 8.0299997330 23.879999161 3.0000000000 7.0000000000 5.0000000000 1.0000000000
 1565.8750000 7.0799999237 24.020000458 3.0000000000 7.0000000000 5.0000000000 1.0000000000
 1566.0000000 7.1399998665 24.159999847 3.0000000000 7.0000000000 5.0000000000 1.0000000000
 1566.1250000 7.6799998283 24.299999237 3.0000000000 7.0000000000 5.0000000000 1.0000000000
 1566.2500000 7.5999999046 24.489999771 3.0000000000 7.0000000000 5.0000000000 1.0000000000
 1566.3750000 6.5100002289 24.680000305 3.0000000000 7.0000000000 5.0000000000 1.0000000000
 1566.5000000 5.9000000954 24.860000610 3.0000000000 7.0000000000 5.0000000000 1.0000000000
 1566.6250000 7.1599998474 25.049999237 3.0000000000 7.0000000000 5.0000000000 1.0000000000
 1566.7500000 8.3400001526 25.229999542 3.0000000000 7.0000000000 5.0000000000 1.0000000000
 1566.8750000 9.3000001907 25.409999847 3.0000000000 7.0000000000 5.0000000000 1.0000000000
 1567.0000000 8.3900003433 25.510000229 3.0000000000 7.0000000000 5.0000000000 1.0000000000
 1567.1250000 6.7399997711 25.600000381 3.0000000000 7.0000000000 5.0000000000 1.0000000000
 1567.2500000 5.0399999619 25.760000229 3.0000000000 7.0000000000 5.0000000000 1.0000000000
 1567.3750000 5.4000000954 25.930000305 3.0000000000 7.0000000000 5.0000000000 1.0000000000
 1567.5000000 5.6799998283 25.979999542 3.0000000000 7.0000000000 5.0000000000 1.0000000000
 1567.6250000 5.1500000954 25.909999847 3.0000000000 7.0000000000 5.0000000000 1.0000000000
 1567.7500000 4.8600001335 25.670000076 3.0000000000 7.0000000000 5.0000000000 1.0000000000
 1567.8750000 5.0000000000 25.290000916 3.0000000000 7.0000000000 5.0000000000 1.0000000000
 1568.0000000 4.4899997711 24.899999619  -999.250000 0.1000000015 0.1000000015 0.0000000000
 1568.1250000 2.6400001049 24.379999161  -999.250000 0.1000000015 0.1000000015 0.0000000000
 1568.2500000 2.1800000668 23.760000229  -999.250000 0.1000000015 0.1000000015 0.0000000000
 1568.3750000 2.7000000477 23.219999313  -999.250000 0.1000000015 0.1000000015 0.0000000000
 1568.5000000 3.5899999142 22.719999313  -999.250000 0.1000000015 0.1000000015 0.0000000000
 1568.6250000 4.5399999619 22.280000687 4.0000000000 19.000000000 1366.0000000 1.0000000000
 1568.7500000 5.8299999237 21.899999619 4.0000000000 19.000000000 1366.0000000 1.0000000000
 1568.8750000 8.5500001907 21.569999695 4.0000000000 19.000000000 1366.0000000 1.0000000000
 1569.0000000 14.640000343 21.569999695 4.0000000000 19.000000000 1366.0000000 1.0000000000
 1569.1250000 22.780000687 21.850000381 4.0000000000 19.000000000 1366.0000000 1.0000000000
 1569.2500000 32.049999237 22.040000916 4.0000000000 19.000000000 1366.0000000 1.0000000000
 1569.3750000 30.379999161 22.090000153 4.0000000000 19.000000000 1366.0000000 1.0000000000
 1569.5000000 28.250000000 22.079999924 4.0000000000 19.000000000 1366.0000000 1.0000000000
