# LAS format log file from PETREL
# Project units are specified as depth units
#==================================================================
~Version information
VERS.   2.0:
WRAP.   NO:
#==================================================================
~Well
STRT .m      725.00000000 :
STOP .m      1752.0000000 :
STEP .m     0.12500000 :
NULL .        -999.250000 :
COMP.           : COMPANY
WELL.  5-0166   : WELL
FLD.            : FIELD
LOC.            : LOCATION
SRVC.           : SERVICE COMPANY
DATE.  2020-03-08 09:25:09   : Log Export Date {yyyy-MM-dd HH:mm:ss}
PROV.           : PROVINCE
UWI.      : UNIQUE WELL ID
API.            : API NUMBER
#==================================================================
~Curve
DEPT .m                   : DEPTH
RT .ohm.m                 : RT
SP .                      : SP
Fluids .                  : Fluids
POR .m3/m3                : POR
PERM .mD                  : PERM
Lith .                    : Lith
~Parameter
#==================================================================
~Ascii
# ...
 1682.0000000 36.419998169 -9999.000000 4.0000000000 16.000000000 222.00000000 1.0000000000
 1682.1250000 34.005500793 -9999.000000 4.0000000000 16.000000000 222.00000000 1.0000000000
 1682.2500000 31.590999603 -9999.000000 4.0000000000 16.000000000 222.00000000 1.0000000000
 1682.3750000 29.176500320 -9999.000000 4.0000000000 16.000000000 222.00000000 1.0000000000
 1682.5000000 26.761999130 -9999.000000 4.0000000000 16.000000000 222.00000000 1.0000000000
 1682.6250000 25.041000366 -9999.000000 4.0000000000 16.000000000 222.00000000 1.0000000000
 1682.7500000 23.319999695 -9999.000000 4.0000000000 16.000000000 222.00000000 1.0000000000
 1682.8750000 21.599000931 -9999.000000 4.0000000000 16.000000000 222.00000000 1.0000000000
 1683.0000000 19.878000259 -9999.000000 4.0000000000 16.000000000 222.00000000 1.0000000000
 1683.1250000 23.445699692 -9999.000000 4.0000000000 16.000000000 222.00000000 1.0000000000
 1683.2500000 27.013500214 -9999.000000 4.0000000000 16.000000000 222.00000000 1.0000000000
 1683.3750000 30.581199646 -9999.000000 4.0000000000 16.000000000 222.00000000 1.0000000000
 1683.5000000 34.148998260 -9999.000000 4.0000000000 16.000000000 222.00000000 1.0000000000
 1683.6250000 30.983999252 -9999.000000 4.0000000000 16.000000000 222.00000000 1.0000000000
 1683.7500000 27.819000244 -9999.000000 4.0000000000 16.000000000 222.00000000 1.0000000000
 1683.8750000 24.653999329 -9999.000000 4.0000000000 16.000000000 222.00000000 1.0000000000
 1684.0000000 21.489000320 -9999.000000 4.0000000000 16.000000000 222.00000000 1.0000000000
 1684.1250000 22.433500290 -9999.000000 3.0000000000 16.000000000 125.00000000 1.0000000000
 1684.2500000 23.378000259 -9999.000000 3.0000000000 16.000000000 125.00000000 1.0000000000
 1684.3750000 24.322500229 -9999.000000 3.0000000000 16.000000000 125.00000000 1.0000000000
 1684.5000000 25.267000198 -9999.000000 3.0000000000 16.000000000 125.00000000 1.0000000000
 1684.6250000 23.440799713 -9999.000000 3.0000000000 16.000000000 125.00000000 1.0000000000
 1684.7500000 21.614500046 -9999.000000 3.0000000000 16.000000000 125.00000000 1.0000000000
 1684.8750000 19.788200378 -9999.000000 3.0000000000 16.000000000 125.00000000 1.0000000000
 1685.0000000 17.961999893 -9999.000000 3.0000000000 16.000000000 125.00000000 1.0000000000
 1685.1250000 16.780500412 -9999.000000 3.0000000000 16.000000000 125.00000000 1.0000000000
 1685.2500000 15.598999977 -9999.000000 3.0000000000 16.000000000 125.00000000 1.0000000000
 1685.3750000 14.417499542 -9999.000000 3.0000000000 16.000000000 125.00000000 1.0000000000
 1685.5000000 13.236000061 -9999.000000 3.0000000000 16.000000000 125.00000000 1.0000000000
 1685.6250000 13.864800453 -9999.000000 3.0000000000 16.000000000 125.00000000 1.0000000000
 1685.7500000 14.493499756 -9999.000000 3.0000000000 16.000000000 125.00000000 1.0000000000
 1685.8750000 15.122300148 -9999.000000 3.0000000000 16.000000000 125.00000000 1.0000000000
 1686.0000000 15.751000404 -9999.000000 3.0000000000 16.000000000 125.00000000 1.0000000000
 1686.1250000 15.404500008 -9999.000000 3.0000000000 16.000000000 125.00000000 1.0000000000
 1686.2500000 15.057999611 -9999.000000 3.0000000000 16.000000000 125.00000000 1.0000000000
 1686.3750000 14.711500168 -9999.000000 3.0000000000 16.000000000 125.00000000 1.0000000000
 1686.5000000 14.364999771 -9999.000000 3.0000000000 16.000000000 125.00000000 1.0000000000
 1686.6250000 15.538999557 -9999.000000 3.0000000000 16.000000000 125.00000000 1.0000000000
 1686.7500000 16.712999344 -9999.000000 3.0000000000 16.000000000 125.00000000 1.0000000000
 1686.8750000 17.886999130 -9999.000000 3.0000000000 16.000000000 125.00000000 1.0000000000
 1687.0000000 19.061000824 -9999.000000 3.0000000000 16.000000000 125.00000000 1.0000000000
 1687.1250000 18.047800064 -9999.000000 3.0000000000 16.000000000 125.00000000 1.0000000000
 1687.2500000 17.034500122 -9999.000000 3.0000000000 16.000000000 125.00000000 1.0000000000
 1687.3750000 16.021299362 -9999.000000 3.0000000000 16.000000000 125.00000000 1.0000000000
 1687.5000000 15.008000374 -9999.000000 3.0000000000 16.000000000 125.00000000 1.0000000000
 1687.6250000 15.729800224 -9999.000000 3.0000000000 16.000000000 125.00000000 1.0000000000
 1687.7500000 16.451499939 -9999.000000 3.0000000000 16.000000000 125.00000000 1.0000000000
 1687.8750000 17.173299789 -9999.000000 3.0000000000 16.000000000 125.00000000 1.0000000000
 1688.0000000 17.895000458 -9999.000000 3.0000000000 16.000000000 125.00000000 1.0000000000
 1688.1250000 17.393999100 -9999.000000 3.0000000000 16.000000000 125.00000000 1.0000000000
 1688.2500000 16.892999649 -9999.000000 3.0000000000 16.000000000 125.00000000 1.0000000000
 1688.3750000 16.392000198 -9999.000000 3.0000000000 16.000000000 125.00000000 1.0000000000
 1688.5000000 15.890999794 -9999.000000 3.0000000000 16.000000000 125.00000000 1.0000000000
 1688.6250000 17.021299362 -9999.000000 3.0000000000 16.000000000 125.00000000 1.0000000000
 1688.7500000 18.151500702 -9999.000000 3.0000000000 16.000000000 125.00000000 1.0000000000
 1688.8750000 19.281799316 -9999.000000 3.0000000000 16.000000000 125.00000000 1.0000000000
 1689.0000000 20.412000656 -9999.000000 4.0000000000 16.000000000 147.00000000 1.0000000000
 1689.1250000 26.159799576 -9999.000000 4.0000000000 16.000000000 147.00000000 1.0000000000
 1689.2500000 31.907499313 -9999.000000 4.0000000000 16.000000000 147.00000000 1.0000000000
 1689.3750000 37.655300140 -9999.000000 4.0000000000 16.000000000 147.00000000 1.0000000000
 1689.5000000 43.402999878 -9999.000000 4.0000000000 16.000000000 147.00000000 1.0000000000
 1689.6250000 45.524700165 -9999.000000 4.0000000000 16.000000000 147.00000000 1.0000000000
 1689.7500000 47.646499634 -9999.000000 4.0000000000 16.000000000 147.00000000 1.0000000000
 1689.8750000 49.768199921 -9999.000000 4.0000000000 16.000000000 147.00000000 1.0000000000
 1690.0000000 51.889999390 -9999.000000 4.0000000000 16.000000000 147.00000000 1.0000000000
 1690.1250000 51.571201324 -9999.000000 4.0000000000 16.000000000 147.00000000 1.0000000000
 1690.2500000 51.252498627 -9999.000000 4.0000000000 16.000000000 147.00000000 1.0000000000
 1690.3750000 50.933799744 -9999.000000 4.0000000000 16.000000000 147.00000000 1.0000000000
 1690.5000000 50.615001678 -9999.000000 4.0000000000 16.000000000 147.00000000 1.0000000000
 1690.6250000 47.701301575 -9999.000000 4.0000000000 16.000000000 147.00000000 1.0000000000
 1690.7500000 44.787498474 -9999.000000 4.0000000000 16.000000000 147.00000000 1.0000000000
 1690.8750000 41.873699188 -9999.000000 4.0000000000 16.000000000 147.00000000 1.0000000000
 1691.0000000 38.959999084 -9999.000000 4.0000000000 16.000000000 147.00000000 1.0000000000
 1691.1250000 43.500999451 -9999.000000 4.0000000000 16.000000000 147.00000000 1.0000000000
 1691.2500000 48.041999817 -9999.000000 4.0000000000 16.000000000 147.00000000 1.0000000000
 1691.3750000 52.583000183 -9999.000000 4.0000000000 16.000000000 147.00000000 1.0000000000
 1691.5000000 57.124000549 -9999.000000 4.0000000000 16.000000000 147.00000000 1.0000000000
 1691.6250000 53.492000580 -9999.000000 4.0000000000 16.000000000 147.00000000 1.0000000000
 1691.7500000 49.860000610 -9999.000000 4.0000000000 16.000000000 147.00000000 1.0000000000
 1691.8750000 46.228000641 -9999.000000 4.0000000000 16.000000000 147.00000000 1.0000000000
 1692.0000000 42.596000671 -9999.000000 4.0000000000 16.000000000 147.00000000 1.0000000000
 1692.1250000 40.461498260 -9999.000000 4.0000000000 16.000000000 147.00000000 1.0000000000
 1692.2500000 38.326999664 -9999.000000 4.0000000000 16.000000000 147.00000000 1.0000000000
 1692.3750000 36.192501068 -9999.000000 4.0000000000 16.000000000 147.00000000 1.0000000000
 1692.5000000 34.057998657 -9999.000000 4.0000000000 16.000000000 147.00000000 1.0000000000
 1692.6250000 33.853000641 -9999.000000 4.0000000000 16.000000000 147.00000000 1.0000000000
 1692.7500000 33.647998810 -9999.000000 4.0000000000 16.000000000 147.00000000 1.0000000000
