# LAS format log file from PETREL
# Project units are specified as depth units
#==================================================================
~Version information
VERS.   2.0:
WRAP.   NO:
#==================================================================
~Well
STRT .m      745.00000000 :
STOP .m      1730.0000000 :
STEP .m     0.12500000 :
NULL .        -999.250000 :
COMP.           : COMPANY
WELL.  5-0158   : WELL
FLD.            : FIELD
LOC.            : LOCATION
SRVC.           : SERVICE COMPANY
DATE.  2020-03-08 09:25:08   : Log Export Date {yyyy-MM-dd HH:mm:ss}
PROV.           : PROVINCE
UWI.      : UNIQUE WELL ID
API.            : API NUMBER
#==================================================================
~Curve
DEPT .m                   : DEPTH
RT .ohm.m                 : RT
SP .                      : SP
Fluids .                  : Fluids
POR .m3/m3                : POR
PERM .mD                  : PERM
Lith .                    : Lith
~Parameter
#==================================================================
~Ascii
# ...
 1680.2500000 7.2915000916 -9999.000000 4.0000000000 17.000000000 227.00000000 1.0000000000
 1680.3750000 6.9847998619 -9999.000000  -999.250000 0.1000000015 0.1000000015 0.0000000000
 1680.5000000 6.6779999733 -9999.000000  -999.250000 0.1000000015 0.1000000015 0.0000000000
 1680.6250000 7.9734997749 -9999.000000  -999.250000 0.1000000015 0.1000000015 0.0000000000
 1680.7500000 9.2690000534 -9999.000000  -999.250000 0.1000000015 0.1000000015 0.0000000000
 1680.8750000 10.564499855 -9999.000000  -999.250000 0.1000000015 0.1000000015 0.0000000000
 1681.0000000 11.859999657 -9999.000000  -999.250000 0.1000000015 0.1000000015 0.0000000000
 1681.1250000 10.892000198 -9999.000000  -999.250000 0.1000000015 0.1000000015 0.0000000000
 1681.2500000 9.9239997864 -9999.000000  -999.250000 0.1000000015 0.1000000015 0.0000000000
 1681.3750000 8.9560003281 -9999.000000  -999.250000 0.1000000015 0.1000000015 0.0000000000
 1681.5000000 7.9879999161 -9999.000000  -999.250000 0.1000000015 0.1000000015 0.0000000000
 1681.6250000 7.9085001945 -9999.000000  -999.250000 0.1000000015 0.1000000015 0.0000000000
 1681.7500000 7.8289999962 -9999.000000  -999.250000 0.1000000015 0.1000000015 0.0000000000
 1681.8750000 7.7494997978 -9999.000000  -999.250000 0.1000000015 0.1000000015 0.0000000000
 1682.0000000 7.6700000763 -9999.000000  -999.250000 0.1000000015 0.1000000015 0.0000000000
 1682.1250000 6.9942998886 -9999.000000  -999.250000 0.1000000015 0.1000000015 0.0000000000
 1682.2500000 6.3185000420 -9999.000000  -999.250000 0.1000000015 0.1000000015 0.0000000000
 1682.3750000 5.6427998543 -9999.000000  -999.250000 0.1000000015 0.1000000015 0.0000000000
 1682.5000000 4.9670000076 -9999.000000  -999.250000 0.1000000015 0.1000000015 0.0000000000
 1682.6250000 4.9685001373 -9999.000000  -999.250000 0.1000000015 0.1000000015 0.0000000000
 1682.7500000 4.9699997902 -9999.000000  -999.250000 0.1000000015 0.1000000015 0.0000000000
 1682.8750000 4.9714999199 -9999.000000  -999.250000 0.1000000015 0.1000000015 0.0000000000
 1683.0000000 4.9730000496 -9999.000000  -999.250000 0.1000000015 0.1000000015 0.0000000000
 1683.1250000 5.2150001526 -9999.000000  -999.250000 0.1000000015 0.1000000015 0.0000000000
 1683.2500000 5.4569997787 -9999.000000  -999.250000 0.1000000015 0.1000000015 0.0000000000
 1683.3750000 5.6989998817 -9999.000000  -999.250000 0.1000000015 0.1000000015 0.0000000000
 1683.5000000 5.9409999847 -9999.000000  -999.250000 0.1000000015 0.1000000015 0.0000000000
 1683.6250000 6.3682999611 -9999.000000  -999.250000 0.1000000015 0.1000000015 0.0000000000
 1683.7500000 6.7954998016 -9999.000000  -999.250000 0.1000000015 0.1000000015 0.0000000000
 1683.8750000 7.2227997780 -9999.000000  -999.250000 0.1000000015 0.1000000015 0.0000000000
 1684.0000000 7.6500000954 -9999.000000  -999.250000 0.1000000015 0.1000000015 0.0000000000
 1684.1250000 7.3435001373 -9999.000000  -999.250000 0.1000000015 0.1000000015 0.0000000000
 1684.2500000 7.0370001793 -9999.000000  -999.250000 0.1000000015 0.1000000015 0.0000000000
 1684.3750000 6.7305002213 -9999.000000  -999.250000 0.1000000015 0.1000000015 0.0000000000
 1684.5000000 6.4239997864 -9999.000000  -999.250000 0.1000000015 0.1000000015 0.0000000000
 1684.6250000 6.2445001602 -9999.000000  -999.250000 0.1000000015 0.1000000015 0.0000000000
 1684.7500000 6.0650000572 -9999.000000  -999.250000 0.1000000015 0.1000000015 0.0000000000
 1684.8750000 5.8854999542 -9999.000000  -999.250000 0.1000000015 0.1000000015 0.0000000000
 1685.0000000 5.7059998512 -9999.000000  -999.250000 0.1000000015 0.1000000015 0.0000000000
 1685.1250000 6.9959998131 -9999.000000  -999.250000 0.1000000015 0.1000000015 0.0000000000
 1685.2500000 8.2860002518 -9999.000000  -999.250000 0.1000000015 0.1000000015 0.0000000000
 1685.3750000 9.5760002136 -9999.000000  -999.250000 0.1000000015 0.1000000015 0.0000000000
 1685.5000000 10.866000175 -9999.000000  -999.250000 0.1000000015 0.1000000015 0.0000000000
 1685.6250000 10.552300453 -9999.000000  -999.250000 0.1000000015 0.1000000015 0.0000000000
 1685.7500000 10.238499641 -9999.000000  -999.250000 0.1000000015 0.1000000015 0.0000000000
 1685.8750000 9.9247999191 -9999.000000  -999.250000 0.1000000015 0.1000000015 0.0000000000
 1686.0000000 9.6110000610 -9999.000000  -999.250000 0.1000000015 0.1000000015 0.0000000000
 1686.1250000 12.075300217 -9999.000000  -999.250000 0.1000000015 0.1000000015 0.0000000000
 1686.2500000 14.539500237 -9999.000000  -999.250000 0.1000000015 0.1000000015 0.0000000000
 1686.3750000 17.003799438 -9999.000000  -999.250000 0.1000000015 0.1000000015 0.0000000000
 1686.5000000 19.468000412 -9999.000000  -999.250000 0.1000000015 0.1000000015 0.0000000000
 1686.6250000 18.198799133 -9999.000000 3.0000000000 12.000000000 64.000000000 1.0000000000
 1686.7500000 16.929500580 -9999.000000 3.0000000000 12.000000000 64.000000000 1.0000000000
 1686.8750000 15.660200119 -9999.000000 3.0000000000 12.000000000 64.000000000 1.0000000000
 1687.0000000 14.390999794 -9999.000000 3.0000000000 12.000000000 64.000000000 1.0000000000
 1687.1250000 13.931200027 -9999.000000 3.0000000000 12.000000000 64.000000000 1.0000000000
 1687.2500000 13.471500397 -9999.000000 3.0000000000 12.000000000 64.000000000 1.0000000000
 1687.3750000 13.011699677 -9999.000000 3.0000000000 12.000000000 64.000000000 1.0000000000
 1687.5000000 12.552000046 -9999.000000 3.0000000000 12.000000000 64.000000000 1.0000000000
 1687.6250000 12.183799744 -9999.000000 3.0000000000 12.000000000 64.000000000 1.0000000000
 1687.7500000 11.815500259 -9999.000000 3.0000000000 12.000000000 64.000000000 1.0000000000
 1687.8750000 11.447299957 -9999.000000 3.0000000000 12.000000000 64.000000000 1.0000000000
 1688.0000000 11.079000473 -9999.000000 3.0000000000 12.000000000 64.000000000 1.0000000000
 1688.1250000 11.384300232 -9999.000000 3.0000000000 12.000000000 64.000000000 1.0000000000
 1688.2500000 11.689499855 -9999.000000 3.0000000000 12.000000000 64.000000000 1.0000000000
 1688.3750000 11.994799614 -9999.000000 3.0000000000 12.000000000 64.000000000 1.0000000000
 1688.5000000 12.300000191 -9999.000000 3.0000000000 12.000000000 64.000000000 1.0000000000
 1688.6250000 15.279000282 -9999.000000 3.0000000000 12.000000000 64.000000000 1.0000000000
 1688.7500000 18.257999420 -9999.000000 3.0000000000 12.000000000 64.000000000 1.0000000000
 1688.8750000 21.236999512 -9999.000000 3.0000000000 12.000000000 64.000000000 1.0000000000
 1689.0000000 24.215999603 -9999.000000 3.0000000000 12.000000000 64.000000000 1.0000000000
 1689.1250000 25.311199188 -9999.000000 3.0000000000 12.000000000 64.000000000 1.0000000000
 1689.2500000 26.406499863 -9999.000000 3.0000000000 12.000000000 64.000000000 1.0000000000
 1689.3750000 27.501699448 -9999.000000 3.0000000000 12.000000000 64.000000000 1.0000000000
 1689.5000000 28.597000122 -9999.000000 3.0000000000 12.000000000 64.000000000 1.0000000000
 1689.6250000 25.983699799 -9999.000000 3.0000000000 12.000000000 64.000000000 1.0000000000
 1689.7500000 23.370500565 -9999.000000 3.0000000000 12.000000000 64.000000000 1.0000000000
 1689.8750000 20.757200241 -9999.000000 3.0000000000 12.000000000 64.000000000 1.0000000000
 1690.0000000 18.143999100 -9999.000000 3.0000000000 12.000000000 64.000000000 1.0000000000
 1690.1250000 17.830999374 -9999.000000 3.0000000000 12.000000000 64.000000000 1.0000000000
 1690.2500000 17.517999649 -9999.000000 3.0000000000 12.000000000 64.000000000 1.0000000000
 1690.3750000 17.204999924 -9999.000000 3.0000000000 12.000000000 64.000000000 1.0000000000
 1690.5000000 16.892000198 -9999.000000 3.0000000000 12.000000000 64.000000000 1.0000000000
 1690.6250000 16.033500671 -9999.000000 3.0000000000 12.000000000 64.000000000 1.0000000000
 1690.7500000 15.175000191 -9999.000000 3.0000000000 12.000000000 64.000000000 1.0000000000
 1690.8750000 14.316499710 -9999.000000 3.0000000000 12.000000000 64.000000000 1.0000000000
 1691.0000000 13.458000183 -9999.000000 3.0000000000 12.000000000 64.000000000 1.0000000000
