# LAS format log file from PETREL
# Project units are specified as depth units
#==================================================================
~Version information
VERS.   2.0:
WRAP.   NO:
#==================================================================
~Well
STRT .m      1450.0000000 :
STOP .m      1594.0000000 :
STEP .m     0.12500000 :
NULL .        -999.250000 :
COMP.           : COMPANY
WELL.  5-0161   : WELL
FLD.            : FIELD
LOC.            : LOCATION
SRVC.           : SERVICE COMPANY
DATE.  2020-03-08 09:25:09   : Log Export Date {yyyy-MM-dd HH:mm:ss}
PROV.           : PROVINCE
UWI.      : UNIQUE WELL ID
API.            : API NUMBER
#==================================================================
~Curve
DEPT .m                   : DEPTH
RT .ohm.m                 : RT
SP .                      : SP
Fluids .                  : Fluids
POR .m3/m3                : POR
PERM .mD                  : PERM
Lith .                    : Lith
~Parameter
#==================================================================
~Ascii
# ...
 1537.0000000 2.3800001144 24.200000763  -999.250000  -999.250000  -999.250000  -999.250000
 1537.1250000 2.2500000000 24.329999924  -999.250000  -999.250000  -999.250000  -999.250000
 1537.2500000 2.1400001049 24.469999313  -999.250000  -999.250000  -999.250000  -999.250000
 1537.3750000 2.0399999619 24.620000839  -999.250000  -999.250000  -999.250000  -999.250000
 1537.5000000 1.9800000191 24.770000458  -999.250000  -999.250000  -999.250000  -999.250000
 1537.6250000 1.9299999475 24.920000076  -999.250000  -999.250000  -999.250000  -999.250000
 1537.7500000 1.9099999666 25.069999695  -999.250000  -999.250000  -999.250000  -999.250000
 1537.8750000 1.9199999571 25.229999542  -999.250000  -999.250000  -999.250000  -999.250000
 1538.0000000 1.9299999475 25.379999161  -999.250000  -999.250000  -999.250000  -999.250000
 1538.1250000 1.9400000572 25.540000916  -999.250000  -999.250000  -999.250000  -999.250000
 1538.2500000 1.9400000572 25.680000305  -999.250000  -999.250000  -999.250000  -999.250000
 1538.3750000 1.9500000477 25.739999771  -999.250000  -999.250000  -999.250000  -999.250000
 1538.5000000 1.9500000477 25.809999466  -999.250000  -999.250000  -999.250000  -999.250000
 1538.6250000 1.9500000477 25.870000839  -999.250000  -999.250000  -999.250000  -999.250000
 1538.7500000 1.9500000477 25.930000305  -999.250000  -999.250000  -999.250000  -999.250000
 1538.8750000 2.0099999905 25.969999313  -999.250000  -999.250000  -999.250000  -999.250000
 1539.0000000 2.0999999046 26.020000458  -999.250000  -999.250000  -999.250000  -999.250000
 1539.1250000 2.2000000477 26.030000687  -999.250000  -999.250000  -999.250000  -999.250000
 1539.2500000 2.2100000381 26.030000687  -999.250000  -999.250000  -999.250000  -999.250000
 1539.3750000 2.0899999142 25.739999771  -999.250000  -999.250000  -999.250000  -999.250000
 1539.5000000 1.9400000572 25.559999466  -999.250000  -999.250000  -999.250000  -999.250000
 1539.6250000 1.8099999428 25.379999161  -999.250000  -999.250000  -999.250000  -999.250000
 1539.7500000 1.8799999952 25.190000534  -999.250000  -999.250000  -999.250000  -999.250000
 1539.8750000 2.3199999332 25.010000229 0.0000000000 2.0000000000 0.0000000000 1.0000000000
 1540.0000000 2.7899999619 24.780000687 0.0000000000 2.0000000000 0.0000000000 1.0000000000
 1540.1250000 3.0099999905 24.530000687 0.0000000000 2.0000000000 0.0000000000 1.0000000000
 1540.2500000 3.3099999428 24.299999237 0.0000000000 2.0000000000 0.0000000000 1.0000000000
 1540.3750000 4.0399999619 24.059999466 0.0000000000 2.0000000000 0.0000000000 1.0000000000
 1540.5000000 4.4099998474 23.809999466 0.0000000000 2.0000000000 0.0000000000 1.0000000000
 1540.6250000 4.1100001335 23.540000916 0.0000000000 2.0000000000 0.0000000000 1.0000000000
 1540.7500000 3.5699999332 23.270000458 0.0000000000 2.0000000000 0.0000000000 1.0000000000
 1540.8750000 3.0699999332 22.840000153  -999.250000 0.1000000015 0.1000000015 0.0000000000
 1541.0000000 2.7000000477 22.370000839  -999.250000 0.1000000015 0.1000000015 0.0000000000
 1541.1250000 2.7599999905 21.709999084  -999.250000 0.1000000015 0.1000000015 0.0000000000
 1541.2500000 2.9500000477 20.700000763  -999.250000 0.1000000015 0.1000000015 0.0000000000
 1541.3750000 3.2100000381 19.209999084  -999.250000 0.1000000015 0.1000000015 0.0000000000
 1541.5000000 4.2199997902 18.250000000  -999.250000 0.1000000015 0.1000000015 0.0000000000
 1541.6250000 5.6500000954 17.489999771 4.0000000000 18.000000000 1126.0000000 1.0000000000
 1541.7500000 6.5799999237 16.899999619 4.0000000000 18.000000000 1126.0000000 1.0000000000
 1541.8750000 16.700000763 16.209999084 4.0000000000 18.000000000 1126.0000000 1.0000000000
 1542.0000000 21.459999084 15.279999733 4.0000000000 18.000000000 1126.0000000 1.0000000000
 1542.1250000 27.850000381 13.710000038 4.0000000000 18.000000000 1126.0000000 1.0000000000
 1542.2500000 31.420000076 13.189999580 4.0000000000 18.000000000 1126.0000000 1.0000000000
 1542.3750000 29.750000000 12.949999809 4.0000000000 18.000000000 1126.0000000 1.0000000000
 1542.5000000 28.590000153 12.829999924 4.0000000000 18.000000000 1126.0000000 1.0000000000
 1542.6250000 30.319999695 12.779999733 4.0000000000 18.000000000 1126.0000000 1.0000000000
 1542.7500000 48.790000916 12.770000458 4.0000000000 18.000000000 1126.0000000 1.0000000000
 1542.8750000 51.110000610 12.750000000 4.0000000000 18.000000000 1126.0000000 1.0000000000
 1543.0000000 53.200000763 12.739999771 4.0000000000 18.000000000 1126.0000000 1.0000000000
 1543.1250000 54.549999237 12.890000343 4.0000000000 18.000000000 1126.0000000 1.0000000000
 1543.2500000 54.470001221 13.039999962 4.0000000000 18.000000000 1126.0000000 1.0000000000
 1543.3750000 55.069999695 13.229999542 4.0000000000 18.000000000 1126.0000000 1.0000000000
 1543.5000000 52.709999084 13.449999809 4.0000000000 18.000000000 1126.0000000 1.0000000000
 1543.6250000 49.349998474 13.659999847 4.0000000000 18.000000000 1126.0000000 1.0000000000
 1543.7500000 44.819999695 13.869999886 4.0000000000 18.000000000 1126.0000000 1.0000000000
 1543.8750000 38.540000916 14.119999886 4.0000000000 18.000000000 1126.0000000 1.0000000000
 1544.0000000 25.719999313 14.380000114 4.0000000000 18.000000000 1126.0000000 1.0000000000
 1544.1250000 13.039999962 14.640000343 4.0000000000 18.000000000 1126.0000000 1.0000000000
 1544.2500000 11.779999733 14.909999847 4.0000000000 18.000000000 1126.0000000 1.0000000000
 1544.3750000 11.840000153 15.149999619 4.0000000000 18.000000000 1126.0000000 1.0000000000
 1544.5000000 15.670000076 15.369999886 4.0000000000 18.000000000 1126.0000000 1.0000000000
 1544.6250000 24.969999313 15.590000153 4.0000000000 18.000000000 1126.0000000 1.0000000000
 1544.7500000 25.229999542 15.810000420 4.0000000000 18.000000000 1126.0000000 1.0000000000
 1544.8750000 20.719999313 15.970000267 4.0000000000 18.000000000 1126.0000000 1.0000000000
 1545.0000000 15.229999542 16.079999924 4.0000000000 18.000000000 1126.0000000 1.0000000000
 1545.1250000 11.920000076 16.190000534 4.0000000000 18.000000000 1126.0000000 1.0000000000
 1545.2500000 11.819999695 16.309999466 4.0000000000 18.000000000 1126.0000000 1.0000000000
 1545.3750000 12.510000229 16.440000534 4.0000000000 18.000000000 1126.0000000 1.0000000000
 1545.5000000 11.550000191 16.559999466 4.0000000000 18.000000000 1126.0000000 1.0000000000
 1545.6250000 10.369999886 16.620000839 4.0000000000 18.000000000 1126.0000000 1.0000000000
 1545.7500000 9.3100004196 16.680000305 4.0000000000 18.000000000 1126.0000000 1.0000000000
 1545.8750000 8.0799999237 16.520000458 4.0000000000 18.000000000 1126.0000000 1.0000000000
 1546.0000000 8.6899995804 16.360000610 4.0000000000 18.000000000 1126.0000000 1.0000000000
 1546.1250000 18.559999466 16.129999161 4.0000000000 18.000000000 1126.0000000 1.0000000000
 1546.2500000 17.319999695 15.899999619 4.0000000000 18.000000000 1126.0000000 1.0000000000
 1546.3750000 14.489999771 15.670000076 4.0000000000 18.000000000 1126.0000000 1.0000000000
 1546.5000000 10.680000305 15.409999847 4.0000000000 18.000000000 1126.0000000 1.0000000000
 1546.6250000 8.1800003052 15.149999619 4.0000000000 18.000000000 1126.0000000 1.0000000000
 1546.7500000 11.670000076 14.890000343 4.0000000000 18.000000000 1126.0000000 1.0000000000
 1546.8750000 11.310000420 14.649999619 4.0000000000 18.000000000 1126.0000000 1.0000000000
 1547.0000000 10.500000000 14.449999809 4.0000000000 18.000000000 1126.0000000 1.0000000000
 1547.1250000 10.630000114 14.310000420 4.0000000000 18.000000000 1126.0000000 1.0000000000
 1547.2500000 14.000000000 14.289999962 4.0000000000 18.000000000 1126.0000000 1.0000000000
 1547.3750000 19.219999313 14.310000420 4.0000000000 18.000000000 1126.0000000 1.0000000000
 1547.5000000 26.250000000 14.300000191 4.0000000000 18.000000000 1126.0000000 1.0000000000
 1547.6250000 27.840000153 14.260000229 4.0000000000 18.000000000 1126.0000000 1.0000000000
 1547.7500000 27.979999542 14.229999542 4.0000000000 18.000000000 1126.0000000 1.0000000000
