# LAS format log file from PETREL
# Project units are specified as depth units
#==================================================================
~Version information
VERS.   2.0:
WRAP.   NO:
#==================================================================
~Well
STRT .m      1350.0000000 :
STOP .m      1755.0000000 :
STEP .m     0.12500000 :
NULL .        -999.250000 :
COMP.           : COMPANY
WELL.  5-0165C2   : WELL
FLD.            : FIELD
LOC.            : LOCATION
SRVC.           : SERVICE COMPANY
DATE.  2020-03-08 09:25:09   : Log Export Date {yyyy-MM-dd HH:mm:ss}
PROV.           : PROVINCE
UWI.      : UNIQUE WELL ID
API.            : API NUMBER
#==================================================================
~Curve
DEPT .m                   : DEPTH
RT .ohm.m                 : RT
SP .                      : SP
Fluids .                  : Fluids
POR .m3/m3                : POR
PERM .mD                  : PERM
Lith .                    : Lith
~Parameter
#==================================================================
~Ascii
# ...
 1665.3750000 7.3099999428 25.834999084 3.0000000000 12.000000000 107.00000000 1.0000000000
 1665.5000000 7.7740001678 25.961999893 3.0000000000 12.000000000 107.00000000 1.0000000000
 1665.6250000 8.0760002136 26.097999573 3.0000000000 12.000000000 107.00000000 1.0000000000
 1665.7500000 8.3229999542 26.332000732 3.0000000000 12.000000000 107.00000000 1.0000000000
 1665.8750000 8.5380001068 26.483999252 3.0000000000 12.000000000 107.00000000 1.0000000000
 1666.0000000 8.6590003967 26.545000076 3.0000000000 12.000000000 107.00000000 1.0000000000
 1666.1250000 8.8149995804 26.606000900 3.0000000000 12.000000000 107.00000000 1.0000000000
 1666.2500000 8.9189996719 26.330999374 3.0000000000 12.000000000 107.00000000 1.0000000000
 1666.3750000 9.0329999924 26.055000305 3.0000000000 12.000000000 107.00000000 1.0000000000
 1666.5000000 9.1529998779 25.778999329 3.0000000000 12.000000000 107.00000000 1.0000000000
 1666.6250000 9.1000003815 25.579000473 3.0000000000 12.000000000 107.00000000 1.0000000000
 1666.7500000 8.9130001068 25.243000031 3.0000000000 12.000000000 107.00000000 1.0000000000
 1666.8750000 8.6440000534 25.054000854 3.0000000000 12.000000000 107.00000000 1.0000000000
 1667.0000000 8.4270000458 24.888000488 3.0000000000 12.000000000 107.00000000 1.0000000000
 1667.1250000 8.0150003433 24.722000122 3.0000000000 12.000000000 107.00000000 1.0000000000
 1667.2500000 7.6890001297 24.322999954 3.0000000000 12.000000000 107.00000000 1.0000000000
 1667.3750000 7.2560000420 23.988000870 3.0000000000 12.000000000 107.00000000 1.0000000000
 1667.5000000 6.5040001869 23.694000244 3.0000000000 12.000000000 107.00000000 1.0000000000
 1667.6250000 5.8480000496 23.409000397 3.0000000000 12.000000000 107.00000000 1.0000000000
 1667.7500000 5.2760000229 23.128999710 3.0000000000 12.000000000 107.00000000 1.0000000000
 1667.8750000 4.8569998741 22.945999146 3.0000000000 12.000000000 107.00000000 1.0000000000
 1668.0000000 4.5180001259 22.687000275 3.0000000000 12.000000000 107.00000000 1.0000000000
 1668.1250000 3.7739999294 22.594999313 3.0000000000 12.000000000 107.00000000 1.0000000000
 1668.2500000 3.4089999199 22.357000351 3.0000000000 12.000000000 107.00000000 1.0000000000
 1668.3750000 3.5239999294 22.172000885 3.0000000000 12.000000000 107.00000000 1.0000000000
 1668.5000000 6.3720002174 21.916999817 3.0000000000 12.000000000 107.00000000 1.0000000000
 1668.6250000 8.7749996185 21.819000244 3.0000000000 12.000000000 107.00000000 1.0000000000
 1668.7500000 10.119000435 21.795999527 3.0000000000 12.000000000 107.00000000 1.0000000000
 1668.8750000 11.604000092 21.795999527 3.0000000000 12.000000000 107.00000000 1.0000000000
 1669.0000000 11.885999680 21.797000885 4.0000000000 25.000000000 2974.0000000 1.0000000000
 1669.1250000 12.168999672 21.798999786 4.0000000000 25.000000000 2974.0000000 1.0000000000
 1669.2500000 12.001999855 21.799999237 4.0000000000 25.000000000 2974.0000000 1.0000000000
 1669.3750000 11.986000061 21.715999603 4.0000000000 25.000000000 2974.0000000 1.0000000000
 1669.5000000 12.005000114 21.694000244 4.0000000000 25.000000000 2974.0000000 1.0000000000
 1669.6250000 12.076000214 21.052000046 4.0000000000 25.000000000 2974.0000000 1.0000000000
 1669.7500000 12.248999596 20.315000534 4.0000000000 25.000000000 2974.0000000 1.0000000000
 1669.8750000 12.199999809 19.687999725 4.0000000000 25.000000000 2974.0000000 1.0000000000
 1670.0000000 11.937999725 19.187000275 4.0000000000 25.000000000 2974.0000000 1.0000000000
 1670.1250000 11.689999580 18.423999786 4.0000000000 25.000000000 2974.0000000 1.0000000000
 1670.2500000 11.420000076 17.621999741 4.0000000000 25.000000000 2974.0000000 1.0000000000
 1670.3750000 8.0989999771 17.104000092 4.0000000000 25.000000000 2974.0000000 1.0000000000
 1670.5000000 6.2930002213 16.392000198 4.0000000000 25.000000000 2974.0000000 1.0000000000
 1670.6250000 5.5749998093 15.302000046 4.0000000000 25.000000000 2974.0000000 1.0000000000
 1670.7500000 5.6750001907 14.668999672 4.0000000000 25.000000000 2974.0000000 1.0000000000
 1670.8750000 7.1469998360 14.036000252 4.0000000000 25.000000000 2974.0000000 1.0000000000
 1671.0000000 7.7410001755 13.477999687 4.0000000000 25.000000000 2974.0000000 1.0000000000
 1671.1250000 7.9699997902 12.923000336 4.0000000000 25.000000000 2974.0000000 1.0000000000
 1671.2500000 7.9759998322 12.369999886 4.0000000000 25.000000000 2974.0000000 1.0000000000
 1671.3750000 8.0260000229 12.022000313 4.0000000000 25.000000000 2974.0000000 1.0000000000
 1671.5000000 8.1719999313 11.637999535 4.0000000000 25.000000000 2974.0000000 1.0000000000
 1671.6250000 8.3179998398 11.234000206 4.0000000000 25.000000000 2974.0000000 1.0000000000
 1671.7500000 8.5019998550 10.821999550 4.0000000000 25.000000000 2974.0000000 1.0000000000
 1671.8750000 8.6870002747 10.343000412 4.0000000000 25.000000000 2974.0000000 1.0000000000
 1672.0000000 8.7539997101 9.8979997635 4.0000000000 25.000000000 2974.0000000 1.0000000000
 1672.1250000 8.5659999847 9.5069999695 4.0000000000 25.000000000 2974.0000000 1.0000000000
 1672.2500000 8.1920003891 9.1759996414 4.0000000000 25.000000000 2974.0000000 1.0000000000
 1672.3750000 8.7770004272 9.0430002213 4.0000000000 25.000000000 2974.0000000 1.0000000000
 1672.5000000 10.092000008 8.8699998856 4.0000000000 25.000000000 2974.0000000 1.0000000000
 1672.6250000 11.038999557 8.6370000839 4.0000000000 25.000000000 2974.0000000 1.0000000000
 1672.7500000 12.352000237 8.3739995956 4.0000000000 25.000000000 2974.0000000 1.0000000000
 1672.8750000 13.529999733 8.2589998245 4.0000000000 25.000000000 2974.0000000 1.0000000000
 1673.0000000 16.430000305 8.1289997101 4.0000000000 25.000000000 2974.0000000 1.0000000000
 1673.1250000 17.392000198 8.3249998093 4.0000000000 25.000000000 2974.0000000 1.0000000000
 1673.2500000 18.725000381 8.5139999390 4.0000000000 25.000000000 2974.0000000 1.0000000000
 1673.3750000 19.482000351 8.7760000229 4.0000000000 25.000000000 2974.0000000 1.0000000000
 1673.5000000 20.430999756 9.2679996490  -999.250000 0.1000000015 0.1000000015 0.0000000000
 1673.6250000 21.618000031 9.5600004196  -999.250000 0.1000000015 0.1000000015 0.0000000000
 1673.7500000 22.643999100 9.9870004654  -999.250000 0.1000000015 0.1000000015 0.0000000000
 1673.8750000 23.166999817 10.491999626  -999.250000 0.1000000015 0.1000000015 0.0000000000
 1674.0000000 22.766000748 11.131999969 4.0000000000 20.000000000 1100.0000000 1.0000000000
 1674.1250000 22.128000259 11.468000412 4.0000000000 20.000000000 1100.0000000 1.0000000000
 1674.2500000 21.708999634 11.956000328 4.0000000000 20.000000000 1100.0000000 1.0000000000
 1674.3750000 21.288000107 12.505999565 4.0000000000 20.000000000 1100.0000000 1.0000000000
 1674.5000000 25.167999268 13.015999794 4.0000000000 20.000000000 1100.0000000 1.0000000000
 1674.6250000 27.356000900 13.526000023 4.0000000000 20.000000000 1100.0000000 1.0000000000
 1674.7500000 29.777999878 13.921999931 4.0000000000 20.000000000 1100.0000000 1.0000000000
 1674.8750000 27.722000122 14.317999840 4.0000000000 20.000000000 1100.0000000 1.0000000000
 1675.0000000 26.518999100 14.602000237 4.0000000000 20.000000000 1100.0000000 1.0000000000
 1675.1250000 26.084999084 14.803999901 4.0000000000 20.000000000 1100.0000000 1.0000000000
 1675.2500000 25.864999771 14.927000046 4.0000000000 20.000000000 1100.0000000 1.0000000000
 1675.3750000 25.767999649 14.980999947 4.0000000000 20.000000000 1100.0000000 1.0000000000
 1675.5000000 25.773000717 15.001000404 4.0000000000 20.000000000 1100.0000000 1.0000000000
 1675.6250000 25.916000366 15.006999969 4.0000000000 20.000000000 1100.0000000 1.0000000000
 1675.7500000 26.120000839 15.008000374 4.0000000000 20.000000000 1100.0000000 1.0000000000
 1675.8750000 26.452999115 15.010000229 4.0000000000 20.000000000 1100.0000000 1.0000000000
 1676.0000000 27.024000168 14.944000244 4.0000000000 20.000000000 1100.0000000 1.0000000000
 1676.1250000 27.594999313 14.802000046 4.0000000000 20.000000000 1100.0000000 1.0000000000
