# LAS format log file from PETREL
# Project units are specified as depth units
#==================================================================
~Version information
VERS.   2.0:
WRAP.   NO:
#==================================================================
~Well
STRT .m      1450.0000000 :
STOP .m      1760.0000000 :
STEP .m     0.12500000 :
NULL .        -999.250000 :
COMP.           : COMPANY
WELL.  5-0172C   : WELL
FLD.            : FIELD
LOC.            : LOCATION
SRVC.           : SERVICE COMPANY
DATE.  2020-03-08 09:25:09   : Log Export Date {yyyy-MM-dd HH:mm:ss}
PROV.           : PROVINCE
UWI.      : UNIQUE WELL ID
API.            : API NUMBER
#==================================================================
~Curve
DEPT .m                   : DEPTH
RT .ohm.m                 : RT
SP .                      : SP
Fluids .                  : Fluids
POR .m3/m3                : POR
PERM .mD                  : PERM
Lith .                    : Lith
~Parameter
#==================================================================
~Ascii
# ...
 1602.2500000 27.924999237 6.4660000801 4.0000000000 27.000000000 7378.0000000 1.0000000000
 1602.3750000 28.003000259 6.4029998779 4.0000000000 27.000000000 7378.0000000 1.0000000000
 1602.5000000 28.736999512 6.3289999962 4.0000000000 27.000000000 7378.0000000 1.0000000000
 1602.6250000 29.191999435 6.2290000916 4.0000000000 27.000000000 7378.0000000 1.0000000000
 1602.7500000 29.597000122 6.1909999847 4.0000000000 27.000000000 7378.0000000 1.0000000000
 1602.8750000 29.913999557 6.1209998131 4.0000000000 27.000000000 7378.0000000 1.0000000000
 1603.0000000 30.186000824 6.1149997711 4.0000000000 27.000000000 7378.0000000 1.0000000000
 1603.1250000 30.316999435 6.1110000610 4.0000000000 27.000000000 7378.0000000 1.0000000000
 1603.2500000 30.099000931 6.0609998703 4.0000000000 27.000000000 7378.0000000 1.0000000000
 1603.3750000 29.634000778 6.0479998589 4.0000000000 27.000000000 7378.0000000 1.0000000000
 1603.5000000 28.937000275 6.0430002213 4.0000000000 27.000000000 7378.0000000 1.0000000000
 1603.6250000 28.325000763 6.0380001068 4.0000000000 27.000000000 7378.0000000 1.0000000000
 1603.7500000 27.899999619 6.0349998474 4.0000000000 27.000000000 7378.0000000 1.0000000000
 1603.8750000 27.733999252 6.0320000648 4.0000000000 27.000000000 7378.0000000 1.0000000000
 1604.0000000 27.503999710 6.0640001297 4.0000000000 27.000000000 7378.0000000 1.0000000000
 1604.1250000 27.402000427 6.0739998817 4.0000000000 27.000000000 7378.0000000 1.0000000000
 1604.2500000 27.312999725 6.0850000381 4.0000000000 27.000000000 7378.0000000 1.0000000000
 1604.3750000 27.160999298 6.0819997787 4.0000000000 27.000000000 7378.0000000 1.0000000000
 1604.5000000 27.061000824 6.0789999962 4.0000000000 27.000000000 7378.0000000 1.0000000000
 1604.6250000 26.865999222 6.0760002136 4.0000000000 27.000000000 7378.0000000 1.0000000000
 1604.7500000 26.576000214 6.0729999542 4.0000000000 27.000000000 7378.0000000 1.0000000000
 1604.8750000 26.084999084 6.0700001717 4.0000000000 27.000000000 7378.0000000 1.0000000000
 1605.0000000 25.465999603 6.1090002060 4.0000000000 27.000000000 7378.0000000 1.0000000000
 1605.1250000 23.903999329 6.1180000305 4.0000000000 27.000000000 7378.0000000 1.0000000000
 1605.2500000 22.774000168 6.1189999580 4.0000000000 27.000000000 7378.0000000 1.0000000000
 1605.3750000 21.913999557 6.0890002251 4.0000000000 27.000000000 7378.0000000 1.0000000000
 1605.5000000 21.163999557 6.0590000153 4.0000000000 27.000000000 7378.0000000 1.0000000000
 1605.6250000 20.840999603 6.0069999695 4.0000000000 27.000000000 7378.0000000 1.0000000000
 1605.7500000 20.517999649 5.9539999962 4.0000000000 27.000000000 7378.0000000 1.0000000000
 1605.8750000 20.496999741 5.9299998283 4.0000000000 27.000000000 7378.0000000 1.0000000000
 1606.0000000 20.582000732 5.8829998970 4.0000000000 27.000000000 7378.0000000 1.0000000000
 1606.1250000 20.759000778 5.8309998512 4.0000000000 27.000000000 7378.0000000 1.0000000000
 1606.2500000 21.686000824 5.7779998779 4.0000000000 27.000000000 7378.0000000 1.0000000000
 1606.3750000 22.430999756 5.7119998932 4.0000000000 27.000000000 7378.0000000 1.0000000000
 1606.5000000 23.079000473 5.6849999428 4.0000000000 27.000000000 7378.0000000 1.0000000000
 1606.6250000 23.708999634 5.6570000648 4.0000000000 27.000000000 7378.0000000 1.0000000000
 1606.7500000 24.363000870 5.6539998055 4.0000000000 27.000000000 7378.0000000 1.0000000000
 1606.8750000 25.061000824 5.6510000229 4.0000000000 27.000000000 7378.0000000 1.0000000000
 1607.0000000 25.391000748 5.6490001678 4.0000000000 27.000000000 7378.0000000 1.0000000000
 1607.1250000 25.358999252 5.6030001640 4.0000000000 27.000000000 7378.0000000 1.0000000000
 1607.2500000 24.795999527 5.5879998207 4.0000000000 27.000000000 7378.0000000 1.0000000000
 1607.3750000 23.704999924 5.5799999237 4.0000000000 27.000000000 7378.0000000 1.0000000000
 1607.5000000 21.735000610 5.5760002136 4.0000000000 27.000000000 7378.0000000 1.0000000000
 1607.6250000 21.166000366 5.5720000267 4.0000000000 27.000000000 7378.0000000 1.0000000000
 1607.7500000 20.989000320 5.6050000191 4.0000000000 27.000000000 7378.0000000 1.0000000000
 1607.8750000 20.995000839 5.6189999580 4.0000000000 27.000000000 7378.0000000 1.0000000000
 1608.0000000 21.134000778 5.6230001450 4.0000000000 27.000000000 7378.0000000 1.0000000000
 1608.1250000 21.447000504 5.6209998131 4.0000000000 27.000000000 7378.0000000 1.0000000000
 1608.2500000 21.826999664 5.6189999580 4.0000000000 27.000000000 7378.0000000 1.0000000000
 1608.3750000 22.016000748 5.6160001755 4.0000000000 27.000000000 7378.0000000 1.0000000000
 1608.5000000 22.274999619 5.6129999161 4.0000000000 27.000000000 7378.0000000 1.0000000000
 1608.6250000 22.430000305 5.6100001335 4.0000000000 27.000000000 7378.0000000 1.0000000000
 1608.7500000 22.288999557 5.6069998741 4.0000000000 27.000000000 7378.0000000 1.0000000000
 1608.8750000 21.513999939 5.6040000916 4.0000000000 27.000000000 7378.0000000 1.0000000000
 1609.0000000 20.037000656 5.6009998322 4.0000000000 27.000000000 7378.0000000 1.0000000000
 1609.1250000 19.215000153 5.6350002289 4.0000000000 27.000000000 7378.0000000 1.0000000000
 1609.2500000 18.600000381 5.6909999847 4.0000000000 27.000000000 7378.0000000 1.0000000000
 1609.3750000 18.190999985 5.7399997711 4.0000000000 27.000000000 7378.0000000 1.0000000000
 1609.5000000 17.965000153 5.8420000076 4.0000000000 27.000000000 7378.0000000 1.0000000000
 1609.6250000 17.836000443 5.9260001183 4.0000000000 27.000000000 7378.0000000 1.0000000000
 1609.7500000 17.840000153 6.0209999084 4.0000000000 27.000000000 7378.0000000 1.0000000000
 1609.8750000 17.974000931 6.1459999084 4.0000000000 27.000000000 7378.0000000 1.0000000000
 1610.0000000 18.107999802 6.3340001106 4.0000000000 27.000000000 7378.0000000 1.0000000000
 1610.1250000 18.457000732 6.4340000153 4.0000000000 27.000000000 7378.0000000 1.0000000000
 1610.2500000 18.912000656 6.5789999962 4.0000000000 27.000000000 7378.0000000 1.0000000000
 1610.3750000 19.503999710 6.8299999237 4.0000000000 27.000000000 7378.0000000 1.0000000000
 1610.5000000 20.111000061 7.0390000343 4.0000000000 27.000000000 7378.0000000 1.0000000000
 1610.6250000 20.569999695 7.2470002174 4.0000000000 27.000000000 7378.0000000 1.0000000000
 1610.7500000 20.951000214 7.4650001526 4.0000000000 27.000000000 7378.0000000 1.0000000000
 1610.8750000 21.228000641 7.6149997711 4.0000000000 27.000000000 7378.0000000 1.0000000000
 1611.0000000 21.202999115 7.8159999847 4.0000000000 27.000000000 7378.0000000 1.0000000000
 1611.1250000 20.976999283 7.9939999580 4.0000000000 27.000000000 7378.0000000 1.0000000000
 1611.2500000 20.368999481 8.1719999313 4.0000000000 27.000000000 7378.0000000 1.0000000000
 1611.3750000 18.966999054 8.3830003738 4.0000000000 27.000000000 7378.0000000 1.0000000000
 1611.5000000 17.938999176 8.5329999924 4.0000000000 27.000000000 7378.0000000 1.0000000000
 1611.6250000 17.287000656 8.7340002060 4.0000000000 27.000000000 7378.0000000 1.0000000000
 1611.7500000 16.951999664 8.8839998245 4.0000000000 27.000000000 7378.0000000 1.0000000000
 1611.8750000 16.732999802 9.0340003967 4.0000000000 27.000000000 7378.0000000 1.0000000000
 1612.0000000 16.780000687 9.1820001602 4.0000000000 27.000000000 7378.0000000 1.0000000000
 1612.1250000 16.854000092 9.3290004730 4.0000000000 27.000000000 7378.0000000 1.0000000000
 1612.2500000 16.957000732 9.4759998322 4.0000000000 27.000000000 7378.0000000 1.0000000000
 1612.3750000 17.242000580 9.6920003891 4.0000000000 27.000000000 7378.0000000 1.0000000000
 1612.5000000 17.764999390 9.8719997406 4.0000000000 27.000000000 7378.0000000 1.0000000000
 1612.6250000 18.146999359 10.076000214 4.0000000000 27.000000000 7378.0000000 1.0000000000
 1612.7500000 18.238000870 10.241999626 4.0000000000 27.000000000 7378.0000000 1.0000000000
 1612.8750000 18.084999084 10.350000381 4.0000000000 27.000000000 7378.0000000 1.0000000000
 1613.0000000 17.777999878 10.529999733 4.0000000000 27.000000000 7378.0000000 1.0000000000
