# LAS format log file from PETREL
# Project units are specified as depth units
#==================================================================
~Version information
VERS.   2.0:
WRAP.   NO:
#==================================================================
~Well
STRT .m      1420.0000000 :
STOP .m      1734.8750000 :
STEP .m     0.12500000 :
NULL .        -999.250000 :
COMP.           : COMPANY
WELL.  5-0161C   : WELL
FLD.            : FIELD
LOC.            : LOCATION
SRVC.           : SERVICE COMPANY
DATE.  2020-03-08 09:25:09   : Log Export Date {yyyy-MM-dd HH:mm:ss}
PROV.           : PROVINCE
UWI.      : UNIQUE WELL ID
API.            : API NUMBER
#==================================================================
~Curve
DEPT .m                   : DEPTH
RT .ohm.m                 : RT
SP .                      : SP
Fluids .                  : Fluids
POR .m3/m3                : POR
PERM .mD                  : PERM
Lith .                    : Lith
~Parameter
#==================================================================
~Ascii
# ...
 1670.1250000 89.732002258 -75.46499634 4.0000000000 22.000000000 2428.0000000 1.0000000000
 1670.2500000 89.728996277 -75.87400055 4.0000000000 22.000000000 2428.0000000 1.0000000000
 1670.3750000 87.191001892 -76.13700104 4.0000000000 22.000000000 2428.0000000 1.0000000000
 1670.5000000 83.978996277 -76.11900330 4.0000000000 22.000000000 2428.0000000 1.0000000000
 1670.6250000 81.635002136 -75.81199646 4.0000000000 22.000000000 2428.0000000 1.0000000000
 1670.7500000 80.478996277 -75.49600220 4.0000000000 22.000000000 2428.0000000 1.0000000000
 1670.8750000 80.991996765 -75.31099701 4.0000000000 22.000000000 2428.0000000 1.0000000000
 1671.0000000 82.264999390 -75.32800293 4.0000000000 22.000000000 2428.0000000 1.0000000000
 1671.1250000 83.403999329 -75.32399750 4.0000000000 22.000000000 2428.0000000 1.0000000000
 1671.2500000 84.192001343 -75.21800232 4.0000000000 22.000000000 2428.0000000 1.0000000000
 1671.3750000 85.222999573 -75.01200104 4.0000000000 22.000000000 2428.0000000 1.0000000000
 1671.5000000 86.035003662 -74.85099792 4.0000000000 22.000000000 2428.0000000 1.0000000000
 1671.6250000 86.832000732 -74.82199860 4.0000000000 22.000000000 2428.0000000 1.0000000000
 1671.7500000 88.752998352 -74.96099854 4.0000000000 22.000000000 2428.0000000 1.0000000000
 1671.8750000 90.928001404 -75.17299652 4.0000000000 22.000000000 2428.0000000 1.0000000000
 1672.0000000 93.646003723 -75.36799622 4.0000000000 22.000000000 2428.0000000 1.0000000000
 1672.1250000 96.007003784 -75.51799774 4.0000000000 22.000000000 2428.0000000 1.0000000000
 1672.2500000 95.315002441 -75.72699738 4.0000000000 22.000000000 2428.0000000 1.0000000000
 1672.3750000 91.727996826 -76.00299835 4.0000000000 22.000000000 2428.0000000 1.0000000000
 1672.5000000 87.208000183 -76.22200012 4.0000000000 22.000000000 2428.0000000 1.0000000000
 1672.6250000 81.348999023 -76.32700348 4.0000000000 22.000000000 2428.0000000 1.0000000000
 1672.7500000 76.375999451 -76.22699738 4.0000000000 22.000000000 2428.0000000 1.0000000000
 1672.8750000 73.407997131 -75.91000366 4.0000000000 22.000000000 2428.0000000 1.0000000000
 1673.0000000 72.406997681 -75.44599915 4.0000000000 22.000000000 2428.0000000 1.0000000000
 1673.1250000 72.816001892 -74.94100189 4.0000000000 22.000000000 2428.0000000 1.0000000000
 1673.2500000 74.747001648 -74.45700073 4.0000000000 22.000000000 2428.0000000 1.0000000000
 1673.3750000 77.125000000 -73.91699982 4.0000000000 22.000000000 2428.0000000 1.0000000000
 1673.5000000 79.063003540 -73.40000153 4.0000000000 22.000000000 2428.0000000 1.0000000000
 1673.6250000 80.568000793 -72.97000122 4.0000000000 22.000000000 2428.0000000 1.0000000000
 1673.7500000 81.623001099 -72.67800140 4.0000000000 22.000000000 2428.0000000 1.0000000000
 1673.8750000 82.555999756 -72.41400146 4.0000000000 22.000000000 2428.0000000 1.0000000000
 1674.0000000 83.345001221 -72.16600037 4.0000000000 22.000000000 2428.0000000 1.0000000000
 1674.1250000 83.733001709 -71.89299774 4.0000000000 22.000000000 2428.0000000 1.0000000000
 1674.2500000 84.171997070 -71.56099701 4.0000000000 22.000000000 2428.0000000 1.0000000000
 1674.3750000 84.825996399 -71.12699890 4.0000000000 22.000000000 2428.0000000 1.0000000000
 1674.5000000 86.019996643 -70.60800171 4.0000000000 22.000000000 2428.0000000 1.0000000000
 1674.6250000 87.689002991 -69.99600220 4.0000000000 22.000000000 2428.0000000 1.0000000000
 1674.7500000 89.240997314 -69.27200317 4.0000000000 22.000000000 2428.0000000 1.0000000000
 1674.8750000 90.470001221 -68.48899841 4.0000000000 22.000000000 2428.0000000 1.0000000000
 1675.0000000 92.313003540 -67.75700378 4.0000000000 22.000000000 2428.0000000 1.0000000000
 1675.1250000 95.164001465 -67.03500366 4.0000000000 22.000000000 2428.0000000 1.0000000000
 1675.2500000 98.242996216 -66.36399841 4.0000000000 22.000000000 2428.0000000 1.0000000000
 1675.3750000 100.32399750 -65.83799744 4.0000000000 22.000000000 2428.0000000 1.0000000000
 1675.5000000 102.35099792 -65.51699829 4.0000000000 22.000000000 2428.0000000 1.0000000000
 1675.6250000 105.30300140 -65.34999847 4.0000000000 22.000000000 2428.0000000 1.0000000000
 1675.7500000 108.90899658 -65.15799713 4.0000000000 22.000000000 2428.0000000 1.0000000000
 1675.8750000 111.74500275 -64.89399719 4.0000000000 22.000000000 2428.0000000 1.0000000000
 1676.0000000 113.50800323 -64.46900177 4.0000000000 22.000000000 2428.0000000 1.0000000000
 1676.1250000 115.06700134 -63.94800186 4.0000000000 22.000000000 2428.0000000 1.0000000000
 1676.2500000 116.82900238 -63.47399902 4.0000000000 22.000000000 2428.0000000 1.0000000000
 1676.3750000 119.87500000 -63.20800018 4.0000000000 22.000000000 2428.0000000 1.0000000000
 1676.5000000 122.38300323 -63.20100021 4.0000000000 22.000000000 2428.0000000 1.0000000000
 1676.6250000 123.97100067 -63.54499817 4.0000000000 22.000000000 2428.0000000 1.0000000000
 1676.7500000 124.94200134 -64.25000000 4.0000000000 22.000000000 2428.0000000 1.0000000000
 1676.8750000 125.61699677 -65.25700378 4.0000000000 22.000000000 2428.0000000 1.0000000000
 1677.0000000 127.01399994 -66.35199738 4.0000000000 22.000000000 2428.0000000 1.0000000000
 1677.1250000 128.63900757 -67.38899994 4.0000000000 22.000000000 2428.0000000 1.0000000000
 1677.2500000 131.94099426 -68.27600098 4.0000000000 22.000000000 2428.0000000 1.0000000000
 1677.3750000 136.20100403 -69.00599670 4.0000000000 22.000000000 2428.0000000 1.0000000000
 1677.5000000 137.46499634 -69.51999664 4.0000000000 22.000000000 2428.0000000 1.0000000000
 1677.6250000 136.16799927 -69.86299896 4.0000000000 22.000000000 2428.0000000 1.0000000000
 1677.7500000 131.66600037 -70.11000061 4.0000000000 22.000000000 2428.0000000 1.0000000000
 1677.8750000 123.55799866 -70.22299957 4.0000000000 22.000000000 2428.0000000 1.0000000000
 1678.0000000 115.30400085 -70.17900085 4.0000000000 22.000000000 2428.0000000 1.0000000000
 1678.1250000 108.88300323 -69.99099731 4.0000000000 22.000000000 2428.0000000 1.0000000000
 1678.2500000 103.77100372 -69.70600128 4.0000000000 22.000000000 2428.0000000 1.0000000000
 1678.3750000 97.987998962 -69.34700012 4.0000000000 22.000000000 2428.0000000 1.0000000000
 1678.5000000 93.320999146 -68.97499847 4.0000000000 22.000000000 2428.0000000 1.0000000000
 1678.6250000 89.525001526 -68.65799713 4.0000000000 22.000000000 2428.0000000 1.0000000000
 1678.7500000 87.024002075 -68.41100311 4.0000000000 22.000000000 2428.0000000 1.0000000000
 1678.8750000 84.627998352 -68.26300049 4.0000000000 22.000000000 2428.0000000 1.0000000000
 1679.0000000 82.472999573 -68.27600098 4.0000000000 22.000000000 2428.0000000 1.0000000000
 1679.1250000 80.436996460 -68.58200073 4.0000000000 22.000000000 2428.0000000 1.0000000000
 1679.2500000 78.498001099 -69.15299988 4.0000000000 22.000000000 2428.0000000 1.0000000000
 1679.3750000 77.010002136 -69.81700134 4.0000000000 22.000000000 2428.0000000 1.0000000000
 1679.5000000 76.699996948 -70.38700104 4.0000000000 22.000000000 2428.0000000 1.0000000000
 1679.6250000 76.755996704 -70.79900360 4.0000000000 22.000000000 2428.0000000 1.0000000000
 1679.7500000 76.928001404 -71.07399750 4.0000000000 22.000000000 2428.0000000 1.0000000000
 1679.8750000 76.972000122 -71.09300232 4.0000000000 22.000000000 2428.0000000 1.0000000000
 1680.0000000 75.635002136 -70.91100311 4.0000000000 22.000000000 2428.0000000 1.0000000000
 1680.1250000 72.789001465 -70.71900177 4.0000000000 22.000000000 2428.0000000 1.0000000000
 1680.2500000 68.697998047 -70.69999695 4.0000000000 22.000000000 2428.0000000 1.0000000000
 1680.3750000 66.336997986 -70.86900330 4.0000000000 22.000000000 2428.0000000 1.0000000000
 1680.5000000 64.000999451 -71.21499634 4.0000000000 22.000000000 2428.0000000 1.0000000000
 1680.6250000 62.194999695 -71.64399719 4.0000000000 22.000000000 2428.0000000 1.0000000000
 1680.7500000 59.257999420 -71.96099854 4.0000000000 22.000000000 2428.0000000 1.0000000000
 1680.8750000 56.800998688 -72.03800201 4.0000000000 22.000000000 2428.0000000 1.0000000000
