# LAS format log file from PETREL
# Project units are specified as depth units
#==================================================================
~Version information
VERS.   2.0:
WRAP.   NO:
#==================================================================
~Well
STRT .m      1350.0000000 :
STOP .m      1755.0000000 :
STEP .m     0.12500000 :
NULL .        -999.250000 :
COMP.           : COMPANY
WELL.  5-0165C2   : WELL
FLD.            : FIELD
LOC.            : LOCATION
SRVC.           : SERVICE COMPANY
DATE.  2020-03-08 09:25:09   : Log Export Date {yyyy-MM-dd HH:mm:ss}
PROV.           : PROVINCE
UWI.      : UNIQUE WELL ID
API.            : API NUMBER
#==================================================================
~Curve
DEPT .m                   : DEPTH
RT .ohm.m                 : RT
SP .                      : SP
Fluids .                  : Fluids
POR .m3/m3                : POR
PERM .mD                  : PERM
Lith .                    : Lith
~Parameter
#==================================================================
~Ascii
# ...
 1643.6250000 19.027000427 6.3090000153 2.0000000000 27.000000000 4249.0000000 1.0000000000
 1643.7500000 20.150999069 6.0789999962 2.0000000000 27.000000000 4249.0000000 1.0000000000
 1643.8750000 20.743000031 5.8489999771 2.0000000000 27.000000000 4249.0000000 1.0000000000
 1644.0000000 21.030000687 5.6859998703 4.0000000000 26.000000000 3890.0000000 1.0000000000
 1644.1250000 21.111999512 5.5229997635 4.0000000000 26.000000000 3890.0000000 1.0000000000
 1644.2500000 21.038999557 5.3800001144 4.0000000000 26.000000000 3890.0000000 1.0000000000
 1644.3750000 20.867000580 5.1970000267 4.0000000000 26.000000000 3890.0000000 1.0000000000
 1644.5000000 20.607999802 5.0130000114 4.0000000000 26.000000000 3890.0000000 1.0000000000
 1644.6250000 20.267000198 4.7709999084 4.0000000000 26.000000000 3890.0000000 1.0000000000
 1644.7500000 20.023000717 4.6510000229 4.0000000000 26.000000000 3890.0000000 1.0000000000
 1644.8750000 19.778999329 4.5209999084 4.0000000000 26.000000000 3890.0000000 1.0000000000
 1645.0000000 19.565999985 4.2829999924 4.0000000000 26.000000000 3890.0000000 1.0000000000
 1645.1250000 19.045999527 4.2649998665 4.0000000000 26.000000000 3890.0000000 1.0000000000
 1645.2500000 18.622999191 4.1609997749 4.0000000000 26.000000000 3890.0000000 1.0000000000
 1645.3750000 18.541999817 3.9609999657 4.0000000000 26.000000000 3890.0000000 1.0000000000
 1645.5000000 18.570999146 3.8659999371 4.0000000000 26.000000000 3890.0000000 1.0000000000
 1645.6250000 18.622999191 3.7739999294 4.0000000000 26.000000000 3890.0000000 1.0000000000
 1645.7500000 18.788000107 3.6579999924 4.0000000000 26.000000000 3890.0000000 1.0000000000
 1645.8750000 18.952999115 3.5290000439 4.0000000000 26.000000000 3890.0000000 1.0000000000
 1646.0000000 18.827999115 3.4289999008 4.0000000000 26.000000000 3890.0000000 1.0000000000
 1646.1250000 18.580999374 3.3870000839 4.0000000000 26.000000000 3890.0000000 1.0000000000
 1646.2500000 18.337999344 3.3080000877 4.0000000000 26.000000000 3890.0000000 1.0000000000
 1646.3750000 18.034000397 3.1960000992 4.0000000000 26.000000000 3890.0000000 1.0000000000
 1646.5000000 17.629999161 3.0989999771 4.0000000000 26.000000000 3890.0000000 1.0000000000
 1646.6250000 17.176000595 2.9790000916 4.0000000000 26.000000000 3890.0000000 1.0000000000
 1646.7500000 16.701999664 2.8800001144 4.0000000000 26.000000000 3890.0000000 1.0000000000
 1646.8750000 15.930000305 2.7599999905 4.0000000000 26.000000000 3890.0000000 1.0000000000
 1647.0000000 15.156999588 2.6280000210 4.0000000000 26.000000000 3890.0000000 1.0000000000
 1647.1250000 15.368000031 2.5969998837 4.0000000000 26.000000000 3890.0000000 1.0000000000
 1647.2500000 21.275999069 2.6510000229 4.0000000000 26.000000000 3890.0000000 1.0000000000
 1647.3750000 24.236000061 2.7049999237 4.0000000000 26.000000000 3890.0000000 1.0000000000
 1647.5000000 24.771999359 2.9760000706 4.0000000000 26.000000000 3890.0000000 1.0000000000
 1647.6250000 24.687999725 3.2539999485 4.0000000000 26.000000000 3890.0000000 1.0000000000
 1647.7500000 24.235000610 3.6689999104 4.0000000000 26.000000000 3890.0000000 1.0000000000
 1647.8750000 23.354999542 3.9389998913 4.0000000000 26.000000000 3890.0000000 1.0000000000
 1648.0000000 22.576000214 4.1490001678 4.0000000000 26.000000000 3890.0000000 1.0000000000
 1648.1250000 20.420999527 4.3979997635 4.0000000000 26.000000000 3890.0000000 1.0000000000
 1648.2500000 18.559999466 4.6700000763 4.0000000000 26.000000000 3890.0000000 1.0000000000
 1648.3750000 18.482999802 4.9479999542 4.0000000000 26.000000000 3890.0000000 1.0000000000
 1648.5000000 18.406000137 5.3159999847 4.0000000000 26.000000000 3890.0000000 1.0000000000
 1648.6250000 19.100000381 5.7239999771 4.0000000000 26.000000000 3890.0000000 1.0000000000
 1648.7500000 19.792999268 6.0170001984 4.0000000000 26.000000000 3890.0000000 1.0000000000
 1648.8750000 20.725999832 6.4050002098 4.0000000000 26.000000000 3890.0000000 1.0000000000
 1649.0000000 21.337999344 6.7459998131 4.0000000000 26.000000000 3890.0000000 1.0000000000
 1649.1250000 21.919000626 7.0879998207 4.0000000000 26.000000000 3890.0000000 1.0000000000
 1649.2500000 22.584999084 7.4409999847 4.0000000000 26.000000000 3890.0000000 1.0000000000
 1649.3750000 21.572000504 7.8309998512 4.0000000000 26.000000000 3890.0000000 1.0000000000
 1649.5000000 21.177999496 8.1459999084 4.0000000000 26.000000000 3890.0000000 1.0000000000
 1649.6250000 20.940999985 8.4440002441 4.0000000000 26.000000000 3890.0000000 1.0000000000
 1649.7500000 20.625000000 8.8179998398 4.0000000000 26.000000000 3890.0000000 1.0000000000
 1649.8750000 19.090999603 9.1199998856 4.0000000000 26.000000000 3890.0000000 1.0000000000
 1650.0000000 16.872999191 9.4099998474 4.0000000000 26.000000000 3890.0000000 1.0000000000
 1650.1250000 15.361000061 9.7959995270 4.0000000000 26.000000000 3890.0000000 1.0000000000
 1650.2500000 13.951999664 10.003000259 4.0000000000 26.000000000 3890.0000000 1.0000000000
 1650.3750000 13.394000053 10.262999535 4.0000000000 26.000000000 3890.0000000 1.0000000000
 1650.5000000 13.369000435 10.545000076 4.0000000000 26.000000000 3890.0000000 1.0000000000
 1650.6250000 17.259000778 10.826000214 4.0000000000 26.000000000 3890.0000000 1.0000000000
 1650.7500000 19.455999374 11.107999802 4.0000000000 26.000000000 3890.0000000 1.0000000000
 1650.8750000 20.825000763 11.390999794 4.0000000000 26.000000000 3890.0000000 1.0000000000
 1651.0000000 22.135000229 11.758000374 4.0000000000 26.000000000 3890.0000000 1.0000000000
 1651.1250000 21.843000412 11.986000061 4.0000000000 26.000000000 3890.0000000 1.0000000000
 1651.2500000 21.423000336 12.161999702 4.0000000000 26.000000000 3890.0000000 1.0000000000
 1651.3750000 20.312000275 12.314000130 4.0000000000 26.000000000 3890.0000000 1.0000000000
 1651.5000000 19.736000061 12.416000366 4.0000000000 26.000000000 3890.0000000 1.0000000000
 1651.6250000 19.541000366 12.583999634  -999.250000 0.1000000015 0.1000000015 0.0000000000
 1651.7500000 19.603000641 12.819999695  -999.250000 0.1000000015 0.1000000015 0.0000000000
 1651.8750000 19.833999634 12.894000053  -999.250000 0.1000000015 0.1000000015 0.0000000000
 1652.0000000 20.232999802 13.005000114  -999.250000 0.1000000015 0.1000000015 0.0000000000
 1652.1250000 20.850999832 13.114999771  -999.250000 0.1000000015 0.1000000015 0.0000000000
 1652.2500000 14.201999664 13.253999710  -999.250000 0.1000000015 0.1000000015 0.0000000000
 1652.3750000 13.371000290 13.366000175  -999.250000 0.1000000015 0.1000000015 0.0000000000
 1652.5000000 12.909999847 13.553999901  -999.250000 0.1000000015 0.1000000015 0.0000000000
 1652.6250000 12.711999893 13.788999557 0.0000000000 13.000000000 78.000000000 1.0000000000
 1652.7500000 12.524999619 14.052000046 0.0000000000 13.000000000 78.000000000 1.0000000000
 1652.8750000 12.342000008 14.326999664 0.0000000000 13.000000000 78.000000000 1.0000000000
 1653.0000000 16.497999191 14.720999718 0.0000000000 13.000000000 78.000000000 1.0000000000
 1653.1250000 18.858999252 15.060999870 0.0000000000 13.000000000 78.000000000 1.0000000000
 1653.2500000 19.294000626 15.399999619 0.0000000000 13.000000000 78.000000000 1.0000000000
 1653.3750000 19.305000305 15.965000153 0.0000000000 13.000000000 78.000000000 1.0000000000
 1653.5000000 18.979999542 16.405000687 0.0000000000 13.000000000 78.000000000 1.0000000000
 1653.6250000 18.666000366 17.339000702 0.0000000000 13.000000000 78.000000000 1.0000000000
 1653.7500000 18.426000595 18.392999649 0.0000000000 13.000000000 78.000000000 1.0000000000
 1653.8750000 18.184999466 19.409999847 0.0000000000 13.000000000 78.000000000 1.0000000000
 1654.0000000 17.877000809 20.608999252 0.0000000000 13.000000000 78.000000000 1.0000000000
 1654.1250000 17.422000885 21.555000305 0.0000000000 13.000000000 78.000000000 1.0000000000
 1654.2500000 16.690000534 22.360000610 0.0000000000 13.000000000 78.000000000 1.0000000000
 1654.3750000 15.446000099 22.829999924 0.0000000000 13.000000000 78.000000000 1.0000000000
