# LAS format log file from PETREL
# Project units are specified as depth units
#==================================================================
~Version information
VERS.   2.0:
WRAP.   NO:
#==================================================================
~Well
STRT .m      730.00000000 :
STOP .m      1729.5000000 :
STEP .m     0.12500000 :
NULL .        -999.250000 :
COMP.           : COMPANY
WELL.  5-0163   : WELL
FLD.            : FIELD
LOC.            : LOCATION
SRVC.           : SERVICE COMPANY
DATE.  2020-03-08 09:25:09   : Log Export Date {yyyy-MM-dd HH:mm:ss}
PROV.           : PROVINCE
UWI.      : UNIQUE WELL ID
API.            : API NUMBER
#==================================================================
~Curve
DEPT .m                   : DEPTH
RT .ohm.m                 : RT
SP .                      : SP
Fluids .                  : Fluids
POR .m3/m3                : POR
PERM .mD                  : PERM
Lith .                    : Lith
~Parameter
#==================================================================
~Ascii
# ...
 1589.1250000 4.6129999161 -9999.000000  -999.250000 0.1000000015 0.1000000015 0.0000000000
 1589.2500000 4.3119997978 -9999.000000  -999.250000 0.1000000015 0.1000000015 0.0000000000
 1589.3750000 4.0110001564 -9999.000000  -999.250000 0.1000000015 0.1000000015 0.0000000000
 1589.5000000 3.7100000381 -9999.000000  -999.250000 0.1000000015 0.1000000015 0.0000000000
 1589.6250000 3.7479999065 -9999.000000  -999.250000 0.1000000015 0.1000000015 0.0000000000
 1589.7500000 3.7860000134 -9999.000000  -999.250000 0.1000000015 0.1000000015 0.0000000000
 1589.8750000 3.8239998817 -9999.000000  -999.250000 0.1000000015 0.1000000015 0.0000000000
 1590.0000000 3.8619999886 -9999.000000  -999.250000 0.1000000015 0.1000000015 0.0000000000
 1590.1250000 3.8564999104 -9999.000000  -999.250000 0.1000000015 0.1000000015 0.0000000000
 1590.2500000 3.8510000706 -9999.000000  -999.250000 0.1000000015 0.1000000015 0.0000000000
 1590.3750000 3.8454999924 -9999.000000  -999.250000 0.1000000015 0.1000000015 0.0000000000
 1590.5000000 3.8399999142 -9999.000000  -999.250000 0.1000000015 0.1000000015 0.0000000000
 1590.6250000 3.6166999340 -9999.000000  -999.250000 0.1000000015 0.1000000015 0.0000000000
 1590.7500000 3.3935000896 -9999.000000  -999.250000 0.1000000015 0.1000000015 0.0000000000
 1590.8750000 3.1702001095 -9999.000000  -999.250000 0.1000000015 0.1000000015 0.0000000000
 1591.0000000 2.9470000267 -9999.000000  -999.250000 0.1000000015 0.1000000015 0.0000000000
 1591.1250000 3.0973000526 -9999.000000  -999.250000 0.1000000015 0.1000000015 0.0000000000
 1591.2500000 3.2474999428 -9999.000000  -999.250000 0.1000000015 0.1000000015 0.0000000000
 1591.3750000 3.3977999687 -9999.000000  -999.250000 0.1000000015 0.1000000015 0.0000000000
 1591.5000000 3.5480000973 -9999.000000  -999.250000 0.1000000015 0.1000000015 0.0000000000
 1591.6250000 3.3808000088 -9999.000000  -999.250000 0.1000000015 0.1000000015 0.0000000000
 1591.7500000 3.2135000229 -9999.000000  -999.250000 0.1000000015 0.1000000015 0.0000000000
 1591.8750000 3.0462000370 -9999.000000  -999.250000 0.1000000015 0.1000000015 0.0000000000
 1592.0000000 2.8789999485 -9999.000000  -999.250000 0.1000000015 0.1000000015 0.0000000000
 1592.1250000 2.7790000439 -9999.000000  -999.250000 0.1000000015 0.1000000015 0.0000000000
 1592.2500000 2.6789999008 -9999.000000  -999.250000 0.1000000015 0.1000000015 0.0000000000
 1592.3750000 2.5789999962 -9999.000000  -999.250000 0.1000000015 0.1000000015 0.0000000000
 1592.5000000 2.4790000916 -9999.000000  -999.250000 0.1000000015 0.1000000015 0.0000000000
 1592.6250000 2.5339999199 -9999.000000  -999.250000 0.1000000015 0.1000000015 0.0000000000
 1592.7500000 2.5889999866 -9999.000000  -999.250000 0.1000000015 0.1000000015 0.0000000000
 1592.8750000 2.6440000534 -9999.000000  -999.250000 0.1000000015 0.1000000015 0.0000000000
 1593.0000000 2.6989998817 -9999.000000  -999.250000 0.1000000015 0.1000000015 0.0000000000
 1593.1250000 2.6586999893 -9999.000000  -999.250000 0.1000000015 0.1000000015 0.0000000000
 1593.2500000 2.6184999943 -9999.000000  -999.250000 0.1000000015 0.1000000015 0.0000000000
 1593.3750000 2.5782999992 -9999.000000  -999.250000 0.1000000015 0.1000000015 0.0000000000
 1593.5000000 2.5380001068 -9999.000000  -999.250000 0.1000000015 0.1000000015 0.0000000000
 1593.6250000 2.5490000248 -9999.000000  -999.250000 0.1000000015 0.1000000015 0.0000000000
 1593.7500000 2.5599999428 -9999.000000  -999.250000 0.1000000015 0.1000000015 0.0000000000
 1593.8750000 2.5710000992 -9999.000000  -999.250000 0.1000000015 0.1000000015 0.0000000000
 1594.0000000 2.5820000172 -9999.000000  -999.250000 0.1000000015 0.1000000015 0.0000000000
 1594.1250000 2.5125000477 -9999.000000  -999.250000 0.1000000015 0.1000000015 0.0000000000
 1594.2500000 2.4430000782 -9999.000000  -999.250000 0.1000000015 0.1000000015 0.0000000000
 1594.3750000 2.3735001087 -9999.000000  -999.250000 0.1000000015 0.1000000015 0.0000000000
 1594.5000000 2.3039999008 -9999.000000  -999.250000 0.1000000015 0.1000000015 0.0000000000
 1594.6250000 2.3357000351 -9999.000000  -999.250000 0.1000000015 0.1000000015 0.0000000000
 1594.7500000 2.3675000668 -9999.000000  -999.250000 0.1000000015 0.1000000015 0.0000000000
 1594.8750000 2.3991999626 -9999.000000  -999.250000 0.1000000015 0.1000000015 0.0000000000
 1595.0000000 2.4309999943 -9999.000000  -999.250000 0.1000000015 0.1000000015 0.0000000000
 1595.1250000 2.4588000774 -9999.000000  -999.250000 0.1000000015 0.1000000015 0.0000000000
 1595.2500000 2.4865000248 -9999.000000  -999.250000 0.1000000015 0.1000000015 0.0000000000
 1595.3750000 2.5143001080 -9999.000000  -999.250000 0.1000000015 0.1000000015 0.0000000000
 1595.5000000 2.5420000553 -9999.000000  -999.250000 0.1000000015 0.1000000015 0.0000000000
 1595.6250000 2.5155000687 -9999.000000  -999.250000 0.1000000015 0.1000000015 0.0000000000
 1595.7500000 2.4890000820 -9999.000000  -999.250000 0.1000000015 0.1000000015 0.0000000000
 1595.8750000 2.4625000954 -9999.000000  -999.250000 0.1000000015 0.1000000015 0.0000000000
 1596.0000000 2.4360001087 -9999.000000  -999.250000 0.1000000015 0.1000000015 0.0000000000
 1596.1250000 2.4500000477 -9999.000000  -999.250000 0.1000000015 0.1000000015 0.0000000000
 1596.2500000 2.4639999866 -9999.000000  -999.250000 0.1000000015 0.1000000015 0.0000000000
 1596.3750000 2.4779999256 -9999.000000  -999.250000 0.1000000015 0.1000000015 0.0000000000
 1596.5000000 2.4920001030 -9999.000000  -999.250000 0.1000000015 0.1000000015 0.0000000000
 1596.6250000 2.4307999611 -9999.000000  -999.250000 0.1000000015 0.1000000015 0.0000000000
 1596.7500000 2.3694999218 -9999.000000  -999.250000 0.1000000015 0.1000000015 0.0000000000
 1596.8750000 2.3083000183 -9999.000000  -999.250000 0.1000000015 0.1000000015 0.0000000000
 1597.0000000 2.2469999790 -9999.000000  -999.250000 0.1000000015 0.1000000015 0.0000000000
 1597.1250000 2.2397000790 -9999.000000  -999.250000 0.1000000015 0.1000000015 0.0000000000
 1597.2500000 2.2325000763 -9999.000000  -999.250000 0.1000000015 0.1000000015 0.0000000000
 1597.3750000 2.2251999378 -9999.000000  -999.250000 0.1000000015 0.1000000015 0.0000000000
 1597.5000000 2.2179999352 -9999.000000  -999.250000 0.1000000015 0.1000000015 0.0000000000
 1597.6250000 2.2985000610 -9999.000000  -999.250000 0.1000000015 0.1000000015 0.0000000000
 1597.7500000 2.3789999485 -9999.000000  -999.250000 0.1000000015 0.1000000015 0.0000000000
 1597.8750000 2.4595000744 -9999.000000  -999.250000 0.1000000015 0.1000000015 0.0000000000
 1598.0000000 2.5399999619 -9999.000000  -999.250000 0.1000000015 0.1000000015 0.0000000000
 1598.1250000 2.6607000828 -9999.000000  -999.250000 0.1000000015 0.1000000015 0.0000000000
 1598.2500000 2.7815001011 -9999.000000  -999.250000 0.1000000015 0.1000000015 0.0000000000
 1598.3750000 2.9021999836 -9999.000000  -999.250000 0.1000000015 0.1000000015 0.0000000000
 1598.5000000 3.0230000019 -9999.000000  -999.250000 0.1000000015 0.1000000015 0.0000000000
 1598.6250000 2.8754999638 -9999.000000  -999.250000 0.1000000015 0.1000000015 0.0000000000
 1598.7500000 2.7279999256 -9999.000000  -999.250000 0.1000000015 0.1000000015 0.0000000000
 1598.8750000 2.5804998875 -9999.000000  -999.250000 0.1000000015 0.1000000015 0.0000000000
 1599.0000000 2.4330000877 -9999.000000  -999.250000 0.1000000015 0.1000000015 0.0000000000
 1599.1250000 2.3838000298 -9999.000000  -999.250000 0.1000000015 0.1000000015 0.0000000000
 1599.2500000 2.3345000744 -9999.000000  -999.250000 0.1000000015 0.1000000015 0.0000000000
 1599.3750000 2.2853000164 -9999.000000  -999.250000 0.1000000015 0.1000000015 0.0000000000
 1599.5000000 2.2360000610 -9999.000000  -999.250000 0.1000000015 0.1000000015 0.0000000000
 1599.6250000 2.2342998981 -9999.000000  -999.250000 0.1000000015 0.1000000015 0.0000000000
 1599.7500000 2.2325000763 -9999.000000  -999.250000 0.1000000015 0.1000000015 0.0000000000
 1599.8750000 2.2307999134 -9999.000000  -999.250000 0.1000000015 0.1000000015 0.0000000000
