# LAS format log file from PETREL
# Project units are specified as depth units
#==================================================================
~Version information
VERS.   2.0:
WRAP.   NO:
#==================================================================
~Well
STRT .m      745.00000000 :
STOP .m      1730.0000000 :
STEP .m     0.12500000 :
NULL .        -999.250000 :
COMP.           : COMPANY
WELL.  5-0158   : WELL
FLD.            : FIELD
LOC.            : LOCATION
SRVC.           : SERVICE COMPANY
DATE.  2020-03-08 09:25:08   : Log Export Date {yyyy-MM-dd HH:mm:ss}
PROV.           : PROVINCE
UWI.      : UNIQUE WELL ID
API.            : API NUMBER
#==================================================================
~Curve
DEPT .m                   : DEPTH
RT .ohm.m                 : RT
SP .                      : SP
Fluids .                  : Fluids
POR .m3/m3                : POR
PERM .mD                  : PERM
Lith .                    : Lith
~Parameter
#==================================================================
~Ascii
# ...
 1658.5000000 102.34500122 -9999.000000 4.0000000000 15.000000000 138.00000000 1.0000000000
 1658.6250000 92.040802002 -9999.000000 4.0000000000 15.000000000 138.00000000 1.0000000000
 1658.7500000 81.736503601 -9999.000000 4.0000000000 15.000000000 138.00000000 1.0000000000
 1658.8750000 71.432197571 -9999.000000 4.0000000000 15.000000000 138.00000000 1.0000000000
 1659.0000000 61.127998352 -9999.000000 4.0000000000 15.000000000 138.00000000 1.0000000000
 1659.1250000 63.048198700 -9999.000000 4.0000000000 15.000000000 138.00000000 1.0000000000
 1659.2500000 64.968498230 -9999.000000 4.0000000000 15.000000000 138.00000000 1.0000000000
 1659.3750000 66.888702393 -9999.000000 4.0000000000 15.000000000 138.00000000 1.0000000000
 1659.5000000 68.808998108 -9999.000000 4.0000000000 15.000000000 138.00000000 1.0000000000
 1659.6250000 71.402702332 -9999.000000 4.0000000000 15.000000000 138.00000000 1.0000000000
 1659.7500000 73.996498108 -9999.000000 4.0000000000 15.000000000 138.00000000 1.0000000000
 1659.8750000 76.590202332 -9999.000000 4.0000000000 15.000000000 138.00000000 1.0000000000
 1660.0000000 79.183998108 -9999.000000 4.0000000000 15.000000000 138.00000000 1.0000000000
 1660.1250000 80.927200317 -9999.000000 4.0000000000 15.000000000 138.00000000 1.0000000000
 1660.2500000 82.670501709 -9999.000000 4.0000000000 15.000000000 138.00000000 1.0000000000
 1660.3750000 84.413696289 -9999.000000 4.0000000000 15.000000000 138.00000000 1.0000000000
 1660.5000000 86.156997681 -9999.000000 4.0000000000 15.000000000 138.00000000 1.0000000000
 1660.6250000 80.189498901 -9999.000000 4.0000000000 15.000000000 138.00000000 1.0000000000
 1660.7500000 74.222000122 -9999.000000 4.0000000000 15.000000000 138.00000000 1.0000000000
 1660.8750000 68.254501343 -9999.000000 4.0000000000 15.000000000 138.00000000 1.0000000000
 1661.0000000 62.286998749 -9999.000000 4.0000000000 15.000000000 138.00000000 1.0000000000
 1661.1250000 59.845500946 -9999.000000 4.0000000000 15.000000000 138.00000000 1.0000000000
 1661.2500000 57.403999329 -9999.000000 4.0000000000 15.000000000 138.00000000 1.0000000000
 1661.3750000 54.962501526 -9999.000000 4.0000000000 15.000000000 138.00000000 1.0000000000
 1661.5000000 52.520999908 -9999.000000 4.0000000000 15.000000000 138.00000000 1.0000000000
 1661.6250000 53.493499756 -9999.000000 4.0000000000 15.000000000 138.00000000 1.0000000000
 1661.7500000 54.465999603 -9999.000000 4.0000000000 15.000000000 138.00000000 1.0000000000
 1661.8750000 55.438499451 -9999.000000 4.0000000000 15.000000000 138.00000000 1.0000000000
 1662.0000000 56.410999298 -9999.000000 4.0000000000 15.000000000 138.00000000 1.0000000000
 1662.1250000 59.305000305 -9999.000000 4.0000000000 15.000000000 138.00000000 1.0000000000
 1662.2500000 62.199001312 -9999.000000 4.0000000000 15.000000000 138.00000000 1.0000000000
 1662.3750000 65.093002319 -9999.000000 4.0000000000 15.000000000 138.00000000 1.0000000000
 1662.5000000 67.986999512 -9999.000000 4.0000000000 15.000000000 138.00000000 1.0000000000
 1662.6250000 66.233703613 -9999.000000 4.0000000000 15.000000000 138.00000000 1.0000000000
 1662.7500000 64.480499268 -9999.000000 4.0000000000 15.000000000 138.00000000 1.0000000000
 1662.8750000 62.727199554 -9999.000000 4.0000000000 15.000000000 138.00000000 1.0000000000
 1663.0000000 60.973999023 -9999.000000 4.0000000000 15.000000000 138.00000000 1.0000000000
 1663.1250000 65.838203430 -9999.000000 4.0000000000 15.000000000 138.00000000 1.0000000000
 1663.2500000 70.702499390 -9999.000000 4.0000000000 15.000000000 138.00000000 1.0000000000
 1663.3750000 75.566703796 -9999.000000 4.0000000000 15.000000000 138.00000000 1.0000000000
 1663.5000000 80.430999756 -9999.000000 4.0000000000 15.000000000 138.00000000 1.0000000000
 1663.6250000 79.439201355 -9999.000000 4.0000000000 15.000000000 138.00000000 1.0000000000
 1663.7500000 78.447502136 -9999.000000 4.0000000000 15.000000000 138.00000000 1.0000000000
 1663.8750000 77.455703735 -9999.000000 4.0000000000 15.000000000 138.00000000 1.0000000000
 1664.0000000 76.463996887 -9999.000000 4.0000000000 15.000000000 138.00000000 1.0000000000
 1664.1250000 69.888999939 -9999.000000 4.0000000000 15.000000000 138.00000000 1.0000000000
 1664.2500000 63.313999176 -9999.000000 4.0000000000 15.000000000 138.00000000 1.0000000000
 1664.3750000 56.738998413 -9999.000000 4.0000000000 15.000000000 138.00000000 1.0000000000
 1664.5000000 50.164001465 -9999.000000 4.0000000000 15.000000000 138.00000000 1.0000000000
 1664.6250000 50.333000183 -9999.000000 4.0000000000 15.000000000 138.00000000 1.0000000000
 1664.7500000 50.501998901 -9999.000000 4.0000000000 15.000000000 138.00000000 1.0000000000
 1664.8750000 50.671001434 -9999.000000 4.0000000000 15.000000000 138.00000000 1.0000000000
 1665.0000000 50.840000153 -9999.000000 4.0000000000 15.000000000 138.00000000 1.0000000000
 1665.1250000 51.457801819 -9999.000000 4.0000000000 15.000000000 138.00000000 1.0000000000
 1665.2500000 52.075500488 -9999.000000 4.0000000000 15.000000000 138.00000000 1.0000000000
 1665.3750000 52.693298340 -9999.000000 4.0000000000 15.000000000 138.00000000 1.0000000000
 1665.5000000 53.311000824 -9999.000000 4.0000000000 15.000000000 138.00000000 1.0000000000
 1665.6250000 52.492500305 -9999.000000 4.0000000000 15.000000000 138.00000000 1.0000000000
 1665.7500000 51.673999786 -9999.000000 4.0000000000 15.000000000 138.00000000 1.0000000000
 1665.8750000 50.855499268 -9999.000000 4.0000000000 15.000000000 138.00000000 1.0000000000
 1666.0000000 50.036998749 -9999.000000 4.0000000000 15.000000000 138.00000000 1.0000000000
 1666.1250000 51.272499084 -9999.000000 4.0000000000 15.000000000 138.00000000 1.0000000000
 1666.2500000 52.507999420 -9999.000000 4.0000000000 15.000000000 138.00000000 1.0000000000
 1666.3750000 53.743499756 -9999.000000 4.0000000000 15.000000000 138.00000000 1.0000000000
 1666.5000000 54.979000092 -9999.000000 4.0000000000 15.000000000 138.00000000 1.0000000000
 1666.6250000 55.525501251 -9999.000000 4.0000000000 15.000000000 138.00000000 1.0000000000
 1666.7500000 56.071998596 -9999.000000 4.0000000000 15.000000000 138.00000000 1.0000000000
 1666.8750000 56.618499756 -9999.000000 4.0000000000 15.000000000 138.00000000 1.0000000000
 1667.0000000 57.165000916 -9999.000000 4.0000000000 15.000000000 138.00000000 1.0000000000
 1667.1250000 56.618499756 -9999.000000 4.0000000000 15.000000000 138.00000000 1.0000000000
 1667.2500000 56.071998596 -9999.000000 4.0000000000 15.000000000 138.00000000 1.0000000000
 1667.3750000 55.525501251 -9999.000000 4.0000000000 15.000000000 138.00000000 1.0000000000
 1667.5000000 54.979000092 -9999.000000 4.0000000000 15.000000000 138.00000000 1.0000000000
 1667.6250000 50.904998779 -9999.000000 4.0000000000 15.000000000 138.00000000 1.0000000000
 1667.7500000 46.831001282 -9999.000000 4.0000000000 15.000000000 138.00000000 1.0000000000
 1667.8750000 42.756999969 -9999.000000 4.0000000000 15.000000000 138.00000000 1.0000000000
 1668.0000000 38.682998657 -9999.000000 4.0000000000 15.000000000 138.00000000 1.0000000000
 1668.1250000 41.341999054 -9999.000000 4.0000000000 15.000000000 138.00000000 1.0000000000
 1668.2500000 44.000999451 -9999.000000 4.0000000000 15.000000000 138.00000000 1.0000000000
 1668.3750000 46.659999847 -9999.000000 4.0000000000 15.000000000 138.00000000 1.0000000000
 1668.5000000 49.319000244 -9999.000000 4.0000000000 15.000000000 138.00000000 1.0000000000
 1668.6250000 48.213298798 -9999.000000 4.0000000000 15.000000000 138.00000000 1.0000000000
 1668.7500000 47.107498169 -9999.000000 4.0000000000 15.000000000 138.00000000 1.0000000000
 1668.8750000 46.001701355 -9999.000000 4.0000000000 15.000000000 138.00000000 1.0000000000
 1669.0000000 44.895999908 -9999.000000 4.0000000000 15.000000000 138.00000000 1.0000000000
 1669.1250000 39.092498779 -9999.000000 4.0000000000 15.000000000 138.00000000 1.0000000000
 1669.2500000 33.289001465 -9999.000000 4.0000000000 15.000000000 138.00000000 1.0000000000
