# LAS format log file from PETREL
# Project units are specified as depth units
#==================================================================
~Version information
VERS.   2.0:
WRAP.   NO:
#==================================================================
~Well
STRT .m      745.00000000 :
STOP .m      1730.0000000 :
STEP .m     0.12500000 :
NULL .        -999.250000 :
COMP.           : COMPANY
WELL.  5-0158   : WELL
FLD.            : FIELD
LOC.            : LOCATION
SRVC.           : SERVICE COMPANY
DATE.  2020-03-08 09:25:08   : Log Export Date {yyyy-MM-dd HH:mm:ss}
PROV.           : PROVINCE
UWI.      : UNIQUE WELL ID
API.            : API NUMBER
#==================================================================
~Curve
DEPT .m                   : DEPTH
RT .ohm.m                 : RT
SP .                      : SP
Fluids .                  : Fluids
POR .m3/m3                : POR
PERM .mD                  : PERM
Lith .                    : Lith
~Parameter
#==================================================================
~Ascii
# ...
 1615.0000000 35.759998322 -9999.000000 4.0000000000 17.000000000 175.00000000 1.0000000000
 1615.1250000 37.763000488 -9999.000000 4.0000000000 17.000000000 175.00000000 1.0000000000
 1615.2500000 39.765998840 -9999.000000 4.0000000000 17.000000000 175.00000000 1.0000000000
 1615.3750000 41.769001007 -9999.000000 4.0000000000 17.000000000 175.00000000 1.0000000000
 1615.5000000 43.771999359 -9999.000000 4.0000000000 17.000000000 175.00000000 1.0000000000
 1615.6250000 43.590698242 -9999.000000 4.0000000000 17.000000000 175.00000000 1.0000000000
 1615.7500000 43.409500122 -9999.000000 4.0000000000 17.000000000 175.00000000 1.0000000000
 1615.8750000 43.228298187 -9999.000000 4.0000000000 17.000000000 175.00000000 1.0000000000
 1616.0000000 43.047000885 -9999.000000 4.0000000000 17.000000000 175.00000000 1.0000000000
 1616.1250000 39.385299683 -9999.000000 4.0000000000 17.000000000 175.00000000 1.0000000000
 1616.2500000 35.723499298 -9999.000000 4.0000000000 17.000000000 175.00000000 1.0000000000
 1616.3750000 32.061698914 -9999.000000 4.0000000000 17.000000000 175.00000000 1.0000000000
 1616.5000000 28.399999619 -9999.000000 4.0000000000 17.000000000 175.00000000 1.0000000000
 1616.6250000 26.129699707 -9999.000000 4.0000000000 17.000000000 175.00000000 1.0000000000
 1616.7500000 23.859500885 -9999.000000 4.0000000000 17.000000000 175.00000000 1.0000000000
 1616.8750000 21.589300156 -9999.000000 4.0000000000 17.000000000 175.00000000 1.0000000000
 1617.0000000 19.319000244 -9999.000000 4.0000000000 17.000000000 175.00000000 1.0000000000
 1617.1250000 25.497299194 -9999.000000 4.0000000000 17.000000000 175.00000000 1.0000000000
 1617.2500000 31.675500870 -9999.000000 4.0000000000 17.000000000 175.00000000 1.0000000000
 1617.3750000 37.853801727 -9999.000000 4.0000000000 17.000000000 175.00000000 1.0000000000
 1617.5000000 44.032001495 -9999.000000 4.0000000000 17.000000000 175.00000000 1.0000000000
 1617.6250000 40.791301727 -9999.000000 4.0000000000 17.000000000 175.00000000 1.0000000000
 1617.7500000 37.550498962 -9999.000000 4.0000000000 17.000000000 175.00000000 1.0000000000
 1617.8750000 34.309799194 -9999.000000 4.0000000000 17.000000000 175.00000000 1.0000000000
 1618.0000000 31.069000244 -9999.000000 4.0000000000 17.000000000 175.00000000 1.0000000000
 1618.1250000 30.470300674 -9999.000000 4.0000000000 17.000000000 175.00000000 1.0000000000
 1618.2500000 29.871500015 -9999.000000 4.0000000000 17.000000000 175.00000000 1.0000000000
 1618.3750000 29.272699356 -9999.000000 4.0000000000 17.000000000 175.00000000 1.0000000000
 1618.5000000 28.673999786 -9999.000000 4.0000000000 17.000000000 175.00000000 1.0000000000
 1618.6250000 27.979999542 -9999.000000 4.0000000000 17.000000000 175.00000000 1.0000000000
 1618.7500000 27.285999298 -9999.000000 4.0000000000 17.000000000 175.00000000 1.0000000000
 1618.8750000 26.591999054 -9999.000000 4.0000000000 17.000000000 175.00000000 1.0000000000
 1619.0000000 25.898000717 -9999.000000 4.0000000000 17.000000000 175.00000000 1.0000000000
 1619.1250000 25.221799850 -9999.000000 4.0000000000 17.000000000 175.00000000 1.0000000000
 1619.2500000 24.545499802 -9999.000000 4.0000000000 17.000000000 175.00000000 1.0000000000
 1619.3750000 23.869300842 -9999.000000 4.0000000000 17.000000000 175.00000000 1.0000000000
 1619.5000000 23.193000793 -9999.000000 4.0000000000 17.000000000 175.00000000 1.0000000000
 1619.6250000 23.649000168 -9999.000000 4.0000000000 17.000000000 175.00000000 1.0000000000
 1619.7500000 24.104999542 -9999.000000 4.0000000000 17.000000000 175.00000000 1.0000000000
 1619.8750000 24.561000824 -9999.000000 4.0000000000 17.000000000 175.00000000 1.0000000000
 1620.0000000 25.017000198 -9999.000000 4.0000000000 17.000000000 175.00000000 1.0000000000
 1620.1250000 27.197500229 -9999.000000 4.0000000000 17.000000000 175.00000000 1.0000000000
 1620.2500000 29.378000259 -9999.000000 4.0000000000 17.000000000 175.00000000 1.0000000000
 1620.3750000 31.558500290 -9999.000000 4.0000000000 17.000000000 175.00000000 1.0000000000
 1620.5000000 33.738998413 -9999.000000 4.0000000000 17.000000000 175.00000000 1.0000000000
 1620.6250000 35.558200836 -9999.000000 4.0000000000 17.000000000 175.00000000 1.0000000000
 1620.7500000 37.377498627 -9999.000000 4.0000000000 17.000000000 175.00000000 1.0000000000
 1620.8750000 39.196701050 -9999.000000 4.0000000000 17.000000000 175.00000000 1.0000000000
 1621.0000000 41.015998840 -9999.000000 4.0000000000 17.000000000 175.00000000 1.0000000000
 1621.1250000 37.272499084 -9999.000000 4.0000000000 17.000000000 175.00000000 1.0000000000
 1621.2500000 33.528999329 -9999.000000 4.0000000000 17.000000000 175.00000000 1.0000000000
 1621.3750000 29.785499573 -9999.000000 4.0000000000 17.000000000 175.00000000 1.0000000000
 1621.5000000 26.041999817 -9999.000000 4.0000000000 17.000000000 175.00000000 1.0000000000
 1621.6250000 27.186700821 -9999.000000 4.0000000000 17.000000000 175.00000000 1.0000000000
 1621.7500000 28.331499100 -9999.000000 4.0000000000 17.000000000 175.00000000 1.0000000000
 1621.8750000 29.476299286 -9999.000000 4.0000000000 17.000000000 175.00000000 1.0000000000
 1622.0000000 30.621000290 -9999.000000 4.0000000000 17.000000000 175.00000000 1.0000000000
 1622.1250000 37.961498260 -9999.000000 4.0000000000 17.000000000 175.00000000 1.0000000000
 1622.2500000 45.301998138 -9999.000000 4.0000000000 17.000000000 175.00000000 1.0000000000
 1622.3750000 52.642501831 -9999.000000 4.0000000000 17.000000000 175.00000000 1.0000000000
 1622.5000000 59.983001709 -9999.000000 4.0000000000 17.000000000 175.00000000 1.0000000000
 1622.6250000 54.339000702 -9999.000000 4.0000000000 17.000000000 175.00000000 1.0000000000
 1622.7500000 48.694999695 -9999.000000 4.0000000000 17.000000000 175.00000000 1.0000000000
 1622.8750000 43.050998688 -9999.000000 4.0000000000 17.000000000 175.00000000 1.0000000000
 1623.0000000 37.407001495 -9999.000000 4.0000000000 17.000000000 175.00000000 1.0000000000
 1623.1250000 35.568500519 -9999.000000 4.0000000000 17.000000000 175.00000000 1.0000000000
 1623.2500000 33.729999542 -9999.000000 4.0000000000 17.000000000 175.00000000 1.0000000000
 1623.3750000 31.891500473 -9999.000000 4.0000000000 17.000000000 175.00000000 1.0000000000
 1623.5000000 30.052999496 -9999.000000 4.0000000000 17.000000000 175.00000000 1.0000000000
 1623.6250000 32.648200989 -9999.000000 4.0000000000 17.000000000 175.00000000 1.0000000000
 1623.7500000 35.243499756 -9999.000000 4.0000000000 17.000000000 175.00000000 1.0000000000
 1623.8750000 37.838699341 -9999.000000 4.0000000000 17.000000000 175.00000000 1.0000000000
 1624.0000000 40.433998108 -9999.000000 4.0000000000 17.000000000 175.00000000 1.0000000000
 1624.1250000 40.483699799 -9999.000000 4.0000000000 17.000000000 175.00000000 1.0000000000
 1624.2500000 40.533500671 -9999.000000 4.0000000000 17.000000000 175.00000000 1.0000000000
 1624.3750000 40.583198547 -9999.000000 4.0000000000 17.000000000 175.00000000 1.0000000000
 1624.5000000 40.632999420 -9999.000000 4.0000000000 17.000000000 175.00000000 1.0000000000
 1624.6250000 38.772499084 -9999.000000 4.0000000000 17.000000000 175.00000000 1.0000000000
 1624.7500000 36.911998749 -9999.000000 4.0000000000 17.000000000 175.00000000 1.0000000000
 1624.8750000 35.051498413 -9999.000000 4.0000000000 17.000000000 175.00000000 1.0000000000
 1625.0000000 33.191001892 -9999.000000 4.0000000000 17.000000000 175.00000000 1.0000000000
 1625.1250000 31.460300446 -9999.000000 4.0000000000 17.000000000 175.00000000 1.0000000000
 1625.2500000 29.729499817 -9999.000000 4.0000000000 17.000000000 175.00000000 1.0000000000
 1625.3750000 27.998800278 -9999.000000 4.0000000000 17.000000000 175.00000000 1.0000000000
 1625.5000000 26.267999649 -9999.000000 4.0000000000 17.000000000 175.00000000 1.0000000000
 1625.6250000 26.589000702 -9999.000000 4.0000000000 17.000000000 175.00000000 1.0000000000
 1625.7500000 26.909999847 -9999.000000 4.0000000000 17.000000000 175.00000000 1.0000000000
