# LAS format log file from PETREL
# Project units are specified as depth units
#==================================================================
~Version information
VERS.   2.0:
WRAP.   NO:
#==================================================================
~Well
STRT .m      745.00000000 :
STOP .m      1730.0000000 :
STEP .m     0.12500000 :
NULL .        -999.250000 :
COMP.           : COMPANY
WELL.  5-0158   : WELL
FLD.            : FIELD
LOC.            : LOCATION
SRVC.           : SERVICE COMPANY
DATE.  2020-03-08 09:25:08   : Log Export Date {yyyy-MM-dd HH:mm:ss}
PROV.           : PROVINCE
UWI.      : UNIQUE WELL ID
API.            : API NUMBER
#==================================================================
~Curve
DEPT .m                   : DEPTH
RT .ohm.m                 : RT
SP .                      : SP
Fluids .                  : Fluids
POR .m3/m3                : POR
PERM .mD                  : PERM
Lith .                    : Lith
~Parameter
#==================================================================
~Ascii
# ...
 1582.3750000 13.965800285 -9999.000000 2.0000000000 18.000000000 290.00000000 1.0000000000
 1582.5000000 13.293000221 -9999.000000 2.0000000000 18.000000000 290.00000000 1.0000000000
 1582.6250000 13.468799591 -9999.000000 2.0000000000 18.000000000 290.00000000 1.0000000000
 1582.7500000 13.644499779 -9999.000000 2.0000000000 18.000000000 290.00000000 1.0000000000
 1582.8750000 13.820300102 -9999.000000 2.0000000000 18.000000000 290.00000000 1.0000000000
 1583.0000000 13.996000290 -9999.000000 2.0000000000 18.000000000 290.00000000 1.0000000000
 1583.1250000 13.880499840 -9999.000000 2.0000000000 18.000000000 290.00000000 1.0000000000
 1583.2500000 13.765000343 -9999.000000 2.0000000000 18.000000000 290.00000000 1.0000000000
 1583.3750000 13.649499893 -9999.000000 2.0000000000 18.000000000 290.00000000 1.0000000000
 1583.5000000 13.534000397 -9999.000000 2.0000000000 18.000000000 290.00000000 1.0000000000
 1583.6250000 14.907999992 -9999.000000 2.0000000000 18.000000000 290.00000000 1.0000000000
 1583.7500000 16.281999588 -9999.000000 2.0000000000 18.000000000 290.00000000 1.0000000000
 1583.8750000 17.656000137 -9999.000000 2.0000000000 18.000000000 290.00000000 1.0000000000
 1584.0000000 19.030000687 -9999.000000 2.0000000000 18.000000000 290.00000000 1.0000000000
 1584.1250000 16.832799911 -9999.000000 2.0000000000 18.000000000 290.00000000 1.0000000000
 1584.2500000 14.635499954 -9999.000000 2.0000000000 18.000000000 290.00000000 1.0000000000
 1584.3750000 12.438300133 -9999.000000 2.0000000000 18.000000000 290.00000000 1.0000000000
 1584.5000000 10.241000175 -9999.000000 2.0000000000 18.000000000 290.00000000 1.0000000000
 1584.6250000 11.192799568 -9999.000000 2.0000000000 18.000000000 290.00000000 1.0000000000
 1584.7500000 12.144499779 -9999.000000 2.0000000000 18.000000000 290.00000000 1.0000000000
 1584.8750000 13.096300125 -9999.000000 2.0000000000 18.000000000 290.00000000 1.0000000000
 1585.0000000 14.048000336 -9999.000000 2.0000000000 18.000000000 290.00000000 1.0000000000
 1585.1250000 14.428999901 -9999.000000 2.0000000000 18.000000000 290.00000000 1.0000000000
 1585.2500000 14.810000420 -9999.000000 2.0000000000 18.000000000 290.00000000 1.0000000000
 1585.3750000 15.190999985 -9999.000000 2.0000000000 18.000000000 290.00000000 1.0000000000
 1585.5000000 15.571999550 -9999.000000 2.0000000000 18.000000000 290.00000000 1.0000000000
 1585.6250000 14.296199799 -9999.000000 2.0000000000 18.000000000 290.00000000 1.0000000000
 1585.7500000 13.020500183 -9999.000000 2.0000000000 18.000000000 290.00000000 1.0000000000
 1585.8750000 11.744700432 -9999.000000 2.0000000000 18.000000000 290.00000000 1.0000000000
 1586.0000000 10.468999863 -9999.000000 2.0000000000 18.000000000 290.00000000 1.0000000000
 1586.1250000 11.121700287 -9999.000000 2.0000000000 18.000000000 290.00000000 1.0000000000
 1586.2500000 11.774499893 -9999.000000 2.0000000000 18.000000000 290.00000000 1.0000000000
 1586.3750000 12.427200317 -9999.000000 2.0000000000 18.000000000 290.00000000 1.0000000000
 1586.5000000 13.079999924 -9999.000000 2.0000000000 18.000000000 290.00000000 1.0000000000
 1586.6250000 12.745699883 -9999.000000 2.0000000000 18.000000000 290.00000000 1.0000000000
 1586.7500000 12.411499977 -9999.000000 2.0000000000 18.000000000 290.00000000 1.0000000000
 1586.8750000 12.077300072 -9999.000000 2.0000000000 18.000000000 290.00000000 1.0000000000
 1587.0000000 11.743000031 -9999.000000 2.0000000000 18.000000000 290.00000000 1.0000000000
 1587.1250000 12.084699631 -9999.000000 2.0000000000 18.000000000 290.00000000 1.0000000000
 1587.2500000 12.426500320 -9999.000000 2.0000000000 18.000000000 290.00000000 1.0000000000
 1587.3750000 12.768199921 -9999.000000 2.0000000000 18.000000000 290.00000000 1.0000000000
 1587.5000000 13.109999657 -9999.000000 2.0000000000 18.000000000 290.00000000 1.0000000000
 1587.6250000 12.983699799 -9999.000000 2.0000000000 18.000000000 290.00000000 1.0000000000
 1587.7500000 12.857500076 -9999.000000 2.0000000000 18.000000000 290.00000000 1.0000000000
 1587.8750000 12.731200218 -9999.000000 2.0000000000 18.000000000 290.00000000 1.0000000000
 1588.0000000 12.604999542 -9999.000000 2.0000000000 18.000000000 290.00000000 1.0000000000
 1588.1250000 11.673700333 -9999.000000 2.0000000000 18.000000000 290.00000000 1.0000000000
 1588.2500000 10.742500305 -9999.000000 2.0000000000 18.000000000 290.00000000 1.0000000000
 1588.3750000 9.8112001419 -9999.000000 2.0000000000 18.000000000 290.00000000 1.0000000000
 1588.5000000 8.8800001144 -9999.000000 2.0000000000 18.000000000 290.00000000 1.0000000000
 1588.6250000 8.2995004654 -9999.000000 2.0000000000 18.000000000 290.00000000 1.0000000000
 1588.7500000 7.7189998627 -9999.000000 2.0000000000 18.000000000 290.00000000 1.0000000000
 1588.8750000 7.1385002136 -9999.000000 2.0000000000 18.000000000 290.00000000 1.0000000000
 1589.0000000 6.5580000877 -9999.000000 2.0000000000 18.000000000 290.00000000 1.0000000000
 1589.1250000 8.7760000229 -9999.000000 2.0000000000 18.000000000 290.00000000 1.0000000000
 1589.2500000 10.994000435 -9999.000000 2.0000000000 18.000000000 290.00000000 1.0000000000
 1589.3750000 13.211999893 -9999.000000 2.0000000000 18.000000000 290.00000000 1.0000000000
 1589.5000000 15.430000305 -9999.000000 2.0000000000 18.000000000 290.00000000 1.0000000000
 1589.6250000 14.006799698 -9999.000000  -999.250000 0.1000000015 0.1000000015 0.0000000000
 1589.7500000 12.583499908 -9999.000000  -999.250000 0.1000000015 0.1000000015 0.0000000000
 1589.8750000 11.160300255 -9999.000000  -999.250000 0.1000000015 0.1000000015 0.0000000000
 1590.0000000 9.7370004654 -9999.000000  -999.250000 0.1000000015 0.1000000015 0.0000000000
 1590.1250000 9.6518001556 -9999.000000  -999.250000 0.1000000015 0.1000000015 0.0000000000
 1590.2500000 9.5664997101 -9999.000000  -999.250000 0.1000000015 0.1000000015 0.0000000000
 1590.3750000 9.4813003540 -9999.000000  -999.250000 0.1000000015 0.1000000015 0.0000000000
 1590.5000000 9.3959999084 -9999.000000 2.0000000000 15.000000000 152.00000000 1.0000000000
 1590.6250000 9.9154996872 -9999.000000 2.0000000000 15.000000000 152.00000000 1.0000000000
 1590.7500000 10.435000420 -9999.000000 2.0000000000 15.000000000 152.00000000 1.0000000000
 1590.8750000 10.954500198 -9999.000000 2.0000000000 15.000000000 152.00000000 1.0000000000
 1591.0000000 11.473999977 -9999.000000 2.0000000000 15.000000000 152.00000000 1.0000000000
 1591.1250000 11.788200378 -9999.000000 2.0000000000 15.000000000 152.00000000 1.0000000000
 1591.2500000 12.102499962 -9999.000000 2.0000000000 15.000000000 152.00000000 1.0000000000
 1591.3750000 12.416700363 -9999.000000 2.0000000000 15.000000000 152.00000000 1.0000000000
 1591.5000000 12.730999947 -9999.000000 2.0000000000 15.000000000 152.00000000 1.0000000000
 1591.6250000 13.848999977 -9999.000000 2.0000000000 15.000000000 152.00000000 1.0000000000
 1591.7500000 14.967000008 -9999.000000 2.0000000000 15.000000000 152.00000000 1.0000000000
 1591.8750000 16.084999084 -9999.000000 2.0000000000 15.000000000 152.00000000 1.0000000000
 1592.0000000 17.202999115 -9999.000000 2.0000000000 15.000000000 152.00000000 1.0000000000
 1592.1250000 15.182499886 -9999.000000 2.0000000000 15.000000000 152.00000000 1.0000000000
 1592.2500000 13.161999702 -9999.000000 2.0000000000 15.000000000 152.00000000 1.0000000000
 1592.3750000 11.141500473 -9999.000000 2.0000000000 15.000000000 152.00000000 1.0000000000
 1592.5000000 9.1210002899 -9999.000000 2.0000000000 15.000000000 152.00000000 1.0000000000
 1592.6250000 9.7368001938 -9999.000000 2.0000000000 15.000000000 152.00000000 1.0000000000
 1592.7500000 10.352499962 -9999.000000 2.0000000000 15.000000000 152.00000000 1.0000000000
 1592.8750000 10.968199730 -9999.000000 2.0000000000 15.000000000 152.00000000 1.0000000000
 1593.0000000 11.583999634 -9999.000000 2.0000000000 15.000000000 152.00000000 1.0000000000
 1593.1250000 10.586700439 -9999.000000 2.0000000000 15.000000000 152.00000000 1.0000000000
