# LAS format log file from PETREL
# Project units are specified as depth units
#==================================================================
~Version information
VERS.   2.0:
WRAP.   NO:
#==================================================================
~Well
STRT .m      1350.0000000 :
STOP .m      1755.0000000 :
STEP .m     0.12500000 :
NULL .        -999.250000 :
COMP.           : COMPANY
WELL.  5-0165C2   : WELL
FLD.            : FIELD
LOC.            : LOCATION
SRVC.           : SERVICE COMPANY
DATE.  2020-03-08 09:25:09   : Log Export Date {yyyy-MM-dd HH:mm:ss}
PROV.           : PROVINCE
UWI.      : UNIQUE WELL ID
API.            : API NUMBER
#==================================================================
~Curve
DEPT .m                   : DEPTH
RT .ohm.m                 : RT
SP .                      : SP
Fluids .                  : Fluids
POR .m3/m3                : POR
PERM .mD                  : PERM
Lith .                    : Lith
~Parameter
#==================================================================
~Ascii
# ...
 1600.1250000 29.899999619 4.8200001717 4.0000000000 27.000000000 4535.0000000 1.0000000000
 1600.2500000 30.027999878 4.9019999504 4.0000000000 27.000000000 4535.0000000 1.0000000000
 1600.3750000 30.440999985 5.0219998360 4.0000000000 27.000000000 4535.0000000 1.0000000000
 1600.5000000 30.854999542 5.1209998131 4.0000000000 27.000000000 4535.0000000 1.0000000000
 1600.6250000 31.884000778 5.3369998932 4.0000000000 27.000000000 4535.0000000 1.0000000000
 1600.7500000 30.281999588 5.5300002098 4.0000000000 27.000000000 4535.0000000 1.0000000000
 1600.8750000 29.225000381 5.7800002098 4.0000000000 27.000000000 4535.0000000 1.0000000000
 1601.0000000 28.496000290 6.2680001259 4.0000000000 27.000000000 4535.0000000 1.0000000000
 1601.1250000 27.979000092 6.6119999886 4.0000000000 27.000000000 4535.0000000 1.0000000000
 1601.2500000 27.645999908 6.9549999237 4.0000000000 27.000000000 4535.0000000 1.0000000000
 1601.3750000 27.479000092 7.3759999275 4.0000000000 27.000000000 4535.0000000 1.0000000000
 1601.5000000 27.756999969 7.7989997864 4.0000000000 27.000000000 4535.0000000 1.0000000000
 1601.6250000 28.159000397 8.0530004501 4.0000000000 27.000000000 4535.0000000 1.0000000000
 1601.7500000 31.378999710 8.3999996185 4.0000000000 27.000000000 4535.0000000 1.0000000000
 1601.8750000 32.347000122 8.7060003281 4.0000000000 27.000000000 4535.0000000 1.0000000000
 1602.0000000 32.326999664 8.9160003662 4.0000000000 27.000000000 4535.0000000 1.0000000000
 1602.1250000 32.092998505 9.1719999313 4.0000000000 27.000000000 4535.0000000 1.0000000000
 1602.2500000 31.853000641 9.4469995499 4.0000000000 27.000000000 4535.0000000 1.0000000000
 1602.3750000 31.538000107 9.6750001907 4.0000000000 27.000000000 4535.0000000 1.0000000000
 1602.5000000 31.190000534 9.9029998779 4.0000000000 27.000000000 4535.0000000 1.0000000000
 1602.6250000 35.654998779 10.128999710 4.0000000000 27.000000000 4535.0000000 1.0000000000
 1602.7500000 36.835998535 10.355999947 4.0000000000 27.000000000 4535.0000000 1.0000000000
 1602.8750000 36.884998322 10.527999878 4.0000000000 27.000000000 4535.0000000 1.0000000000
 1603.0000000 36.623001099 10.699999809 4.0000000000 27.000000000 4535.0000000 1.0000000000
 1603.1250000 35.215000153 10.887999535 4.0000000000 27.000000000 4535.0000000 1.0000000000
 1603.2500000 27.952999115 11.041999817 4.0000000000 27.000000000 4535.0000000 1.0000000000
 1603.3750000 23.881000519 11.142000198 4.0000000000 27.000000000 4535.0000000 1.0000000000
 1603.5000000 21.794000626 11.163999557 4.0000000000 27.000000000 4535.0000000 1.0000000000
 1603.6250000 21.173999786 11.258000374 4.0000000000 27.000000000 4535.0000000 1.0000000000
 1603.7500000 21.322999954 11.385999680 4.0000000000 27.000000000 4535.0000000 1.0000000000
 1603.8750000 22.375999451 11.500000000 4.0000000000 27.000000000 4535.0000000 1.0000000000
 1604.0000000 23.913000107 11.614999771 4.0000000000 27.000000000 4535.0000000 1.0000000000
 1604.1250000 26.424999237 11.689999580 4.0000000000 27.000000000 4535.0000000 1.0000000000
 1604.2500000 28.752000809 11.777000427 4.0000000000 27.000000000 4535.0000000 1.0000000000
 1604.3750000 22.316999435 11.826000214 4.0000000000 27.000000000 4535.0000000 1.0000000000
 1604.5000000 19.601999283 11.921999931 4.0000000000 27.000000000 4535.0000000 1.0000000000
 1604.6250000 18.434999466 12.017000198 4.0000000000 27.000000000 4535.0000000 1.0000000000
 1604.7500000 17.622999191 12.064999580 4.0000000000 27.000000000 4535.0000000 1.0000000000
 1604.8750000 16.812000275 12.081000328 4.0000000000 27.000000000 4535.0000000 1.0000000000
 1605.0000000 15.628000259 12.032999992 4.0000000000 27.000000000 4535.0000000 1.0000000000
 1605.1250000 18.520999908 11.984000206 4.0000000000 27.000000000 4535.0000000 1.0000000000
 1605.2500000 19.239999771 11.875000000 4.0000000000 27.000000000 4535.0000000 1.0000000000
 1605.3750000 18.867000580 11.765000343 4.0000000000 27.000000000 4535.0000000 1.0000000000
 1605.5000000 17.156000137 11.673000336 4.0000000000 27.000000000 4535.0000000 1.0000000000
 1605.6250000 16.402999878 11.545999527 4.0000000000 27.000000000 4535.0000000 1.0000000000
 1605.7500000 15.633999825 11.489999771 4.0000000000 27.000000000 4535.0000000 1.0000000000
 1605.8750000 14.435999870 11.434000015 4.0000000000 27.000000000 4535.0000000 1.0000000000
 1606.0000000 12.968000412 11.345000267 3.0000000000 20.000000000 1072.0000000 1.0000000000
 1606.1250000 12.076000214 11.253000259 3.0000000000 20.000000000 1072.0000000 1.0000000000
 1606.2500000 11.930999756 11.133000374 3.0000000000 20.000000000 1072.0000000 1.0000000000
 1606.3750000 13.125000000 11.036000252 3.0000000000 20.000000000 1072.0000000 1.0000000000
 1606.5000000 25.396999359 10.913999557 3.0000000000 20.000000000 1072.0000000 1.0000000000
 1606.6250000 26.886999130 10.781000137 3.0000000000 20.000000000 1072.0000000 1.0000000000
 1606.7500000 27.464000702 10.685999870 3.0000000000 20.000000000 1072.0000000 1.0000000000
 1606.8750000 27.625000000 10.657999992 3.0000000000 20.000000000 1072.0000000 1.0000000000
 1607.0000000 27.738000870 10.574000359 4.0000000000 20.000000000 1405.0000000 1.0000000000
 1607.1250000 21.427000046 10.451999664 4.0000000000 20.000000000 1405.0000000 1.0000000000
 1607.2500000 18.729999542 10.392999649 4.0000000000 20.000000000 1405.0000000 1.0000000000
 1607.3750000 17.059000015 10.333000183 4.0000000000 20.000000000 1405.0000000 1.0000000000
 1607.5000000 15.956000328 10.329999924 4.0000000000 20.000000000 1405.0000000 1.0000000000
 1607.6250000 15.203000069 10.326000214 4.0000000000 20.000000000 1405.0000000 1.0000000000
 1607.7500000 14.701000214 10.437999725 4.0000000000 20.000000000 1405.0000000 1.0000000000
 1607.8750000 14.303999901 10.440999985 4.0000000000 20.000000000 1405.0000000 1.0000000000
 1608.0000000 13.659999847 10.552000046 4.0000000000 20.000000000 1405.0000000 1.0000000000
 1608.1250000 13.215999603 10.600999832 4.0000000000 20.000000000 1405.0000000 1.0000000000
 1608.2500000 12.810000420 10.649999619 4.0000000000 20.000000000 1405.0000000 1.0000000000
 1608.3750000 12.335000038 10.732999802 4.0000000000 20.000000000 1405.0000000 1.0000000000
 1608.5000000 11.925000191 10.847999573  -999.250000 0.1000000015 0.1000000015 0.0000000000
 1608.6250000 11.904999733 10.890000343  -999.250000 0.1000000015 0.1000000015 0.0000000000
 1608.7500000 12.288000107 11.017999649  -999.250000 0.1000000015 0.1000000015 0.0000000000
 1608.8750000 12.336000443 11.154999733 4.0000000000 20.000000000 1753.0000000 1.0000000000
 1609.0000000 11.873000145 11.291999817 4.0000000000 20.000000000 1753.0000000 1.0000000000
 1609.1250000 11.364000320 11.520000458 4.0000000000 20.000000000 1753.0000000 1.0000000000
 1609.2500000 10.520000458 11.640000343 4.0000000000 20.000000000 1753.0000000 1.0000000000
 1609.3750000 9.6140003204 11.861000061 4.0000000000 20.000000000 1753.0000000 1.0000000000
 1609.5000000 9.4689998627 12.128000259 4.0000000000 20.000000000 1753.0000000 1.0000000000
 1609.6250000 9.5530004501 12.321999550 4.0000000000 20.000000000 1753.0000000 1.0000000000
 1609.7500000 9.8360004425 12.684000015 4.0000000000 20.000000000 1753.0000000 1.0000000000
 1609.8750000 19.670999527 13.038000107 4.0000000000 20.000000000 1753.0000000 1.0000000000
 1610.0000000 22.667999268 13.286999702 4.0000000000 20.000000000 1753.0000000 1.0000000000
 1610.1250000 23.090000153 13.552000046 4.0000000000 20.000000000 1753.0000000 1.0000000000
 1610.2500000 22.590999603 13.708999634 4.0000000000 20.000000000 1753.0000000 1.0000000000
 1610.3750000 16.274999619 13.925000191 3.0000000000 13.000000000 109.00000000 1.0000000000
 1610.5000000 14.232000351 14.064999580 3.0000000000 13.000000000 109.00000000 1.0000000000
 1610.6250000 13.394000053 14.206000328 3.0000000000 13.000000000 109.00000000 1.0000000000
 1610.7500000 12.831999779 14.272999763 3.0000000000 13.000000000 109.00000000 1.0000000000
 1610.8750000 12.307999611 14.425000191 3.0000000000 13.000000000 109.00000000 1.0000000000
