# LAS format log file from PETREL
# Project units are specified as depth units
#==================================================================
~Version information
VERS.   2.0:
WRAP.   NO:
#==================================================================
~Well
STRT .m      1480.0000000 :
STOP .m      1820.0000000 :
STEP .m     0.12500000 :
NULL .        -999.250000 :
COMP.           : COMPANY
WELL.  5-0165   : WELL
FLD.            : FIELD
LOC.            : LOCATION
SRVC.           : SERVICE COMPANY
DATE.  2020-03-08 09:25:09   : Log Export Date {yyyy-MM-dd HH:mm:ss}
PROV.           : PROVINCE
UWI.      : UNIQUE WELL ID
API.            : API NUMBER
#==================================================================
~Curve
DEPT .m                   : DEPTH
RT .ohm.m                 : RT
SP .                      : SP
Fluids .                  : Fluids
POR .m3/m3                : POR
PERM .mD                  : PERM
Lith .                    : Lith
~Parameter
#==================================================================
~Ascii
# ...
 1577.8750000 3.4570000172 55.412998199 4.0000000000 25.000000000 5101.0000000 1.0000000000
 1578.0000000 3.6649999619 55.418998718 4.0000000000 25.000000000 5101.0000000 1.0000000000
 1578.1250000 3.9159998894 55.416999817 4.0000000000 25.000000000 5101.0000000 1.0000000000
 1578.2500000 4.2509999275 55.408000946 4.0000000000 25.000000000 5101.0000000 1.0000000000
 1578.3750000 4.9270000458 55.395999908 4.0000000000 25.000000000 5101.0000000 1.0000000000
 1578.5000000 5.2600002289 55.382999420 4.0000000000 25.000000000 5101.0000000 1.0000000000
 1578.6250000 5.2859997749 55.375000000 4.0000000000 25.000000000 5101.0000000 1.0000000000
 1578.7500000 5.2030000687 55.369998932 4.0000000000 25.000000000 5101.0000000 1.0000000000
 1578.8750000 5.1459999084 55.369998932 4.0000000000 25.000000000 5101.0000000 1.0000000000
 1579.0000000 4.9930000305 55.376998901 4.0000000000 25.000000000 5101.0000000 1.0000000000
 1579.1250000 4.9289999008 55.391998291 4.0000000000 25.000000000 5101.0000000 1.0000000000
 1579.2500000 5.1459999084 55.410999298 4.0000000000 25.000000000 5101.0000000 1.0000000000
 1579.3750000 5.2639999390 55.435001373 4.0000000000 25.000000000 5101.0000000 1.0000000000
 1579.5000000 5.1500000954 55.460998535 4.0000000000 25.000000000 5101.0000000 1.0000000000
 1579.6250000 5.3790001869 55.488998413 4.0000000000 25.000000000 5101.0000000 1.0000000000
 1579.7500000 5.6290001869 55.515998840 4.0000000000 25.000000000 5101.0000000 1.0000000000
 1579.8750000 5.7140002251 55.540000916 4.0000000000 25.000000000 5101.0000000 1.0000000000
 1580.0000000 6.0729999542 55.558998108 4.0000000000 25.000000000 5101.0000000 1.0000000000
 1580.1250000 6.7210001945 55.573001862 4.0000000000 25.000000000 5101.0000000 1.0000000000
 1580.2500000 6.9520001411 55.581001282 4.0000000000 25.000000000 5101.0000000 1.0000000000
 1580.3750000 7.0409998894 55.583999634 4.0000000000 25.000000000 5101.0000000 1.0000000000
 1580.5000000 7.0780000687 55.584999084 4.0000000000 25.000000000 5101.0000000 1.0000000000
 1580.6250000 6.9920001030 55.584999084 4.0000000000 25.000000000 5101.0000000 1.0000000000
 1580.7500000 6.6570000648 55.583999634 4.0000000000 25.000000000 5101.0000000 1.0000000000
 1580.8750000 6.0689997673 55.581001282 4.0000000000 25.000000000 5101.0000000 1.0000000000
 1581.0000000 5.4730000496 55.573001862 4.0000000000 25.000000000 5101.0000000 1.0000000000
 1581.1250000 4.3810000420 55.558998108 4.0000000000 25.000000000 5101.0000000 1.0000000000
 1581.2500000 3.9419999123 55.536998749 4.0000000000 25.000000000 5101.0000000 1.0000000000
 1581.3750000 3.7109999657 55.508998871 4.0000000000 25.000000000 5101.0000000 1.0000000000
 1581.5000000 3.5599999428 55.479000092 4.0000000000 25.000000000 5101.0000000 1.0000000000
 1581.6250000 3.2809998989 55.451999664 4.0000000000 25.000000000 5101.0000000 1.0000000000
 1581.7500000 3.1640000343 55.431999207 4.0000000000 25.000000000 5101.0000000 1.0000000000
 1581.8750000 3.2620000839 55.423000336 4.0000000000 25.000000000 5101.0000000 1.0000000000
 1582.0000000 3.0769999027 55.423999786 4.0000000000 25.000000000 5101.0000000 1.0000000000
 1582.1250000 2.9830000401 55.433998108 4.0000000000 25.000000000 5101.0000000 1.0000000000
 1582.2500000 3.1380000114 55.449001312 4.0000000000 25.000000000 5101.0000000 1.0000000000
 1582.3750000 3.1229999065 55.470001221 4.0000000000 25.000000000 5101.0000000 1.0000000000
 1582.5000000 2.8570001125 55.493000031 4.0000000000 25.000000000 5101.0000000 1.0000000000
 1582.6250000 2.6019999981 55.516998291 4.0000000000 25.000000000 5101.0000000 1.0000000000
 1582.7500000 2.4309999943 55.540000916 4.0000000000 25.000000000 5101.0000000 1.0000000000
 1582.8750000 2.3759999275 55.558998108 4.0000000000 25.000000000 5101.0000000 1.0000000000
 1583.0000000 2.5350000858 55.573001862 4.0000000000 25.000000000 5101.0000000 1.0000000000
 1583.1250000 2.6649999619 55.581001282 4.0000000000 25.000000000 5101.0000000 1.0000000000
 1583.2500000 3.1059999466 55.583999634 4.0000000000 25.000000000 5101.0000000 1.0000000000
 1583.3750000 4.0440001488 55.581001282 4.0000000000 25.000000000 5101.0000000 1.0000000000
 1583.5000000 4.8769998550 55.573001862 4.0000000000 25.000000000 5101.0000000 1.0000000000
 1583.6250000 5.7779998779 55.555000305 4.0000000000 25.000000000 5101.0000000 1.0000000000
 1583.7500000 6.2699999809 55.528999329 4.0000000000 25.000000000 5101.0000000 1.0000000000
 1583.8750000 6.4079999924 55.493999481 4.0000000000 25.000000000 5101.0000000 1.0000000000
 1584.0000000 6.3039999008 55.457000732 4.0000000000 25.000000000 5101.0000000 1.0000000000
 1584.1250000 5.9860000610 55.422000885 4.0000000000 25.000000000 5101.0000000 1.0000000000
 1584.2500000 5.3119997978 55.395999908 4.0000000000 25.000000000 5101.0000000 1.0000000000
 1584.3750000 4.8439998627 55.377998352 4.0000000000 25.000000000 5101.0000000 1.0000000000
 1584.5000000 4.6510000229 55.369998932 4.0000000000 25.000000000 5101.0000000 1.0000000000
 1584.6250000 4.5520000458 55.367000580 4.0000000000 25.000000000 5101.0000000 1.0000000000
 1584.7500000 4.8169999123 55.369998932 4.0000000000 25.000000000 5101.0000000 1.0000000000
 1584.8750000 4.9899997711 55.376998901 4.0000000000 25.000000000 5101.0000000 1.0000000000
 1585.0000000 5.0120000839 55.391998291 4.0000000000 25.000000000 5101.0000000 1.0000000000
 1585.1250000 4.8049998283 55.410999298 4.0000000000 25.000000000 5101.0000000 1.0000000000
 1585.2500000 4.4079999924 55.433998108 4.0000000000 25.000000000 5101.0000000 1.0000000000
 1585.3750000 3.8150000572 55.458000183 4.0000000000 25.000000000 5101.0000000 1.0000000000
 1585.5000000 3.8139998913 55.478000641 4.0000000000 25.000000000 5101.0000000 1.0000000000
 1585.6250000 4.1479997635 55.490001678 4.0000000000 25.000000000 5101.0000000 1.0000000000
 1585.7500000 4.7560000420 55.494998932 4.0000000000 25.000000000 5101.0000000 1.0000000000
 1585.8750000 5.1810002327 55.493999481 4.0000000000 25.000000000 5101.0000000 1.0000000000
 1586.0000000 5.3299999237 55.485000610 4.0000000000 25.000000000 5101.0000000 1.0000000000
 1586.1250000 5.1840000153 55.472000122 4.0000000000 25.000000000 5101.0000000 1.0000000000
 1586.2500000 4.9670000076 55.457000732 4.0000000000 25.000000000 5101.0000000 1.0000000000
 1586.3750000 4.7699999809 55.443000793 4.0000000000 25.000000000 5101.0000000 1.0000000000
 1586.5000000 4.7550001144 55.436000824 4.0000000000 25.000000000 5101.0000000 1.0000000000
 1586.6250000 4.6300001144 55.436000824 4.0000000000 25.000000000 5101.0000000 1.0000000000
 1586.7500000 4.3600001335 55.443000793 4.0000000000 25.000000000 5101.0000000 1.0000000000
 1586.8750000 4.3649997711 55.453998566 4.0000000000 25.000000000 5101.0000000 1.0000000000
 1587.0000000 4.8270001411 55.464000702 4.0000000000 25.000000000 5101.0000000 1.0000000000
 1587.1250000 5.2420001030 55.472000122 4.0000000000 25.000000000 5101.0000000 1.0000000000
 1587.2500000 5.4439997673 55.474998474 4.0000000000 25.000000000 5101.0000000 1.0000000000
 1587.3750000 5.4720001221 55.476001740 4.0000000000 25.000000000 5101.0000000 1.0000000000
 1587.5000000 5.1380000114 55.476001740 4.0000000000 25.000000000 5101.0000000 1.0000000000
 1587.6250000 4.5219998360 55.479000092 4.0000000000 25.000000000 5101.0000000 1.0000000000
 1587.7500000 3.8110001087 55.483001709 4.0000000000 25.000000000 5101.0000000 1.0000000000
 1587.8750000 3.6370000839 55.488998413 4.0000000000 25.000000000 5101.0000000 1.0000000000
 1588.0000000 3.7579998970 55.493999481 4.0000000000 25.000000000 5101.0000000 1.0000000000
 1588.1250000 3.9890000820 55.494998932 4.0000000000 25.000000000 5101.0000000 1.0000000000
 1588.2500000 4.1490001678 55.490001678 4.0000000000 25.000000000 5101.0000000 1.0000000000
 1588.3750000 4.2859997749 55.478000641 4.0000000000 25.000000000 5101.0000000 1.0000000000
 1588.5000000 4.4409999847 55.458000183 4.0000000000 25.000000000 5101.0000000 1.0000000000
 1588.6250000 4.3239998817 55.433998108 4.0000000000 25.000000000 5101.0000000 1.0000000000
