# LAS format log file from PETREL
# Project units are specified as depth units
#==================================================================
~Version information
VERS.   2.0:
WRAP.   NO:
#==================================================================
~Well
STRT .m      1450.0000000 :
STOP .m      1760.0000000 :
STEP .m     0.12500000 :
NULL .        -999.250000 :
COMP.           : COMPANY
WELL.  5-0172C   : WELL
FLD.            : FIELD
LOC.            : LOCATION
SRVC.           : SERVICE COMPANY
DATE.  2020-03-08 09:25:09   : Log Export Date {yyyy-MM-dd HH:mm:ss}
PROV.           : PROVINCE
UWI.      : UNIQUE WELL ID
API.            : API NUMBER
#==================================================================
~Curve
DEPT .m                   : DEPTH
RT .ohm.m                 : RT
SP .                      : SP
Fluids .                  : Fluids
POR .m3/m3                : POR
PERM .mD                  : PERM
Lith .                    : Lith
~Parameter
#==================================================================
~Ascii
# ...
 1645.7500000 2.7449998856 27.179000854  -999.250000 0.1000000015 0.1000000015 0.0000000000
 1645.8750000 2.7880001068 27.069999695  -999.250000 0.1000000015 0.1000000015 0.0000000000
 1646.0000000 2.8039999008 27.002000809  -999.250000 0.1000000015 0.1000000015 0.0000000000
 1646.1250000 2.8050000668 26.882999420  -999.250000 0.1000000015 0.1000000015 0.0000000000
 1646.2500000 2.7290000916 26.687999725  -999.250000 0.1000000015 0.1000000015 0.0000000000
 1646.3750000 2.6779999733 26.566999435  -999.250000 0.1000000015 0.1000000015 0.0000000000
 1646.5000000 2.5810000896 26.422000885  -999.250000 0.1000000015 0.1000000015 0.0000000000
 1646.6250000 2.5940001011 26.309999466  -999.250000 0.1000000015 0.1000000015 0.0000000000
 1646.7500000 2.7279999256 26.218000412  -999.250000 0.1000000015 0.1000000015 0.0000000000
 1646.8750000 2.8619999886 26.075000763  -999.250000 0.1000000015 0.1000000015 0.0000000000
 1647.0000000 2.8900001049 25.968000412  -999.250000 0.1000000015 0.1000000015 0.0000000000
 1647.1250000 2.9289999008 25.881999969  -999.250000 0.1000000015 0.1000000015 0.0000000000
 1647.2500000 2.9370000362 25.775999069  -999.250000 0.1000000015 0.1000000015 0.0000000000
 1647.3750000 2.9049999714 25.628999710  -999.250000 0.1000000015 0.1000000015 0.0000000000
 1647.5000000 2.8559999466 25.502000809  -999.250000 0.1000000015 0.1000000015 0.0000000000
 1647.6250000 2.7969999313 25.375000000  -999.250000 0.1000000015 0.1000000015 0.0000000000
 1647.7500000 2.7500000000 25.177000046  -999.250000 0.1000000015 0.1000000015 0.0000000000
 1647.8750000 2.6919999123 25.004999161  -999.250000 0.1000000015 0.1000000015 0.0000000000
 1648.0000000 2.6289999485 24.840000153  -999.250000 0.1000000015 0.1000000015 0.0000000000
 1648.1250000 2.6579999924 24.586000443  -999.250000 0.1000000015 0.1000000015 0.0000000000
 1648.2500000 2.6659998894 24.364000320  -999.250000 0.1000000015 0.1000000015 0.0000000000
 1648.3750000 2.5940001011 24.131999969  -999.250000 0.1000000015 0.1000000015 0.0000000000
 1648.5000000 2.5220000744 23.837999344  -999.250000 0.1000000015 0.1000000015 0.0000000000
 1648.6250000 2.5150001049 23.558000565  -999.250000 0.1000000015 0.1000000015 0.0000000000
 1648.7500000 2.5079998970 23.320999146  -999.250000 0.1000000015 0.1000000015 0.0000000000
 1648.8750000 2.5550000668 23.044000626  -999.250000 0.1000000015 0.1000000015 0.0000000000
 1649.0000000 2.5520000458 22.743000031  -999.250000 0.1000000015 0.1000000015 0.0000000000
 1649.1250000 2.6540000439 22.429000854 4.0000000000 23.000000000 3152.0000000 1.0000000000
 1649.2500000 2.8429999352 22.181999207 4.0000000000 23.000000000 3152.0000000 1.0000000000
 1649.3750000 3.0669999123 21.856000900 4.0000000000 23.000000000 3152.0000000 1.0000000000
 1649.5000000 3.1940000057 21.485000610 4.0000000000 23.000000000 3152.0000000 1.0000000000
 1649.6250000 3.3199999332 21.152999878 4.0000000000 23.000000000 3152.0000000 1.0000000000
 1649.7500000 3.2950000763 20.777000427 4.0000000000 23.000000000 3152.0000000 1.0000000000
 1649.8750000 3.1659998894 20.316999435 4.0000000000 23.000000000 3152.0000000 1.0000000000
 1650.0000000 3.0380001068 20.034000397 4.0000000000 23.000000000 3152.0000000 1.0000000000
 1650.1250000 2.9089999199 19.729999542 4.0000000000 23.000000000 3152.0000000 1.0000000000
 1650.2500000 2.8169999123 19.495000839 4.0000000000 23.000000000 3152.0000000 1.0000000000
 1650.3750000 32.299999237 19.163000107 4.0000000000 23.000000000 3152.0000000 1.0000000000
 1650.5000000 40.173999786 18.659999847 4.0000000000 23.000000000 3152.0000000 1.0000000000
 1650.6250000 40.726001740 18.069999695 4.0000000000 23.000000000 3152.0000000 1.0000000000
 1650.7500000 40.970001221 17.486000061 4.0000000000 23.000000000 3152.0000000 1.0000000000
 1650.8750000 41.144001007 16.950000763 4.0000000000 23.000000000 3152.0000000 1.0000000000
 1651.0000000 41.227001190 16.495000839 4.0000000000 23.000000000 3152.0000000 1.0000000000
 1651.1250000 41.293998718 16.077999115 4.0000000000 23.000000000 3152.0000000 1.0000000000
 1651.2500000 41.325000763 15.859999657 4.0000000000 23.000000000 3152.0000000 1.0000000000
 1651.3750000 41.388999939 15.515999794 4.0000000000 23.000000000 3152.0000000 1.0000000000
 1651.5000000 41.449001312 15.251000404 4.0000000000 23.000000000 3152.0000000 1.0000000000
 1651.6250000 41.473999023 14.887000084 4.0000000000 23.000000000 3152.0000000 1.0000000000
 1651.7500000 41.481998444 14.501999855 4.0000000000 23.000000000 3152.0000000 1.0000000000
 1651.8750000 41.479999542 14.104999542 4.0000000000 23.000000000 3152.0000000 1.0000000000
 1652.0000000 41.534999847 13.703000069 4.0000000000 23.000000000 3152.0000000 1.0000000000
 1652.1250000 41.542999268 13.444999695 4.0000000000 23.000000000 3152.0000000 1.0000000000
 1652.2500000 41.544998169 13.159999847 4.0000000000 23.000000000 3152.0000000 1.0000000000
 1652.3750000 41.542999268 12.857000351 4.0000000000 23.000000000 3152.0000000 1.0000000000
 1652.5000000 41.594001770 12.616000175 4.0000000000 23.000000000 3152.0000000 1.0000000000
 1652.6250000 41.650001526 12.333999634 4.0000000000 23.000000000 3152.0000000 1.0000000000
 1652.7500000 41.724998474 12.078000069 4.0000000000 23.000000000 3152.0000000 1.0000000000
 1652.8750000 41.868999481 11.857000351 4.0000000000 23.000000000 3152.0000000 1.0000000000
 1653.0000000 41.971000671 11.625000000 4.0000000000 23.000000000 3152.0000000 1.0000000000
 1653.1250000 42.089000702 11.387999535 4.0000000000 23.000000000 3152.0000000 1.0000000000
 1653.2500000 42.317001343 11.123000145 4.0000000000 23.000000000 3152.0000000 1.0000000000
 1653.3750000 42.541000366 10.814999580 4.0000000000 23.000000000 3152.0000000 1.0000000000
 1653.5000000 42.833000183 10.534999847 4.0000000000 23.000000000 3152.0000000 1.0000000000
 1653.6250000 43.090000153 10.232000351 4.0000000000 23.000000000 3152.0000000 1.0000000000
 1653.7500000 43.353000641 9.9989995956 4.0000000000 23.000000000 3152.0000000 1.0000000000
 1653.8750000 43.570999146 9.7620000839 4.0000000000 23.000000000 3152.0000000 1.0000000000
 1654.0000000 43.819999695 9.6359996796 4.0000000000 23.000000000 3152.0000000 1.0000000000
 1654.1250000 44.020999908 9.5159997940 4.0000000000 23.000000000 3152.0000000 1.0000000000
 1654.2500000 44.255001068 9.4040002823 4.0000000000 23.000000000 3152.0000000 1.0000000000
 1654.3750000 44.624000549 9.3249998093 4.0000000000 23.000000000 3152.0000000 1.0000000000
 1654.5000000 44.983001709 9.2460002899 4.0000000000 23.000000000 3152.0000000 1.0000000000
 1654.6250000 45.339000702 9.1809997559 4.0000000000 23.000000000 3152.0000000 1.0000000000
 1654.7500000 45.695999146 9.1149997711 4.0000000000 23.000000000 3152.0000000 1.0000000000
 1654.8750000 46.312000275 9.0509996414 4.0000000000 23.000000000 3152.0000000 1.0000000000
 1655.0000000 46.882999420 8.9860000610 4.0000000000 23.000000000 3152.0000000 1.0000000000
 1655.1250000 47.472999573 8.9420003891 4.0000000000 23.000000000 3152.0000000 1.0000000000
 1655.2500000 48.073001862 8.8999996185 4.0000000000 23.000000000 3152.0000000 1.0000000000
 1655.3750000 48.728000641 8.8579998016 4.0000000000 23.000000000 3152.0000000 1.0000000000
 1655.5000000 49.459999084 8.7910003662 4.0000000000 23.000000000 3152.0000000 1.0000000000
 1655.6250000 50.611000061 8.7349996567 4.0000000000 23.000000000 3152.0000000 1.0000000000
 1655.7500000 51.341999054 8.7139997482 4.0000000000 23.000000000 3152.0000000 1.0000000000
 1655.8750000 52.178001404 8.7080001831 4.0000000000 23.000000000 3152.0000000 1.0000000000
 1656.0000000 52.476001740 8.7049999237 4.0000000000 23.000000000 3152.0000000 1.0000000000
 1656.1250000 52.750999451 8.7019996643 4.0000000000 23.000000000 3152.0000000 1.0000000000
 1656.2500000 53.062000275 8.7950000763 4.0000000000 23.000000000 3152.0000000 1.0000000000
 1656.3750000 53.257999420 8.8170003891 4.0000000000 23.000000000 3152.0000000 1.0000000000
 1656.5000000 53.235000610 8.8520002365 4.0000000000 23.000000000 3152.0000000 1.0000000000
