# LAS format log file from PETREL
# Project units are specified as depth units
#==================================================================
~Version information
VERS.   2.0:
WRAP.   NO:
#==================================================================
~Well
STRT .m      1420.0000000 :
STOP .m      1734.8750000 :
STEP .m     0.12500000 :
NULL .        -999.250000 :
COMP.           : COMPANY
WELL.  5-0161C   : WELL
FLD.            : FIELD
LOC.            : LOCATION
SRVC.           : SERVICE COMPANY
DATE.  2020-03-08 09:25:09   : Log Export Date {yyyy-MM-dd HH:mm:ss}
PROV.           : PROVINCE
UWI.      : UNIQUE WELL ID
API.            : API NUMBER
#==================================================================
~Curve
DEPT .m                   : DEPTH
RT .ohm.m                 : RT
SP .                      : SP
Fluids .                  : Fluids
POR .m3/m3                : POR
PERM .mD                  : PERM
Lith .                    : Lith
~Parameter
#==================================================================
~Ascii
# ...
 1615.7500000 9.3629999161 -65.57599640 4.0000000000 26.000000000 4044.0000000 1.0000000000
 1615.8750000 10.088999748 -65.53299713 4.0000000000 26.000000000 4044.0000000 1.0000000000
 1616.0000000 10.619999886 -65.41699982 4.0000000000 26.000000000 4044.0000000 1.0000000000
 1616.1250000 10.876000404 -65.26499939 4.0000000000 26.000000000 4044.0000000 1.0000000000
 1616.2500000 11.277000427 -64.93699646 4.0000000000 26.000000000 4044.0000000 1.0000000000
 1616.3750000 11.803000450 -64.62000275 4.0000000000 26.000000000 4044.0000000 1.0000000000
 1616.5000000 12.211000443 -64.92800140 4.0000000000 26.000000000 4044.0000000 1.0000000000
 1616.6250000 12.598999977 -65.92299652 4.0000000000 26.000000000 4044.0000000 1.0000000000
 1616.7500000 12.871000290 -67.10399628 4.0000000000 26.000000000 4044.0000000 1.0000000000
 1616.8750000 13.305999756 -67.78900146 4.0000000000 26.000000000 4044.0000000 1.0000000000
 1617.0000000 13.442999840 -67.73500061 4.0000000000 26.000000000 4044.0000000 1.0000000000
 1617.1250000 12.828000069 -67.03099823 4.0000000000 26.000000000 4044.0000000 1.0000000000
 1617.2500000 12.076999664 -65.92099762 4.0000000000 26.000000000 4044.0000000 1.0000000000
 1617.3750000 11.366000175 -64.87100220 4.0000000000 26.000000000 4044.0000000 1.0000000000
 1617.5000000 11.116999626 -64.18199921 4.0000000000 26.000000000 4044.0000000 1.0000000000
 1617.6250000 11.357000351 -63.79100037  -999.250000 0.1000000015 0.1000000015 0.0000000000
 1617.7500000 11.607000351 -63.29399872  -999.250000 0.1000000015 0.1000000015 0.0000000000
 1617.8750000 11.751000404 -62.58800125  -999.250000 0.1000000015 0.1000000015 0.0000000000
 1618.0000000 11.854999542 -61.86500168  -999.250000 0.1000000015 0.1000000015 0.0000000000
 1618.1250000 11.854000092 -61.18199921  -999.250000 0.1000000015 0.1000000015 0.0000000000
 1618.2500000 11.842000008 -60.53099823  -999.250000 0.1000000015 0.1000000015 0.0000000000
 1618.3750000 11.812000275 -60.02500153  -999.250000 0.1000000015 0.1000000015 0.0000000000
 1618.5000000 11.699000359 -60.13899994  -999.250000 0.1000000015 0.1000000015 0.0000000000
 1618.6250000 11.475000381 -61.06900024  -999.250000 0.1000000015 0.1000000015 0.0000000000
 1618.7500000 11.359000206 -62.66400146 4.0000000000 24.000000000 2762.0000000 1.0000000000
 1618.8750000 11.545000076 -64.61799622 4.0000000000 24.000000000 2762.0000000 1.0000000000
 1619.0000000 11.930999756 -66.62599945 4.0000000000 24.000000000 2762.0000000 1.0000000000
 1619.1250000 12.600999832 -68.53199768 4.0000000000 24.000000000 2762.0000000 1.0000000000
 1619.2500000 13.581000328 -70.14600372 4.0000000000 24.000000000 2762.0000000 1.0000000000
 1619.3750000 14.767000198 -71.37699890 4.0000000000 24.000000000 2762.0000000 1.0000000000
 1619.5000000 15.774000168 -72.10700226 4.0000000000 24.000000000 2762.0000000 1.0000000000
 1619.6250000 16.561000824 -72.36199951 4.0000000000 24.000000000 2762.0000000 1.0000000000
 1619.7500000 17.837999344 -72.24500275 4.0000000000 24.000000000 2762.0000000 1.0000000000
 1619.8750000 19.795000076 -71.86699677 4.0000000000 24.000000000 2762.0000000 1.0000000000
 1620.0000000 22.406000137 -71.32700348 4.0000000000 24.000000000 2762.0000000 1.0000000000
 1620.1250000 24.729999542 -70.82499695 4.0000000000 24.000000000 2762.0000000 1.0000000000
 1620.2500000 26.091999054 -70.54199982 4.0000000000 24.000000000 2762.0000000 1.0000000000
 1620.3750000 27.172000885 -70.40599823 4.0000000000 24.000000000 2762.0000000 1.0000000000
 1620.5000000 27.711999893 -70.20899963 4.0000000000 24.000000000 2762.0000000 1.0000000000
 1620.6250000 28.034999847 -69.80400085 4.0000000000 24.000000000 2762.0000000 1.0000000000
 1620.7500000 28.264999390 -69.18499756 4.0000000000 24.000000000 2762.0000000 1.0000000000
 1620.8750000 28.489999771 -68.41699982 4.0000000000 24.000000000 2762.0000000 1.0000000000
 1621.0000000 28.743000031 -67.58799744 4.0000000000 24.000000000 2762.0000000 1.0000000000
 1621.1250000 28.882999420 -66.79299927 4.0000000000 24.000000000 2762.0000000 1.0000000000
 1621.2500000 29.014999390 -66.35700226 4.0000000000 24.000000000 2762.0000000 1.0000000000
 1621.3750000 29.257999420 -66.70200348 4.0000000000 24.000000000 2762.0000000 1.0000000000
 1621.5000000 29.774000168 -67.80100250 4.0000000000 24.000000000 2762.0000000 1.0000000000
 1621.6250000 31.045999527 -69.11000061 4.0000000000 24.000000000 2762.0000000 1.0000000000
 1621.7500000 33.102001190 -70.02799988 4.0000000000 24.000000000 2762.0000000 1.0000000000
 1621.8750000 35.278999329 -70.38500214 4.0000000000 24.000000000 2762.0000000 1.0000000000
 1622.0000000 37.069000244 -70.36900330 4.0000000000 24.000000000 2762.0000000 1.0000000000
 1622.1250000 38.368000031 -70.17900085 4.0000000000 24.000000000 2762.0000000 1.0000000000
 1622.2500000 40.445999146 -70.03700256 4.0000000000 24.000000000 2762.0000000 1.0000000000
 1622.3750000 43.926998138 -70.06900024 4.0000000000 24.000000000 2762.0000000 1.0000000000
 1622.5000000 47.514999390 -70.23899841 4.0000000000 24.000000000 2762.0000000 1.0000000000
 1622.6250000 49.478000641 -70.39499664 4.0000000000 24.000000000 2762.0000000 1.0000000000
 1622.7500000 50.513999939 -70.40899658 4.0000000000 24.000000000 2762.0000000 1.0000000000
 1622.8750000 51.962001801 -70.28500366 4.0000000000 24.000000000 2762.0000000 1.0000000000
 1623.0000000 53.752998352 -70.13099670 4.0000000000 24.000000000 2762.0000000 1.0000000000
 1623.1250000 55.261001587 -70.08300018 4.0000000000 24.000000000 2762.0000000 1.0000000000
 1623.2500000 55.794998169 -70.18800354 4.0000000000 24.000000000 2762.0000000 1.0000000000
 1623.3750000 55.666999817 -70.42600250 4.0000000000 24.000000000 2762.0000000 1.0000000000
 1623.5000000 54.662998199 -70.68699646 4.0000000000 24.000000000 2762.0000000 1.0000000000
 1623.6250000 52.590999603 -70.84999847 4.0000000000 24.000000000 2762.0000000 1.0000000000
 1623.7500000 50.312000275 -70.87799835 4.0000000000 24.000000000 2762.0000000 1.0000000000
 1623.8750000 47.604999542 -70.80799866 4.0000000000 24.000000000 2762.0000000 1.0000000000
 1624.0000000 45.543998718 -70.70899963 4.0000000000 24.000000000 2762.0000000 1.0000000000
 1624.1250000 44.898998260 -70.63500214 4.0000000000 24.000000000 2762.0000000 1.0000000000
 1624.2500000 45.147998810 -70.53800201 4.0000000000 24.000000000 2762.0000000 1.0000000000
 1624.3750000 45.794998169 -70.43900299 4.0000000000 24.000000000 2762.0000000 1.0000000000
 1624.5000000 47.013000488 -70.40899658 4.0000000000 24.000000000 2762.0000000 1.0000000000
 1624.6250000 48.091999054 -70.55599976 4.0000000000 24.000000000 2762.0000000 1.0000000000
 1624.7500000 48.921001434 -70.87200165 4.0000000000 24.000000000 2762.0000000 1.0000000000
 1624.8750000 49.540000916 -71.18099976 4.0000000000 24.000000000 2762.0000000 1.0000000000
 1625.0000000 50.140998840 -71.35900116 4.0000000000 24.000000000 2762.0000000 1.0000000000
 1625.1250000 50.535999298 -71.40899658 4.0000000000 24.000000000 2762.0000000 1.0000000000
 1625.2500000 50.210998535 -71.40399933 4.0000000000 24.000000000 2762.0000000 1.0000000000
 1625.3750000 49.499000549 -71.38500214 4.0000000000 24.000000000 2762.0000000 1.0000000000
 1625.5000000 48.296001434 -71.37599945 4.0000000000 24.000000000 2762.0000000 1.0000000000
 1625.6250000 46.484001160 -71.45800018 4.0000000000 24.000000000 2762.0000000 1.0000000000
 1625.7500000 45.210998535 -71.63999939 4.0000000000 24.000000000 2762.0000000 1.0000000000
 1625.8750000 44.235000610 -71.87500000 4.0000000000 24.000000000 2762.0000000 1.0000000000
 1626.0000000 43.372001648 -72.11799622 4.0000000000 24.000000000 2762.0000000 1.0000000000
 1626.1250000 42.183998108 -72.34200287 4.0000000000 24.000000000 2762.0000000 1.0000000000
 1626.2500000 40.749000549 -72.48100281 4.0000000000 24.000000000 2762.0000000 1.0000000000
 1626.3750000 39.551998138 -72.46800232 4.0000000000 24.000000000 2762.0000000 1.0000000000
 1626.5000000 39.277999878 -72.36299896 4.0000000000 24.000000000 2762.0000000 1.0000000000
