# LAS format log file from PETREL
# Project units are specified as depth units
#==================================================================
~Version information
VERS.   2.0:
WRAP.   NO:
#==================================================================
~Well
STRT .m      1450.0000000 :
STOP .m      1760.0000000 :
STEP .m     0.12500000 :
NULL .        -999.250000 :
COMP.           : COMPANY
WELL.  5-0172C   : WELL
FLD.            : FIELD
LOC.            : LOCATION
SRVC.           : SERVICE COMPANY
DATE.  2020-03-08 09:25:09   : Log Export Date {yyyy-MM-dd HH:mm:ss}
PROV.           : PROVINCE
UWI.      : UNIQUE WELL ID
API.            : API NUMBER
#==================================================================
~Curve
DEPT .m                   : DEPTH
RT .ohm.m                 : RT
SP .                      : SP
Fluids .                  : Fluids
POR .m3/m3                : POR
PERM .mD                  : PERM
Lith .                    : Lith
~Parameter
#==================================================================
~Ascii
# ...
 1656.6250000 53.076999664 8.8940000534 4.0000000000 23.000000000 3152.0000000 1.0000000000
 1656.7500000 52.897998810 8.9110002518 4.0000000000 23.000000000 3152.0000000 1.0000000000
 1656.8750000 52.709999084 8.9280004501 4.0000000000 23.000000000 3152.0000000 1.0000000000
 1657.0000000 52.480998993 8.9619998932 4.0000000000 23.000000000 3152.0000000 1.0000000000
 1657.1250000 52.251998901 9.0039997101 4.0000000000 23.000000000 3152.0000000 1.0000000000
 1657.2500000 52.011001587 9.0459995270 4.0000000000 23.000000000 3152.0000000 1.0000000000
 1657.3750000 51.798999786 9.0810003281 4.0000000000 23.000000000 3152.0000000 1.0000000000
 1657.5000000 51.550998688 9.1370000839 4.0000000000 23.000000000 3152.0000000 1.0000000000
 1657.6250000 51.382999420 9.1870002747 4.0000000000 23.000000000 3152.0000000 1.0000000000
 1657.7500000 51.285999298 9.2089996338 4.0000000000 23.000000000 3152.0000000 1.0000000000
 1657.8750000 51.138999939 9.2620000839 4.0000000000 23.000000000 3152.0000000 1.0000000000
 1658.0000000 51.021999359 9.2749996185 4.0000000000 23.000000000 3152.0000000 1.0000000000
 1658.1250000 51.053001404 9.1800003052 4.0000000000 23.000000000 3152.0000000 1.0000000000
 1658.2500000 51.179000854 8.9820003510 4.0000000000 23.000000000 3152.0000000 1.0000000000
 1658.3750000 51.300998688 8.8199996948 4.0000000000 23.000000000 3152.0000000 1.0000000000
 1658.5000000 51.423000336 8.6610002518 4.0000000000 23.000000000 3152.0000000 1.0000000000
 1658.6250000 51.493999481 8.5019998550 4.0000000000 23.000000000 3152.0000000 1.0000000000
 1658.7500000 51.564998627 8.3430004120 4.0000000000 23.000000000 3152.0000000 1.0000000000
 1658.8750000 51.652999878 8.1840000153 4.0000000000 23.000000000 3152.0000000 1.0000000000
 1659.0000000 51.644001007 8.1110000610 4.0000000000 23.000000000 3152.0000000 1.0000000000
 1659.1250000 51.548000336 8.0509996414 4.0000000000 23.000000000 3152.0000000 1.0000000000
 1659.2500000 51.390998840 7.9949998856 4.0000000000 23.000000000 3152.0000000 1.0000000000
 1659.3750000 51.262001038 7.9640002251 4.0000000000 23.000000000 3152.0000000 1.0000000000
 1659.5000000 51.200000763 7.9479999542 4.0000000000 23.000000000 3152.0000000 1.0000000000
 1659.6250000 51.266998291 7.9409999847 4.0000000000 23.000000000 3152.0000000 1.0000000000
 1659.7500000 51.345001221 7.9359998703 4.0000000000 23.000000000 3152.0000000 1.0000000000
 1659.8750000 51.409000397 8.0019998550 4.0000000000 23.000000000 3152.0000000 1.0000000000
 1660.0000000 51.486000061 8.0719995499 4.0000000000 23.000000000 3152.0000000 1.0000000000
 1660.1250000 51.623001099 8.1269998550 4.0000000000 23.000000000 3152.0000000 1.0000000000
 1660.2500000 51.745998383 8.1899995804 4.0000000000 23.000000000 3152.0000000 1.0000000000
 1660.3750000 52.097999573 8.2440004349 4.0000000000 23.000000000 3152.0000000 1.0000000000
 1660.5000000 52.397998810 8.2700004578 4.0000000000 23.000000000 3152.0000000 1.0000000000
 1660.6250000 52.612998962 8.2799997330 4.0000000000 23.000000000 3152.0000000 1.0000000000
 1660.7500000 52.797000885 8.2329998016 4.0000000000 23.000000000 3152.0000000 1.0000000000
 1660.8750000 52.978000641 8.0959997177 4.0000000000 23.000000000 3152.0000000 1.0000000000
 1661.0000000 53.158000946 7.9460000992 4.0000000000 23.000000000 3152.0000000 1.0000000000
 1661.1250000 53.266998291 7.6690001488 4.0000000000 23.000000000 3152.0000000 1.0000000000
 1661.2500000 53.376998901 7.4130001068 4.0000000000 23.000000000 3152.0000000 1.0000000000
 1661.3750000 53.551998138 7.1570000648 4.0000000000 23.000000000 3152.0000000 1.0000000000
 1661.5000000 53.728000641 7.0760002136 4.0000000000 23.000000000 3152.0000000 1.0000000000
 1661.6250000 53.907001495 6.9060001373 4.0000000000 23.000000000 3152.0000000 1.0000000000
 1661.7500000 54.087001801 6.7439999580 4.0000000000 23.000000000 3152.0000000 1.0000000000
 1661.8750000 54.265998840 6.6469998360 4.0000000000 23.000000000 3152.0000000 1.0000000000
 1662.0000000 54.445999146 6.6440000534 4.0000000000 23.000000000 3152.0000000 1.0000000000
 1662.1250000 54.625000000 6.6069998741 4.0000000000 23.000000000 3152.0000000 1.0000000000
 1662.2500000 55.015998840 6.5869998932 4.0000000000 23.000000000 3152.0000000 1.0000000000
 1662.3750000 55.611000061 6.5450000763 4.0000000000 23.000000000 3152.0000000 1.0000000000
 1662.5000000 55.867000580 6.5209999084 4.0000000000 23.000000000 3152.0000000 1.0000000000
 1662.6250000 56.130001068 6.4780001640 4.0000000000 23.000000000 3152.0000000 1.0000000000
 1662.7500000 56.458999634 6.4549999237 4.0000000000 23.000000000 3152.0000000 1.0000000000
 1662.8750000 56.810001373 6.4439997673 4.0000000000 23.000000000 3152.0000000 1.0000000000
 1663.0000000 57.166000366 6.4730000496 4.0000000000 23.000000000 3152.0000000 1.0000000000
 1663.1250000 57.585998535 6.4819998741 4.0000000000 23.000000000 3152.0000000 1.0000000000
 1663.2500000 57.946998596 6.4860000610 4.0000000000 23.000000000 3152.0000000 1.0000000000
 1663.3750000 58.261001587 6.5170001984 4.0000000000 23.000000000 3152.0000000 1.0000000000
 1663.5000000 58.486999512 6.5669999123 4.0000000000 23.000000000 3152.0000000 1.0000000000
 1663.6250000 58.691001892 6.6290001869 4.0000000000 23.000000000 3152.0000000 1.0000000000
 1663.7500000 58.881999969 6.6810002327 4.0000000000 23.000000000 3152.0000000 1.0000000000
 1663.8750000 59.012001038 6.7430000305 4.0000000000 23.000000000 3152.0000000 1.0000000000
 1664.0000000 58.991001129 6.8119997978 4.0000000000 23.000000000 3152.0000000 1.0000000000
 1664.1250000 58.896999359 6.8649997711 4.0000000000 23.000000000 3152.0000000 1.0000000000
 1664.2500000 58.703998566 6.9289999008 4.0000000000 23.000000000 3152.0000000 1.0000000000
 1664.3750000 58.511001587 7.0440001488 4.0000000000 23.000000000 3152.0000000 1.0000000000
 1664.5000000 58.250000000 7.1290001869 4.0000000000 23.000000000 3152.0000000 1.0000000000
 1664.6250000 58.048999786 7.2170000076 4.0000000000 23.000000000 3152.0000000 1.0000000000
 1664.7500000 57.854000092 7.3039999008 4.0000000000 23.000000000 3152.0000000 1.0000000000
 1664.8750000 57.569999695 7.4400000572 4.0000000000 23.000000000 3152.0000000 1.0000000000
 1665.0000000 57.342998505 7.5570001602 4.0000000000 23.000000000 3152.0000000 1.0000000000
 1665.1250000 57.085998535 7.6750001907 4.0000000000 23.000000000 3152.0000000 1.0000000000
 1665.2500000 56.758998871 7.7919998169 4.0000000000 23.000000000 3152.0000000 1.0000000000
 1665.3750000 56.391998291 7.9099998474 4.0000000000 23.000000000 3152.0000000 1.0000000000
 1665.5000000 56.155998230 8.0880002975 4.0000000000 23.000000000 3152.0000000 1.0000000000
 1665.6250000 56.021999359 8.2180004120 4.0000000000 23.000000000 3152.0000000 1.0000000000
 1665.7500000 55.842998505 8.3470001221 4.0000000000 23.000000000 3152.0000000 1.0000000000
 1665.8750000 55.712001801 8.4580001831 4.0000000000 23.000000000 3152.0000000 1.0000000000
 1666.0000000 55.605998993 8.5880002975 4.0000000000 23.000000000 3152.0000000 1.0000000000
 1666.1250000 55.537998199 8.6829996109 4.0000000000 23.000000000 3152.0000000 1.0000000000
 1666.2500000 55.448001862 8.7399997711 4.0000000000 23.000000000 3152.0000000 1.0000000000
 1666.3750000 55.441001892 8.8070001602 4.0000000000 23.000000000 3152.0000000 1.0000000000
 1666.5000000 55.436000824 8.9289999008 4.0000000000 23.000000000 3152.0000000 1.0000000000
 1666.6250000 55.431999207 8.9870004654 4.0000000000 23.000000000 3152.0000000 1.0000000000
 1666.7500000 55.429000854 9.1040000916 4.0000000000 23.000000000 3152.0000000 1.0000000000
 1666.8750000 55.424999237 9.1630001068 4.0000000000 23.000000000 3152.0000000 1.0000000000
 1667.0000000 55.470001221 9.2309999466 4.0000000000 23.000000000 3152.0000000 1.0000000000
 1667.1250000 55.595001221 9.3229999542 4.0000000000 23.000000000 3152.0000000 1.0000000000
 1667.2500000 55.756999969 9.4029998779 4.0000000000 23.000000000 3152.0000000 1.0000000000
 1667.3750000 55.831001282 9.4779996872 4.0000000000 23.000000000 3152.0000000 1.0000000000
