# LAS format log file from PETREL
# Project units are specified as depth units
#==================================================================
~Version information
VERS.   2.0:
WRAP.   NO:
#==================================================================
~Well
STRT .m      730.00000000 :
STOP .m      1729.5000000 :
STEP .m     0.12500000 :
NULL .        -999.250000 :
COMP.           : COMPANY
WELL.  5-0163   : WELL
FLD.            : FIELD
LOC.            : LOCATION
SRVC.           : SERVICE COMPANY
DATE.  2020-03-08 09:25:09   : Log Export Date {yyyy-MM-dd HH:mm:ss}
PROV.           : PROVINCE
UWI.      : UNIQUE WELL ID
API.            : API NUMBER
#==================================================================
~Curve
DEPT .m                   : DEPTH
RT .ohm.m                 : RT
SP .                      : SP
Fluids .                  : Fluids
POR .m3/m3                : POR
PERM .mD                  : PERM
Lith .                    : Lith
~Parameter
#==================================================================
~Ascii
# ...
 1610.8750000 17.094699860 -9999.000000 4.0000000000 15.000000000 140.00000000 1.0000000000
 1611.0000000 15.430999756 -9999.000000 4.0000000000 15.000000000 140.00000000 1.0000000000
 1611.1250000 15.349499702 -9999.000000 4.0000000000 15.000000000 140.00000000 1.0000000000
 1611.2500000 15.267999649 -9999.000000 4.0000000000 15.000000000 140.00000000 1.0000000000
 1611.3750000 15.186499596 -9999.000000 4.0000000000 15.000000000 140.00000000 1.0000000000
 1611.5000000 15.104999542 -9999.000000 4.0000000000 15.000000000 140.00000000 1.0000000000
 1611.6250000 30.244300842 -9999.000000 4.0000000000 15.000000000 140.00000000 1.0000000000
 1611.7500000 45.383499146 -9999.000000 4.0000000000 15.000000000 140.00000000 1.0000000000
 1611.8750000 60.522800446 -9999.000000 4.0000000000 15.000000000 140.00000000 1.0000000000
 1612.0000000 75.662002563 -9999.000000 4.0000000000 15.000000000 140.00000000 1.0000000000
 1612.1250000 67.720802307 -9999.000000 4.0000000000 15.000000000 140.00000000 1.0000000000
 1612.2500000 59.779499054 -9999.000000 4.0000000000 15.000000000 140.00000000 1.0000000000
 1612.3750000 51.838298798 -9999.000000 4.0000000000 15.000000000 140.00000000 1.0000000000
 1612.5000000 43.896999359 -9999.000000 4.0000000000 15.000000000 140.00000000 1.0000000000
 1612.6250000 37.229999542 -9999.000000 4.0000000000 15.000000000 140.00000000 1.0000000000
 1612.7500000 30.562999725 -9999.000000 4.0000000000 15.000000000 140.00000000 1.0000000000
 1612.8750000 23.895999908 -9999.000000 4.0000000000 15.000000000 140.00000000 1.0000000000
 1613.0000000 17.229000092 -9999.000000 4.0000000000 15.000000000 140.00000000 1.0000000000
 1613.1250000 16.539800644 -9999.000000 4.0000000000 15.000000000 140.00000000 1.0000000000
 1613.2500000 15.850500107 -9999.000000 4.0000000000 15.000000000 140.00000000 1.0000000000
 1613.3750000 15.161299706 -9999.000000 4.0000000000 15.000000000 140.00000000 1.0000000000
 1613.5000000 14.472000122 -9999.000000 4.0000000000 15.000000000 140.00000000 1.0000000000
 1613.6250000 16.287799835 -9999.000000 4.0000000000 15.000000000 140.00000000 1.0000000000
 1613.7500000 18.103500366 -9999.000000 4.0000000000 15.000000000 140.00000000 1.0000000000
 1613.8750000 19.919300079 -9999.000000 4.0000000000 15.000000000 140.00000000 1.0000000000
 1614.0000000 21.735000610 -9999.000000 4.0000000000 15.000000000 140.00000000 1.0000000000
 1614.1250000 20.457000732 -9999.000000 4.0000000000 15.000000000 140.00000000 1.0000000000
 1614.2500000 19.179000854 -9999.000000 4.0000000000 15.000000000 140.00000000 1.0000000000
 1614.3750000 17.900999069 -9999.000000 4.0000000000 15.000000000 140.00000000 1.0000000000
 1614.5000000 16.622999191 -9999.000000 4.0000000000 15.000000000 140.00000000 1.0000000000
 1614.6250000 19.024499893 -9999.000000 4.0000000000 15.000000000 140.00000000 1.0000000000
 1614.7500000 21.426000595 -9999.000000 4.0000000000 15.000000000 140.00000000 1.0000000000
 1614.8750000 23.827499390 -9999.000000 4.0000000000 15.000000000 140.00000000 1.0000000000
 1615.0000000 26.229000092 -9999.000000 4.0000000000 15.000000000 140.00000000 1.0000000000
 1615.1250000 28.038700104 -9999.000000 4.0000000000 15.000000000 140.00000000 1.0000000000
 1615.2500000 29.848499298 -9999.000000 4.0000000000 15.000000000 140.00000000 1.0000000000
 1615.3750000 31.658199310 -9999.000000 4.0000000000 15.000000000 140.00000000 1.0000000000
 1615.5000000 33.467998505 -9999.000000 4.0000000000 15.000000000 140.00000000 1.0000000000
 1615.6250000 31.315700531 -9999.000000 4.0000000000 15.000000000 140.00000000 1.0000000000
 1615.7500000 29.163499832 -9999.000000 4.0000000000 15.000000000 140.00000000 1.0000000000
 1615.8750000 27.011199951 -9999.000000 4.0000000000 15.000000000 140.00000000 1.0000000000
 1616.0000000 24.858999252 -9999.000000 4.0000000000 15.000000000 140.00000000 1.0000000000
 1616.1250000 27.367000580 -9999.000000 4.0000000000 15.000000000 140.00000000 1.0000000000
 1616.2500000 29.875000000 -9999.000000 4.0000000000 15.000000000 140.00000000 1.0000000000
 1616.3750000 32.382999420 -9999.000000 4.0000000000 15.000000000 140.00000000 1.0000000000
 1616.5000000 34.890998840 -9999.000000 4.0000000000 15.000000000 140.00000000 1.0000000000
 1616.6250000 33.435199738 -9999.000000 4.0000000000 15.000000000 140.00000000 1.0000000000
 1616.7500000 31.979499817 -9999.000000 4.0000000000 15.000000000 140.00000000 1.0000000000
 1616.8750000 30.523799896 -9999.000000 4.0000000000 15.000000000 140.00000000 1.0000000000
 1617.0000000 29.068000793 -9999.000000 4.0000000000 15.000000000 140.00000000 1.0000000000
 1617.1250000 27.350799561 -9999.000000 4.0000000000 15.000000000 140.00000000 1.0000000000
 1617.2500000 25.633499146 -9999.000000 4.0000000000 15.000000000 140.00000000 1.0000000000
 1617.3750000 23.916200638 -9999.000000 4.0000000000 15.000000000 140.00000000 1.0000000000
 1617.5000000 22.198999405 -9999.000000 4.0000000000 15.000000000 140.00000000 1.0000000000
 1617.6250000 20.145200729 -9999.000000 4.0000000000 15.000000000 140.00000000 1.0000000000
 1617.7500000 18.091499329 -9999.000000 4.0000000000 15.000000000 140.00000000 1.0000000000
 1617.8750000 16.037799835 -9999.000000 4.0000000000 15.000000000 140.00000000 1.0000000000
 1618.0000000 13.984000206 -9999.000000 4.0000000000 15.000000000 140.00000000 1.0000000000
 1618.1250000 14.591300011 -9999.000000 4.0000000000 15.000000000 140.00000000 1.0000000000
 1618.2500000 15.198499680 -9999.000000 4.0000000000 15.000000000 140.00000000 1.0000000000
 1618.3750000 15.805800438 -9999.000000 4.0000000000 15.000000000 140.00000000 1.0000000000
 1618.5000000 16.413000107 -9999.000000 4.0000000000 15.000000000 140.00000000 1.0000000000
 1618.6250000 18.649499893 -9999.000000 4.0000000000 15.000000000 140.00000000 1.0000000000
 1618.7500000 20.885999680 -9999.000000 4.0000000000 15.000000000 140.00000000 1.0000000000
 1618.8750000 23.122499466 -9999.000000 4.0000000000 15.000000000 140.00000000 1.0000000000
 1619.0000000 25.358999252 -9999.000000 4.0000000000 15.000000000 140.00000000 1.0000000000
 1619.1250000 24.016700745 -9999.000000 4.0000000000 15.000000000 140.00000000 1.0000000000
 1619.2500000 22.674499512 -9999.000000 4.0000000000 15.000000000 140.00000000 1.0000000000
 1619.3750000 21.332199097 -9999.000000 4.0000000000 15.000000000 140.00000000 1.0000000000
 1619.5000000 19.989999771 -9999.000000 4.0000000000 15.000000000 140.00000000 1.0000000000
 1619.6250000 21.969699860 -9999.000000 4.0000000000 15.000000000 140.00000000 1.0000000000
 1619.7500000 23.949499130 -9999.000000 4.0000000000 15.000000000 140.00000000 1.0000000000
 1619.8750000 25.929300308 -9999.000000 4.0000000000 15.000000000 140.00000000 1.0000000000
 1620.0000000 27.909000397 -9999.000000 4.0000000000 15.000000000 140.00000000 1.0000000000
 1620.1250000 26.101499557 -9999.000000 4.0000000000 15.000000000 140.00000000 1.0000000000
 1620.2500000 24.294000626 -9999.000000 4.0000000000 15.000000000 140.00000000 1.0000000000
 1620.3750000 22.486499786 -9999.000000 4.0000000000 15.000000000 140.00000000 1.0000000000
 1620.5000000 20.679000854 -9999.000000 2.0000000000 16.000000000 192.00000000 1.0000000000
 1620.6250000 19.251300812 -9999.000000 2.0000000000 16.000000000 192.00000000 1.0000000000
 1620.7500000 17.823499680 -9999.000000 2.0000000000 16.000000000 192.00000000 1.0000000000
 1620.8750000 16.395799637 -9999.000000 2.0000000000 16.000000000 192.00000000 1.0000000000
 1621.0000000 14.968000412 -9999.000000 2.0000000000 16.000000000 192.00000000 1.0000000000
 1621.1250000 16.772499084 -9999.000000 2.0000000000 16.000000000 192.00000000 1.0000000000
 1621.2500000 18.576999664 -9999.000000 2.0000000000 16.000000000 192.00000000 1.0000000000
 1621.3750000 20.381500244 -9999.000000 2.0000000000 16.000000000 192.00000000 1.0000000000
 1621.5000000 22.186000824 -9999.000000 2.0000000000 16.000000000 192.00000000 1.0000000000
 1621.6250000 21.571500778 -9999.000000 2.0000000000 16.000000000 192.00000000 1.0000000000
