# LAS format log file from PETREL
# Project units are specified as depth units
#==================================================================
~Version information
VERS.   2.0:
WRAP.   NO:
#==================================================================
~Well
STRT .m      1480.0000000 :
STOP .m      1820.0000000 :
STEP .m     0.12500000 :
NULL .        -999.250000 :
COMP.           : COMPANY
WELL.  5-0165   : WELL
FLD.            : FIELD
LOC.            : LOCATION
SRVC.           : SERVICE COMPANY
DATE.  2020-03-08 09:25:09   : Log Export Date {yyyy-MM-dd HH:mm:ss}
PROV.           : PROVINCE
UWI.      : UNIQUE WELL ID
API.            : API NUMBER
#==================================================================
~Curve
DEPT .m                   : DEPTH
RT .ohm.m                 : RT
SP .                      : SP
Fluids .                  : Fluids
POR .m3/m3                : POR
PERM .mD                  : PERM
Lith .                    : Lith
~Parameter
#==================================================================
~Ascii
# ...
 1621.3750000 5.4510002136 55.113998413 4.0000000000 22.000000000 3016.0000000 1.0000000000
 1621.5000000 5.1630001068 55.094001770 4.0000000000 22.000000000 3016.0000000 1.0000000000
 1621.6250000 4.9600000381 55.074001312 4.0000000000 22.000000000 3016.0000000 1.0000000000
 1621.7500000 4.6579999924 55.056999207 4.0000000000 22.000000000 3016.0000000 1.0000000000
 1621.8750000 4.4390001297 55.044998169 4.0000000000 22.000000000 3016.0000000 1.0000000000
 1622.0000000 4.5170001984 55.039001465 4.0000000000 22.000000000 3016.0000000 1.0000000000
 1622.1250000 4.8090000153 55.036998749 4.0000000000 22.000000000 3016.0000000 1.0000000000
 1622.2500000 5.0209999084 55.035999298 4.0000000000 22.000000000 3016.0000000 1.0000000000
 1622.3750000 5.2160000801 55.035999298 4.0000000000 22.000000000 3016.0000000 1.0000000000
 1622.5000000 5.1040000916 55.034000397 4.0000000000 22.000000000 3016.0000000 1.0000000000
 1622.6250000 4.0710000992 55.028999329 4.0000000000 22.000000000 3016.0000000 1.0000000000
 1622.7500000 3.7230000496 55.019001007 4.0000000000 22.000000000 3016.0000000 1.0000000000
 1622.8750000 3.2960000038 55.000999451 4.0000000000 22.000000000 3016.0000000 1.0000000000
 1623.0000000 3.0220000744 54.976001740 4.0000000000 22.000000000 3016.0000000 1.0000000000
 1623.1250000 2.9379999638 54.944999695 4.0000000000 22.000000000 3016.0000000 1.0000000000
 1623.2500000 3.1110000610 54.910999298 4.0000000000 22.000000000 3016.0000000 1.0000000000
 1623.3750000 3.6849999428 54.873001099 4.0000000000 22.000000000 3016.0000000 1.0000000000
 1623.5000000 4.0679998398 54.831001282 4.0000000000 22.000000000 3016.0000000 1.0000000000
 1623.6250000 4.0900001526 54.784999847 4.0000000000 22.000000000 3016.0000000 1.0000000000
 1623.7500000 3.6789999008 54.735000610 4.0000000000 22.000000000 3016.0000000 1.0000000000
 1623.8750000 3.3059999943 54.682998657 4.0000000000 22.000000000 3016.0000000 1.0000000000
 1624.0000000 2.9479999542 54.626998901 4.0000000000 22.000000000 3016.0000000 1.0000000000
 1624.1250000 2.6770000458 54.569999695 4.0000000000 22.000000000 3016.0000000 1.0000000000
 1624.2500000 2.5280001163 54.509998322 4.0000000000 22.000000000 3016.0000000 1.0000000000
 1624.3750000 2.5720000267 54.444999695 4.0000000000 22.000000000 3016.0000000 1.0000000000
 1624.5000000 2.8199999332 54.377998352 4.0000000000 22.000000000 3016.0000000 1.0000000000
 1624.6250000 3.0520000458 54.307998657 4.0000000000 22.000000000 3016.0000000 1.0000000000
 1624.7500000 3.0380001068 54.237998962 4.0000000000 22.000000000 3016.0000000 1.0000000000
 1624.8750000 2.8949999809 54.169998169 4.0000000000 22.000000000 3016.0000000 1.0000000000
 1625.0000000 2.6419999599 54.102001190 4.0000000000 22.000000000 3016.0000000 1.0000000000
 1625.1250000 2.5000000000 54.028999329 4.0000000000 22.000000000 3016.0000000 1.0000000000
 1625.2500000 2.4519999027 53.950000763 4.0000000000 22.000000000 3016.0000000 1.0000000000
 1625.3750000 2.8789999485 53.860000610 4.0000000000 22.000000000 3016.0000000 1.0000000000
 1625.5000000 3.4560000896 53.756000519 4.0000000000 22.000000000 3016.0000000 1.0000000000
 1625.6250000 3.8269999027 53.638999939 4.0000000000 22.000000000 3016.0000000 1.0000000000
 1625.7500000 3.4089999199 53.506000519 4.0000000000 22.000000000 3016.0000000 1.0000000000
 1625.8750000 3.1150000095 53.359001160 4.0000000000 22.000000000 3016.0000000 1.0000000000
 1626.0000000 2.9670000076 53.199001312 4.0000000000 22.000000000 3016.0000000 1.0000000000
 1626.1250000 2.6689999104 53.027999878 4.0000000000 22.000000000 3016.0000000 1.0000000000
 1626.2500000 2.4309999943 52.847999573 4.0000000000 22.000000000 3016.0000000 1.0000000000
 1626.3750000 2.2909998894 52.659999847 4.0000000000 22.000000000 3016.0000000 1.0000000000
 1626.5000000 2.6630001068 52.464000702 4.0000000000 22.000000000 3016.0000000 1.0000000000
 1626.6250000 3.5360000134 52.262001038 4.0000000000 22.000000000 3016.0000000 1.0000000000
 1626.7500000 4.1739997864 52.051998138 4.0000000000 22.000000000 3016.0000000 1.0000000000
 1626.8750000 4.3689999580 51.833999634 4.0000000000 22.000000000 3016.0000000 1.0000000000
 1627.0000000 3.8810000420 51.609001160 4.0000000000 22.000000000 3016.0000000 1.0000000000
 1627.1250000 3.5850000381 51.376998901 4.0000000000 22.000000000 3016.0000000 1.0000000000
 1627.2500000 3.5039999485 51.137001038 4.0000000000 22.000000000 3016.0000000 1.0000000000
 1627.3750000 3.4110000134 50.888000488 4.0000000000 22.000000000 3016.0000000 1.0000000000
 1627.5000000 3.7479999065 50.630001068 4.0000000000 22.000000000 3016.0000000 1.0000000000
 1627.6250000 3.7500000000 50.361999512 4.0000000000 22.000000000 3016.0000000 1.0000000000
 1627.7500000 3.1940000057 50.085998535 4.0000000000 22.000000000 3016.0000000 1.0000000000
 1627.8750000 2.4839999676 49.803001404 4.0000000000 22.000000000 3016.0000000 1.0000000000
 1628.0000000 2.3619999886 49.516998291 4.0000000000 22.000000000 3016.0000000 1.0000000000
 1628.1250000 2.3029999733 49.235000610 4.0000000000 22.000000000 3016.0000000 1.0000000000
 1628.2500000 2.7539999485 48.965999603 4.0000000000 22.000000000 3016.0000000 1.0000000000
 1628.3750000 2.9140000343 48.717998505 4.0000000000 22.000000000 3016.0000000 1.0000000000
 1628.5000000 2.6830000877 48.494998932 4.0000000000 22.000000000 3016.0000000 1.0000000000
 1628.6250000 2.5320000648 48.301998138 4.0000000000 22.000000000 3016.0000000 1.0000000000
 1628.7500000 2.4749999046 48.138000488 4.0000000000 22.000000000 3016.0000000 1.0000000000
 1628.8750000 2.6240000725 48.001998901 4.0000000000 22.000000000 3016.0000000 1.0000000000
 1629.0000000 3.1410000324 47.888999939 4.0000000000 22.000000000 3016.0000000 1.0000000000
 1629.1250000 3.4079999924 47.798000336 4.0000000000 22.000000000 3016.0000000 1.0000000000
 1629.2500000 3.4509999752 47.729999542 4.0000000000 22.000000000 3016.0000000 1.0000000000
 1629.3750000 3.6889998913 47.687000275 4.0000000000 22.000000000 3016.0000000 1.0000000000
 1629.5000000 3.9010000229 47.667999268 4.0000000000 22.000000000 3016.0000000 1.0000000000
 1629.6250000 4.0170001984 47.673000336 4.0000000000 22.000000000 3016.0000000 1.0000000000
 1629.7500000 3.9700000286 47.694999695 4.0000000000 22.000000000 3016.0000000 1.0000000000
 1629.8750000 3.7019999027 47.727001190 4.0000000000 22.000000000 3016.0000000 1.0000000000
 1630.0000000 3.3159999847 47.761001587 4.0000000000 22.000000000 3016.0000000 1.0000000000
 1630.1250000 2.9430000782 47.792999268 4.0000000000 22.000000000 3016.0000000 1.0000000000
 1630.2500000 2.8120000362 47.820999146 4.0000000000 22.000000000 3016.0000000 1.0000000000
 1630.3750000 3.0729999542 47.844001770 4.0000000000 22.000000000 3016.0000000 1.0000000000
 1630.5000000 3.5980000496 47.861000061 4.0000000000 22.000000000 3016.0000000 1.0000000000
 1630.6250000 3.7829999924 47.870998383 4.0000000000 22.000000000 3016.0000000 1.0000000000
 1630.7500000 3.9210000038 47.875999451 4.0000000000 22.000000000 3016.0000000 1.0000000000
 1630.8750000 3.7100000381 47.880001068 4.0000000000 22.000000000 3016.0000000 1.0000000000
 1631.0000000 3.2379999161 47.887001038 4.0000000000 22.000000000 3016.0000000 1.0000000000
 1631.1250000 2.7320001125 47.895999908 4.0000000000 22.000000000 3016.0000000 1.0000000000
 1631.2500000 2.5280001163 47.902999878 4.0000000000 22.000000000 3016.0000000 1.0000000000
 1631.3750000 2.6349999905 47.901000977 4.0000000000 22.000000000 3016.0000000 1.0000000000
 1631.5000000 3.0079998970 47.877998352 4.0000000000 22.000000000 3016.0000000 1.0000000000
 1631.6250000 3.7249999046 47.827999115 4.0000000000 22.000000000 3016.0000000 1.0000000000
 1631.7500000 4.0650000572 47.745998383 4.0000000000 22.000000000 3016.0000000 1.0000000000
 1631.8750000 4.0900001526 47.632999420 4.0000000000 22.000000000 3016.0000000 1.0000000000
 1632.0000000 3.2390000820 47.490001678 4.0000000000 22.000000000 3016.0000000 1.0000000000
 1632.1250000 2.9100000858 47.317001343 4.0000000000 22.000000000 3016.0000000 1.0000000000
