# LAS format log file from PETREL
# Project units are specified as depth units
#==================================================================
~Version information
VERS.   2.0:
WRAP.   NO:
#==================================================================
~Well
STRT .m      1350.0000000 :
STOP .m      1755.0000000 :
STEP .m     0.12500000 :
NULL .        -999.250000 :
COMP.           : COMPANY
WELL.  5-0165C2   : WELL
FLD.            : FIELD
LOC.            : LOCATION
SRVC.           : SERVICE COMPANY
DATE.  2020-03-08 09:25:09   : Log Export Date {yyyy-MM-dd HH:mm:ss}
PROV.           : PROVINCE
UWI.      : UNIQUE WELL ID
API.            : API NUMBER
#==================================================================
~Curve
DEPT .m                   : DEPTH
RT .ohm.m                 : RT
SP .                      : SP
Fluids .                  : Fluids
POR .m3/m3                : POR
PERM .mD                  : PERM
Lith .                    : Lith
~Parameter
#==================================================================
~Ascii
# ...
 1621.8750000 21.465999603 10.475000381 4.0000000000 24.000000000 3166.0000000 1.0000000000
 1622.0000000 21.586000443 10.501999855 4.0000000000 24.000000000 3166.0000000 1.0000000000
 1622.1250000 22.731000900 10.505999565 4.0000000000 24.000000000 3166.0000000 1.0000000000
 1622.2500000 23.436000824 10.508000374 4.0000000000 24.000000000 3166.0000000 1.0000000000
 1622.3750000 23.544000626 10.510000229 4.0000000000 24.000000000 3166.0000000 1.0000000000
 1622.5000000 22.899000168 10.510999680 4.0000000000 24.000000000 3166.0000000 1.0000000000
 1622.6250000 22.298999786 10.512999535 4.0000000000 24.000000000 3166.0000000 1.0000000000
 1622.7500000 21.966999054 10.513999939 4.0000000000 24.000000000 3166.0000000 1.0000000000
 1622.8750000 21.920999527 10.413000107 4.0000000000 24.000000000 3166.0000000 1.0000000000
 1623.0000000 21.933000565 10.310999870 4.0000000000 24.000000000 3166.0000000 1.0000000000
 1623.1250000 22.082000732 10.218000412 4.0000000000 24.000000000 3166.0000000 1.0000000000
 1623.2500000 24.695999146 10.001999855 4.0000000000 24.000000000 3166.0000000 1.0000000000
 1623.3750000 25.795999527 9.8140001297 4.0000000000 24.000000000 3166.0000000 1.0000000000
 1623.5000000 26.128999710 9.5670003891 4.0000000000 24.000000000 3166.0000000 1.0000000000
 1623.6250000 25.379999161 9.4049997330 4.0000000000 24.000000000 3166.0000000 1.0000000000
 1623.7500000 21.833999634 9.2670001984 4.0000000000 24.000000000 3166.0000000 1.0000000000
 1623.8750000 18.287000656 9.1289997101 4.0000000000 24.000000000 3166.0000000 1.0000000000
 1624.0000000 17.065000534 9.0249996185 4.0000000000 24.000000000 3166.0000000 1.0000000000
 1624.1250000 16.343999863 8.9020004272 4.0000000000 24.000000000 3166.0000000 1.0000000000
 1624.2500000 15.935000420 8.8020000458 4.0000000000 24.000000000 3166.0000000 1.0000000000
 1624.3750000 15.833999634 8.6809997559 4.0000000000 24.000000000 3166.0000000 1.0000000000
 1624.5000000 15.755999565 8.5810003281 4.0000000000 24.000000000 3166.0000000 1.0000000000
 1624.6250000 16.222999573 8.4610004425 4.0000000000 24.000000000 3166.0000000 1.0000000000
 1624.7500000 17.742000580 8.3610000610 4.0000000000 24.000000000 3166.0000000 1.0000000000
 1624.8750000 21.927000046 8.3140001297 4.0000000000 24.000000000 3166.0000000 1.0000000000
 1625.0000000 24.038999557 8.2360000610 4.0000000000 24.000000000 3166.0000000 1.0000000000
 1625.1250000 25.287000656 8.1999998093 4.0000000000 24.000000000 3166.0000000 1.0000000000
 1625.2500000 26.129999161 8.1400003433 4.0000000000 24.000000000 3166.0000000 1.0000000000
 1625.3750000 26.982999802 8.0790004730 4.0000000000 24.000000000 3166.0000000 1.0000000000
 1625.5000000 27.854000092 8.0120000839 4.0000000000 24.000000000 3166.0000000 1.0000000000
 1625.6250000 29.430000305 7.9790000916 4.0000000000 24.000000000 3166.0000000 1.0000000000
 1625.7500000 27.725000381 8.2069997787 4.0000000000 24.000000000 3166.0000000 1.0000000000
 1625.8750000 22.778999329 8.5659999847 4.0000000000 24.000000000 3166.0000000 1.0000000000
 1626.0000000 22.201000214 8.9069995880 3.0000000000 14.000000000 189.00000000 1.0000000000
 1626.1250000 21.805000305 9.2480001450 3.0000000000 14.000000000 189.00000000 1.0000000000
 1626.2500000 21.767000198 9.5419998169 3.0000000000 14.000000000 189.00000000 1.0000000000
 1626.3750000 22.058000565 9.8249998093 3.0000000000 14.000000000 189.00000000 1.0000000000
 1626.5000000 22.399999619 10.107000351 3.0000000000 14.000000000 189.00000000 1.0000000000
 1626.6250000 23.045000076 10.319999695 3.0000000000 14.000000000 189.00000000 1.0000000000
 1626.7500000 24.045000076 10.571999550 3.0000000000 14.000000000 189.00000000 1.0000000000
 1626.8750000 24.589000702 11.031000137 3.0000000000 14.000000000 189.00000000 1.0000000000
 1627.0000000 24.670000076 11.340000153 3.0000000000 14.000000000 189.00000000 1.0000000000
 1627.1250000 24.436000824 11.817999840 3.0000000000 14.000000000 189.00000000 1.0000000000
 1627.2500000 23.929000854 12.253999710 3.0000000000 14.000000000 189.00000000 1.0000000000
 1627.3750000 23.354000092 12.961000443 3.0000000000 14.000000000 189.00000000 1.0000000000
 1627.5000000 22.958999634 13.574999809 3.0000000000 14.000000000 189.00000000 1.0000000000
 1627.6250000 22.562999725 14.309000015 3.0000000000 14.000000000 189.00000000 1.0000000000
 1627.7500000 22.089000702 15.111000061 3.0000000000 14.000000000 189.00000000 1.0000000000
 1627.8750000 21.582000732 16.045999527 3.0000000000 14.000000000 189.00000000 1.0000000000
 1628.0000000 19.117000580 16.642999649 3.0000000000 14.000000000 189.00000000 1.0000000000
 1628.1250000 17.402000427 17.239999771 3.0000000000 14.000000000 189.00000000 1.0000000000
 1628.2500000 16.416000366 17.495000839 3.0000000000 14.000000000 189.00000000 1.0000000000
 1628.3750000 15.069999695 17.750000000 3.0000000000 14.000000000 189.00000000 1.0000000000
 1628.5000000 14.192000389 18.093999863 3.0000000000 14.000000000 189.00000000 1.0000000000
 1628.6250000 13.557999611 18.343000412 3.0000000000 14.000000000 189.00000000 1.0000000000
 1628.7500000 13.565999985 18.607999802 3.0000000000 14.000000000 189.00000000 1.0000000000
 1628.8750000 13.656000137 18.882999420 3.0000000000 14.000000000 189.00000000 1.0000000000
 1629.0000000 13.776000023 19.225000381 3.0000000000 14.000000000 189.00000000 1.0000000000
 1629.1250000 13.963000298 19.474000931  -999.250000 0.1000000015 0.1000000015 0.0000000000
 1629.2500000 14.163000107 19.742000580  -999.250000 0.1000000015 0.1000000015 0.0000000000
 1629.3750000 14.647000313 20.009000778  -999.250000 0.1000000015 0.1000000015 0.0000000000
 1629.5000000 15.255000114 20.353000641 4.0000000000 22.000000000 3808.0000000 1.0000000000
 1629.6250000 16.059999466 20.604000092 4.0000000000 22.000000000 3808.0000000 1.0000000000
 1629.7500000 16.340999603 20.854000092 4.0000000000 22.000000000 3808.0000000 1.0000000000
 1629.8750000 16.438999176 21.136999130 4.0000000000 22.000000000 3808.0000000 1.0000000000
 1630.0000000 15.921999931 21.306999207 4.0000000000 22.000000000 3808.0000000 1.0000000000
 1630.1250000 15.402999878 21.476999283 4.0000000000 22.000000000 3808.0000000 1.0000000000
 1630.2500000 14.836999893 21.646999359 4.0000000000 22.000000000 3808.0000000 1.0000000000
 1630.3750000 14.368000031 21.788999557 4.0000000000 22.000000000 3808.0000000 1.0000000000
 1630.5000000 9.2950000763 21.837999344 4.0000000000 22.000000000 3808.0000000 1.0000000000
 1630.6250000 7.8860001564 21.805000305 4.0000000000 22.000000000 3808.0000000 1.0000000000
 1630.7500000 7.6259999275 21.770999908 4.0000000000 22.000000000 3808.0000000 1.0000000000
 1630.8750000 7.6960000992 21.635999680 4.0000000000 22.000000000 3808.0000000 1.0000000000
 1631.0000000 10.715000153 21.347999573  -999.250000 0.1000000015 0.1000000015 0.0000000000
 1631.1250000 12.137999535 20.981000900  -999.250000 0.1000000015 0.1000000015 0.0000000000
 1631.2500000 12.812000275 20.613000870  -999.250000 0.1000000015 0.1000000015 0.0000000000
 1631.3750000 12.434000015 19.881000519  -999.250000 0.1000000015 0.1000000015 0.0000000000
 1631.5000000 12.090000153 19.180999756  -999.250000 0.1000000015 0.1000000015 0.0000000000
 1631.6250000 11.737999916 18.555000305  -999.250000 0.1000000015 0.1000000015 0.0000000000
 1631.7500000 11.350000381 18.037000656  -999.250000 0.1000000015 0.1000000015 0.0000000000
 1631.8750000 11.032999992 17.804000854  -999.250000 0.1000000015 0.1000000015 0.0000000000
 1632.0000000 10.663999557 17.618999481  -999.250000 0.1000000015 0.1000000015 0.0000000000
 1632.1250000 8.5299997330 17.777000427  -999.250000 0.1000000015 0.1000000015 0.0000000000
 1632.2500000 7.2020001411 17.832000732  -999.250000 0.1000000015 0.1000000015 0.0000000000
 1632.3750000 6.7220001221 17.846000671 4.0000000000 19.000000000 1728.0000000 1.0000000000
 1632.5000000 6.6519999504 17.847000122 4.0000000000 19.000000000 1728.0000000 1.0000000000
 1632.6250000 15.980999947 17.849000931 4.0000000000 19.000000000 1728.0000000 1.0000000000
