# LAS format log file from PETREL
# Project units are specified as depth units
#==================================================================
~Version information
VERS.   2.0:
WRAP.   NO:
#==================================================================
~Well
STRT .m      730.00000000 :
STOP .m      1729.5000000 :
STEP .m     0.12500000 :
NULL .        -999.250000 :
COMP.           : COMPANY
WELL.  5-0163   : WELL
FLD.            : FIELD
LOC.            : LOCATION
SRVC.           : SERVICE COMPANY
DATE.  2020-03-08 09:25:09   : Log Export Date {yyyy-MM-dd HH:mm:ss}
PROV.           : PROVINCE
UWI.      : UNIQUE WELL ID
API.            : API NUMBER
#==================================================================
~Curve
DEPT .m                   : DEPTH
RT .ohm.m                 : RT
SP .                      : SP
Fluids .                  : Fluids
POR .m3/m3                : POR
PERM .mD                  : PERM
Lith .                    : Lith
~Parameter
#==================================================================
~Ascii
# ...
 1632.6250000 14.407699585 -9999.000000 2.0000000000 16.000000000 192.00000000 1.0000000000
 1632.7500000 14.499500275 -9999.000000 2.0000000000 16.000000000 192.00000000 1.0000000000
 1632.8750000 14.591199875 -9999.000000 2.0000000000 16.000000000 192.00000000 1.0000000000
 1633.0000000 14.682999611 -9999.000000 2.0000000000 16.000000000 192.00000000 1.0000000000
 1633.1250000 15.475700378 -9999.000000 2.0000000000 16.000000000 192.00000000 1.0000000000
 1633.2500000 16.268499374 -9999.000000 2.0000000000 16.000000000 192.00000000 1.0000000000
 1633.3750000 17.061199188 -9999.000000 2.0000000000 16.000000000 192.00000000 1.0000000000
 1633.5000000 17.854000092 -9999.000000 2.0000000000 16.000000000 192.00000000 1.0000000000
 1633.6250000 16.519300461 -9999.000000 2.0000000000 16.000000000 192.00000000 1.0000000000
 1633.7500000 15.184499741 -9999.000000 2.0000000000 16.000000000 192.00000000 1.0000000000
 1633.8750000 13.849800110 -9999.000000 2.0000000000 16.000000000 192.00000000 1.0000000000
 1634.0000000 12.515000343 -9999.000000 2.0000000000 16.000000000 192.00000000 1.0000000000
 1634.1250000 12.477800369 -9999.000000 2.0000000000 16.000000000 192.00000000 1.0000000000
 1634.2500000 12.440500259 -9999.000000 2.0000000000 16.000000000 192.00000000 1.0000000000
 1634.3750000 12.403300285 -9999.000000 2.0000000000 16.000000000 192.00000000 1.0000000000
 1634.5000000 12.366000175 -9999.000000 2.0000000000 16.000000000 192.00000000 1.0000000000
 1634.6250000 11.785799980 -9999.000000 2.0000000000 16.000000000 192.00000000 1.0000000000
 1634.7500000 11.205499649 -9999.000000 2.0000000000 16.000000000 192.00000000 1.0000000000
 1634.8750000 10.625300407 -9999.000000 2.0000000000 16.000000000 192.00000000 1.0000000000
 1635.0000000 10.045000076 -9999.000000 2.0000000000 16.000000000 192.00000000 1.0000000000
 1635.1250000 10.972700119 -9999.000000 2.0000000000 16.000000000 192.00000000 1.0000000000
 1635.2500000 11.900500298 -9999.000000 2.0000000000 16.000000000 192.00000000 1.0000000000
 1635.3750000 12.828200340 -9999.000000 2.0000000000 16.000000000 192.00000000 1.0000000000
 1635.5000000 13.755999565 -9999.000000 2.0000000000 16.000000000 192.00000000 1.0000000000
 1635.6250000 14.507499695 -9999.000000 2.0000000000 16.000000000 192.00000000 1.0000000000
 1635.7500000 15.258999825 -9999.000000 2.0000000000 16.000000000 192.00000000 1.0000000000
 1635.8750000 16.010499954 -9999.000000 2.0000000000 16.000000000 192.00000000 1.0000000000
 1636.0000000 16.761999130 -9999.000000 2.0000000000 16.000000000 192.00000000 1.0000000000
 1636.1250000 17.596700668 -9999.000000 2.0000000000 16.000000000 192.00000000 1.0000000000
 1636.2500000 18.431499481 -9999.000000 2.0000000000 16.000000000 192.00000000 1.0000000000
 1636.3750000 19.266199112 -9999.000000 2.0000000000 16.000000000 192.00000000 1.0000000000
 1636.5000000 20.100999832 -9999.000000 2.0000000000 16.000000000 192.00000000 1.0000000000
 1636.6250000 21.676700592 -9999.000000 2.0000000000 16.000000000 192.00000000 1.0000000000
 1636.7500000 23.252500534 -9999.000000 2.0000000000 16.000000000 192.00000000 1.0000000000
 1636.8750000 24.828199387 -9999.000000 2.0000000000 16.000000000 192.00000000 1.0000000000
 1637.0000000 26.403999329 -9999.000000 2.0000000000 16.000000000 192.00000000 1.0000000000
 1637.1250000 26.267700195 -9999.000000 2.0000000000 16.000000000 192.00000000 1.0000000000
 1637.2500000 26.131500244 -9999.000000 2.0000000000 16.000000000 192.00000000 1.0000000000
 1637.3750000 25.995199203 -9999.000000 2.0000000000 16.000000000 192.00000000 1.0000000000
 1637.5000000 25.858999252 -9999.000000 2.0000000000 16.000000000 192.00000000 1.0000000000
 1637.6250000 25.905700684 -9999.000000 2.0000000000 16.000000000 192.00000000 1.0000000000
 1637.7500000 25.952499390 -9999.000000 2.0000000000 16.000000000 192.00000000 1.0000000000
 1637.8750000 25.999200821 -9999.000000 2.0000000000 16.000000000 192.00000000 1.0000000000
 1638.0000000 26.045999527 -9999.000000 2.0000000000 16.000000000 192.00000000 1.0000000000
 1638.1250000 26.450700760 -9999.000000 2.0000000000 16.000000000 192.00000000 1.0000000000
 1638.2500000 26.855499268 -9999.000000 2.0000000000 16.000000000 192.00000000 1.0000000000
 1638.3750000 27.260299683 -9999.000000 2.0000000000 16.000000000 192.00000000 1.0000000000
 1638.5000000 27.665000916 -9999.000000 2.0000000000 16.000000000 192.00000000 1.0000000000
 1638.6250000 27.109300613 -9999.000000 2.0000000000 16.000000000 192.00000000 1.0000000000
 1638.7500000 26.553499222 -9999.000000 2.0000000000 16.000000000 192.00000000 1.0000000000
 1638.8750000 25.997699738 -9999.000000 2.0000000000 16.000000000 192.00000000 1.0000000000
 1639.0000000 25.441999435 -9999.000000 2.0000000000 16.000000000 192.00000000 1.0000000000
 1639.1250000 24.226499557 -9999.000000 2.0000000000 16.000000000 192.00000000 1.0000000000
 1639.2500000 23.010999680 -9999.000000 2.0000000000 16.000000000 192.00000000 1.0000000000
 1639.3750000 21.795499802 -9999.000000 2.0000000000 16.000000000 192.00000000 1.0000000000
 1639.5000000 20.579999924 -9999.000000 2.0000000000 16.000000000 192.00000000 1.0000000000
 1639.6250000 19.441499710 -9999.000000 2.0000000000 16.000000000 192.00000000 1.0000000000
 1639.7500000 18.302999496 -9999.000000 2.0000000000 16.000000000 192.00000000 1.0000000000
 1639.8750000 17.164499283 -9999.000000 2.0000000000 16.000000000 192.00000000 1.0000000000
 1640.0000000 16.025999069 -9999.000000 2.0000000000 16.000000000 192.00000000 1.0000000000
 1640.1250000 16.741500854 -9999.000000 2.0000000000 16.000000000 192.00000000 1.0000000000
 1640.2500000 17.457000732 -9999.000000 2.0000000000 16.000000000 192.00000000 1.0000000000
 1640.3750000 18.172500610 -9999.000000 2.0000000000 16.000000000 192.00000000 1.0000000000
 1640.5000000 18.888000488 -9999.000000 2.0000000000 16.000000000 192.00000000 1.0000000000
 1640.6250000 17.639299393 -9999.000000 2.0000000000 16.000000000 192.00000000 1.0000000000
 1640.7500000 16.390499115 -9999.000000 2.0000000000 16.000000000 192.00000000 1.0000000000
 1640.8750000 15.141699791 -9999.000000 2.0000000000 16.000000000 192.00000000 1.0000000000
 1641.0000000 13.892999649 -9999.000000 2.0000000000 16.000000000 192.00000000 1.0000000000
 1641.1250000 14.262499809 -9999.000000 2.0000000000 16.000000000 192.00000000 1.0000000000
 1641.2500000 14.631999969 -9999.000000 2.0000000000 16.000000000 192.00000000 1.0000000000
 1641.3750000 15.001500130 -9999.000000 2.0000000000 16.000000000 192.00000000 1.0000000000
 1641.5000000 15.371000290 -9999.000000 2.0000000000 16.000000000 192.00000000 1.0000000000
 1641.6250000 15.319499969 -9999.000000 2.0000000000 16.000000000 192.00000000 1.0000000000
 1641.7500000 15.267999649 -9999.000000 2.0000000000 16.000000000 192.00000000 1.0000000000
 1641.8750000 15.216500282 -9999.000000 2.0000000000 16.000000000 192.00000000 1.0000000000
 1642.0000000 15.164999962 -9999.000000 2.0000000000 16.000000000 192.00000000 1.0000000000
 1642.1250000 16.253799438 -9999.000000 2.0000000000 16.000000000 192.00000000 1.0000000000
 1642.2500000 17.342500687 -9999.000000 2.0000000000 16.000000000 192.00000000 1.0000000000
 1642.3750000 18.431299210 -9999.000000 2.0000000000 16.000000000 192.00000000 1.0000000000
 1642.5000000 19.520000458 -9999.000000 2.0000000000 16.000000000 192.00000000 1.0000000000
 1642.6250000 17.956499100 -9999.000000 2.0000000000 16.000000000 192.00000000 1.0000000000
 1642.7500000 16.392999649 -9999.000000 2.0000000000 16.000000000 192.00000000 1.0000000000
 1642.8750000 14.829500198 -9999.000000 2.0000000000 16.000000000 192.00000000 1.0000000000
 1643.0000000 13.265999794 -9999.000000 2.0000000000 16.000000000 192.00000000 1.0000000000
 1643.1250000 12.916000366 -9999.000000 2.0000000000 16.000000000 192.00000000 1.0000000000
 1643.2500000 12.565999985 -9999.000000 2.0000000000 16.000000000 192.00000000 1.0000000000
 1643.3750000 12.215999603 -9999.000000 2.0000000000 16.000000000 192.00000000 1.0000000000
