# LAS format log file from PETREL
# Project units are specified as depth units
#==================================================================
~Version information
VERS.   2.0:
WRAP.   NO:
#==================================================================
~Well
STRT .m      1420.0000000 :
STOP .m      1734.8750000 :
STEP .m     0.12500000 :
NULL .        -999.250000 :
COMP.           : COMPANY
WELL.  5-0161C   : WELL
FLD.            : FIELD
LOC.            : LOCATION
SRVC.           : SERVICE COMPANY
DATE.  2020-03-08 09:25:09   : Log Export Date {yyyy-MM-dd HH:mm:ss}
PROV.           : PROVINCE
UWI.      : UNIQUE WELL ID
API.            : API NUMBER
#==================================================================
~Curve
DEPT .m                   : DEPTH
RT .ohm.m                 : RT
SP .                      : SP
Fluids .                  : Fluids
POR .m3/m3                : POR
PERM .mD                  : PERM
Lith .                    : Lith
~Parameter
#==================================================================
~Ascii
# ...
 1572.2500000 7.7529997826 -55.39899826  -999.250000 0.1000000015 0.1000000015 0.0000000000
 1572.3750000 7.6539998055 -56.22900009  -999.250000 0.1000000015 0.1000000015 0.0000000000
 1572.5000000 7.5859999657 -57.82600021 4.0000000000 21.000000000 2883.0000000 1.0000000000
 1572.6250000 7.5910000801 -60.34899902 4.0000000000 21.000000000 2883.0000000 1.0000000000
 1572.7500000 7.7779998779 -63.18600082 4.0000000000 21.000000000 2883.0000000 1.0000000000
 1572.8750000 8.1110000610 -65.51899719 4.0000000000 21.000000000 2883.0000000 1.0000000000
 1573.0000000 8.2270002365 -67.00900269 4.0000000000 21.000000000 2883.0000000 1.0000000000
 1573.1250000 8.1429996490 -67.76399994 4.0000000000 21.000000000 2883.0000000 1.0000000000
 1573.2500000 7.8159999847 -67.94599915 4.0000000000 21.000000000 2883.0000000 1.0000000000
 1573.3750000 7.4819998741 -67.63700104 4.0000000000 21.000000000 2883.0000000 1.0000000000
 1573.5000000 7.6079998016 -67.13099670 4.0000000000 21.000000000 2883.0000000 1.0000000000
 1573.6250000 8.3920001984 -66.68299866 4.0000000000 21.000000000 2883.0000000 1.0000000000
 1573.7500000 9.6770000458 -66.37300110 4.0000000000 21.000000000 2883.0000000 1.0000000000
 1573.8750000 11.944000244 -66.21199799 4.0000000000 21.000000000 2883.0000000 1.0000000000
 1574.0000000 14.744999886 -66.19400024 4.0000000000 21.000000000 2883.0000000 1.0000000000
 1574.1250000 18.069000244 -66.28199768 4.0000000000 21.000000000 2883.0000000 1.0000000000
 1574.2500000 22.556999207 -66.29599762 4.0000000000 21.000000000 2883.0000000 1.0000000000
 1574.3750000 25.632999420 -66.08000183 4.0000000000 21.000000000 2883.0000000 1.0000000000
 1574.5000000 26.877000809 -65.69499969 4.0000000000 21.000000000 2883.0000000 1.0000000000
 1574.6250000 26.639999390 -65.37999725 4.0000000000 21.000000000 2883.0000000 1.0000000000
 1574.7500000 25.121999741 -65.34600067 4.0000000000 21.000000000 2883.0000000 1.0000000000
 1574.8750000 22.957000732 -65.61599731 4.0000000000 21.000000000 2883.0000000 1.0000000000
 1575.0000000 21.541000366 -65.98000336 4.0000000000 21.000000000 2883.0000000 1.0000000000
 1575.1250000 20.766000748 -66.14499664 4.0000000000 21.000000000 2883.0000000 1.0000000000
 1575.2500000 20.385000229 -66.02999878 4.0000000000 21.000000000 2883.0000000 1.0000000000
 1575.3750000 20.145999908 -65.73100281 4.0000000000 21.000000000 2883.0000000 1.0000000000
 1575.5000000 19.027000427 -65.44499969 4.0000000000 21.000000000 2883.0000000 1.0000000000
 1575.6250000 17.684999466 -65.18099976 4.0000000000 21.000000000 2883.0000000 1.0000000000
 1575.7500000 16.073999405 -64.87100220 4.0000000000 21.000000000 2883.0000000 1.0000000000
 1575.8750000 14.513999939 -64.50800323 4.0000000000 21.000000000 2883.0000000 1.0000000000
 1576.0000000 13.347999573 -64.19699860 4.0000000000 21.000000000 2883.0000000 1.0000000000
 1576.1250000 12.156000137 -64.11199951 4.0000000000 21.000000000 2883.0000000 1.0000000000
 1576.2500000 11.095999718 -64.24700165 4.0000000000 21.000000000 2883.0000000 1.0000000000
 1576.3750000 9.8380002975 -64.42900085 4.0000000000 21.000000000 2883.0000000 1.0000000000
 1576.5000000 9.7239999771 -64.51499939 4.0000000000 21.000000000 2883.0000000 1.0000000000
 1576.6250000 10.906000137 -64.51399994 4.0000000000 21.000000000 2883.0000000 1.0000000000
 1576.7500000 12.154999733 -64.44200134 4.0000000000 21.000000000 2883.0000000 1.0000000000
 1576.8750000 13.574999809 -64.19100189 4.0000000000 21.000000000 2883.0000000 1.0000000000
 1577.0000000 14.786000252 -63.67399979 4.0000000000 21.000000000 2883.0000000 1.0000000000
 1577.1250000 15.151000023 -62.96900177  -999.250000 0.1000000015 0.1000000015 0.0000000000
 1577.2500000 14.928000450 -62.31100082  -999.250000 0.1000000015 0.1000000015 0.0000000000
 1577.3750000 14.468999863 -61.81600189  -999.250000 0.1000000015 0.1000000015 0.0000000000
 1577.5000000 13.689999580 -61.36100006  -999.250000 0.1000000015 0.1000000015 0.0000000000
 1577.6250000 13.079999924 -60.76900101  -999.250000 0.1000000015 0.1000000015 0.0000000000
 1577.7500000 12.927000046 -60.12099838 4.0000000000 21.000000000 2019.0000000 1.0000000000
 1577.8750000 13.338000298 -59.89899826 4.0000000000 21.000000000 2019.0000000 1.0000000000
 1578.0000000 14.055999756 -60.33000183 4.0000000000 21.000000000 2019.0000000 1.0000000000
 1578.1250000 14.510999680 -61.28099823 4.0000000000 21.000000000 2019.0000000 1.0000000000
 1578.2500000 14.619000435 -62.32300186 4.0000000000 21.000000000 2019.0000000 1.0000000000
 1578.3750000 14.592000008 -63.15000153 4.0000000000 21.000000000 2019.0000000 1.0000000000
 1578.5000000 14.347000122 -63.58700180 4.0000000000 21.000000000 2019.0000000 1.0000000000
 1578.6250000 13.682000160 -63.74000168 4.0000000000 21.000000000 2019.0000000 1.0000000000
 1578.7500000 12.711000443 -63.81200027 4.0000000000 21.000000000 2019.0000000 1.0000000000
 1578.8750000 11.859000206 -63.87699890 4.0000000000 21.000000000 2019.0000000 1.0000000000
 1579.0000000 11.218999863 -63.86600113 4.0000000000 21.000000000 2019.0000000 1.0000000000
 1579.1250000 11.130000114 -63.84700012 4.0000000000 21.000000000 2019.0000000 1.0000000000
 1579.2500000 11.630000114 -64.11599731 4.0000000000 21.000000000 2019.0000000 1.0000000000
 1579.3750000 12.420000076 -64.65899658 4.0000000000 21.000000000 2019.0000000 1.0000000000
 1579.5000000 12.854000092 -65.13700104 4.0000000000 21.000000000 2019.0000000 1.0000000000
 1579.6250000 13.015000343 -65.15299988 4.0000000000 21.000000000 2019.0000000 1.0000000000
 1579.7500000 12.986000061 -64.63800049 4.0000000000 21.000000000 2019.0000000 1.0000000000
 1579.8750000 12.864999771 -63.86899948 4.0000000000 21.000000000 2019.0000000 1.0000000000
 1580.0000000 12.847000122 -63.14300156 4.0000000000 21.000000000 2019.0000000 1.0000000000
 1580.1250000 12.968000412 -62.57099915 4.0000000000 21.000000000 2019.0000000 1.0000000000
 1580.2500000 13.369999886 -62.13999939 4.0000000000 21.000000000 2019.0000000 1.0000000000
 1580.3750000 14.055000305 -61.76200104 4.0000000000 21.000000000 2019.0000000 1.0000000000
 1580.5000000 14.680000305 -61.50199890 4.0000000000 21.000000000 2019.0000000 1.0000000000
 1580.6250000 15.048999786 -61.55099869 4.0000000000 21.000000000 2019.0000000 1.0000000000
 1580.7500000 15.326000214 -62.13199997 4.0000000000 21.000000000 2019.0000000 1.0000000000
 1580.8750000 15.786000252 -63.13800049 4.0000000000 21.000000000 2019.0000000 1.0000000000
 1581.0000000 16.336000443 -64.15499878 4.0000000000 21.000000000 2019.0000000 1.0000000000
 1581.1250000 16.836999893 -64.79799652 4.0000000000 21.000000000 2019.0000000 1.0000000000
 1581.2500000 16.990999222 -65.00700378 4.0000000000 21.000000000 2019.0000000 1.0000000000
 1581.3750000 16.878999710 -64.98300171 4.0000000000 21.000000000 2019.0000000 1.0000000000
 1581.5000000 16.961999893 -64.93499756 4.0000000000 21.000000000 2019.0000000 1.0000000000
 1581.6250000 17.327999115 -65.02400208 4.0000000000 21.000000000 2019.0000000 1.0000000000
 1581.7500000 18.215000153 -65.21900177 4.0000000000 21.000000000 2019.0000000 1.0000000000
 1581.8750000 19.389999390 -65.39900208 4.0000000000 21.000000000 2019.0000000 1.0000000000
 1582.0000000 20.181999207 -65.44999695 4.0000000000 21.000000000 2019.0000000 1.0000000000
 1582.1250000 20.563999176 -65.32700348 4.0000000000 21.000000000 2019.0000000 1.0000000000
 1582.2500000 20.725999832 -65.08399963 4.0000000000 21.000000000 2019.0000000 1.0000000000
 1582.3750000 20.555000305 -64.77100372 4.0000000000 21.000000000 2019.0000000 1.0000000000
 1582.5000000 20.184000015 -64.44899750 4.0000000000 21.000000000 2019.0000000 1.0000000000
 1582.6250000 20.226999283 -64.08000183 4.0000000000 21.000000000 2019.0000000 1.0000000000
 1582.7500000 20.743000031 -63.60499954 4.0000000000 21.000000000 2019.0000000 1.0000000000
 1582.8750000 21.329000473 -63.06000137 4.0000000000 21.000000000 2019.0000000 1.0000000000
 1583.0000000 21.712999344 -62.62099838 4.0000000000 21.000000000 2019.0000000 1.0000000000
