# LAS format log file from PETREL
# Project units are specified as depth units
#==================================================================
~Version information
VERS.   2.0:
WRAP.   NO:
#==================================================================
~Well
STRT .m      1450.0000000 :
STOP .m      1760.0000000 :
STEP .m     0.12500000 :
NULL .        -999.250000 :
COMP.           : COMPANY
WELL.  5-0172C   : WELL
FLD.            : FIELD
LOC.            : LOCATION
SRVC.           : SERVICE COMPANY
DATE.  2020-03-08 09:25:09   : Log Export Date {yyyy-MM-dd HH:mm:ss}
PROV.           : PROVINCE
UWI.      : UNIQUE WELL ID
API.            : API NUMBER
#==================================================================
~Curve
DEPT .m                   : DEPTH
RT .ohm.m                 : RT
SP .                      : SP
Fluids .                  : Fluids
POR .m3/m3                : POR
PERM .mD                  : PERM
Lith .                    : Lith
~Parameter
#==================================================================
~Ascii
# ...
 1580.5000000 2.5109999180 18.128999710 4.0000000000 27.000000000 7378.0000000 1.0000000000
 1580.6250000 2.5090000629 17.555000305 4.0000000000 27.000000000 7378.0000000 1.0000000000
 1580.7500000 2.5450000763 16.979000092 4.0000000000 27.000000000 7378.0000000 1.0000000000
 1580.8750000 2.5510001183 16.402999878 4.0000000000 27.000000000 7378.0000000 1.0000000000
 1581.0000000 2.5510001183 15.779000282 4.0000000000 27.000000000 7378.0000000 1.0000000000
 1581.1250000 2.5820000172 15.154000282 4.0000000000 27.000000000 7378.0000000 1.0000000000
 1581.2500000 2.6659998894 14.315999985 4.0000000000 27.000000000 7378.0000000 1.0000000000
 1581.3750000 2.7780001163 13.524999619 4.0000000000 27.000000000 7378.0000000 1.0000000000
 1581.5000000 2.8940000534 12.892000198 4.0000000000 27.000000000 7378.0000000 1.0000000000
 1581.6250000 3.0130000114 12.442000389 4.0000000000 27.000000000 7378.0000000 1.0000000000
 1581.7500000 3.0859999657 12.152999878 4.0000000000 27.000000000 7378.0000000 1.0000000000
 1581.8750000 3.2269999981 11.847999573 4.0000000000 27.000000000 7378.0000000 1.0000000000
 1582.0000000 3.3680000305 11.630999565 4.0000000000 27.000000000 7378.0000000 1.0000000000
 1582.1250000 3.5109999180 11.399000168 4.0000000000 27.000000000 7378.0000000 1.0000000000
 1582.2500000 3.6549999714 11.175000191 4.0000000000 27.000000000 7378.0000000 1.0000000000
 1582.3750000 3.8259999752 10.951999664 4.0000000000 27.000000000 7378.0000000 1.0000000000
 1582.5000000 3.9700000286 10.760000229 4.0000000000 27.000000000 7378.0000000 1.0000000000
 1582.6250000 4.1149997711 10.567999840 4.0000000000 27.000000000 7378.0000000 1.0000000000
 1582.7500000 4.3720002174 10.331000328 4.0000000000 27.000000000 7378.0000000 1.0000000000
 1582.8750000 4.7329998016 10.145000458 4.0000000000 27.000000000 7378.0000000 1.0000000000
 1583.0000000 5.0390000343 9.9720001221 4.0000000000 27.000000000 7378.0000000 1.0000000000
 1583.1250000 5.3660001755 9.8079996109 4.0000000000 27.000000000 7378.0000000 1.0000000000
 1583.2500000 5.7049999237 9.6859998703 4.0000000000 27.000000000 7378.0000000 1.0000000000
 1583.3750000 6.2329998016 9.6230001450 4.0000000000 27.000000000 7378.0000000 1.0000000000
 1583.5000000 16.591999054 9.5600004196 4.0000000000 27.000000000 7378.0000000 1.0000000000
 1583.6250000 22.281999588 9.3719997406 4.0000000000 27.000000000 7378.0000000 1.0000000000
 1583.7500000 25.429000854 9.2049999237 4.0000000000 27.000000000 7378.0000000 1.0000000000
 1583.8750000 27.292999268 9.0729999542 4.0000000000 27.000000000 7378.0000000 1.0000000000
 1584.0000000 28.243000031 8.9409999847 4.0000000000 27.000000000 7378.0000000 1.0000000000
 1584.1250000 29.193000793 8.8310003281 4.0000000000 27.000000000 7378.0000000 1.0000000000
 1584.2500000 30.238000870 8.7239999771 4.0000000000 27.000000000 7378.0000000 1.0000000000
 1584.3750000 31.191999435 8.6520004272 4.0000000000 27.000000000 7378.0000000 1.0000000000
 1584.5000000 32.169998169 8.5909996033 4.0000000000 27.000000000 7378.0000000 1.0000000000
 1584.6250000 33.185001373 8.5299997330 4.0000000000 27.000000000 7378.0000000 1.0000000000
 1584.7500000 34.215999603 8.4750003815 4.0000000000 27.000000000 7378.0000000 1.0000000000
 1584.8750000 34.993999481 8.4209995270 4.0000000000 27.000000000 7378.0000000 1.0000000000
 1585.0000000 35.678001404 8.3999996185 4.0000000000 27.000000000 7378.0000000 1.0000000000
 1585.1250000 36.287998199 8.3940000534 4.0000000000 27.000000000 7378.0000000 1.0000000000
 1585.2500000 37.138999939 8.3909997940 4.0000000000 27.000000000 7378.0000000 1.0000000000
 1585.3750000 38.131999969 8.4289999008 4.0000000000 27.000000000 7378.0000000 1.0000000000
 1585.5000000 38.695999146 8.4739999771 4.0000000000 27.000000000 7378.0000000 1.0000000000
 1585.6250000 39.137001038 8.5329999924 4.0000000000 27.000000000 7378.0000000 1.0000000000
 1585.7500000 39.144001007 8.6190004349 4.0000000000 27.000000000 7378.0000000 1.0000000000
 1585.8750000 39.039001465 8.7370004654 4.0000000000 27.000000000 7378.0000000 1.0000000000
 1586.0000000 38.793998718 8.8719997406 4.0000000000 27.000000000 7378.0000000 1.0000000000
 1586.1250000 38.484001160 8.9790000916 4.0000000000 27.000000000 7378.0000000 1.0000000000
 1586.2500000 37.398998260 9.1079998016 4.0000000000 27.000000000 7378.0000000 1.0000000000
 1586.3750000 35.277999878 9.2019996643 4.0000000000 27.000000000 7378.0000000 1.0000000000
 1586.5000000 33.527000427 9.2989997864 4.0000000000 27.000000000 7378.0000000 1.0000000000
 1586.6250000 24.777999878 9.4259996414 4.0000000000 27.000000000 7378.0000000 1.0000000000
 1586.7500000 24.207000732 9.5690002441 4.0000000000 27.000000000 7378.0000000 1.0000000000
 1586.8750000 23.611000061 9.7559995651 4.0000000000 27.000000000 7378.0000000 1.0000000000
 1587.0000000 23.056999207 10.012999535 4.0000000000 27.000000000 7378.0000000 1.0000000000
 1587.1250000 22.704000473 10.187000275 4.0000000000 27.000000000 7378.0000000 1.0000000000
 1587.2500000 21.507999420 10.336000443 4.0000000000 27.000000000 7378.0000000 1.0000000000
 1587.3750000 20.469999313 10.586000443 4.0000000000 27.000000000 7378.0000000 1.0000000000
 1587.5000000 19.208000183 10.928999901 4.0000000000 27.000000000 7378.0000000 1.0000000000
 1587.6250000 18.174999237 11.289999962 4.0000000000 27.000000000 7378.0000000 1.0000000000
 1587.7500000 17.219999313 11.515999794 4.0000000000 27.000000000 7378.0000000 1.0000000000
 1587.8750000 16.413999557 11.637999535 4.0000000000 27.000000000 7378.0000000 1.0000000000
 1588.0000000 15.760000229 11.652000427 4.0000000000 27.000000000 7378.0000000 1.0000000000
 1588.1250000 14.918000221 11.588999748 4.0000000000 27.000000000 7378.0000000 1.0000000000
 1588.2500000 13.840999603 11.477000237 4.0000000000 27.000000000 7378.0000000 1.0000000000
 1588.3750000 13.005000114 11.383999825 4.0000000000 27.000000000 7378.0000000 1.0000000000
 1588.5000000 12.357000351 11.241000175 4.0000000000 27.000000000 7378.0000000 1.0000000000
 1588.6250000 11.869999886 11.088999748 4.0000000000 27.000000000 7378.0000000 1.0000000000
 1588.7500000 11.355999947 10.932000160 4.0000000000 27.000000000 7378.0000000 1.0000000000
 1588.8750000 10.779999733 10.701000214 4.0000000000 27.000000000 7378.0000000 1.0000000000
 1589.0000000 10.475000381 10.506999969 4.0000000000 27.000000000 7378.0000000 1.0000000000
 1589.1250000 10.291000366 10.338000298 4.0000000000 27.000000000 7378.0000000 1.0000000000
 1589.2500000 10.192999840 10.131999969 4.0000000000 27.000000000 7378.0000000 1.0000000000
 1589.3750000 10.074000359 9.9060001373 4.0000000000 27.000000000 7378.0000000 1.0000000000
 1589.5000000 10.227999687 9.7290000916 4.0000000000 27.000000000 7378.0000000 1.0000000000
 1589.6250000 10.394000053 9.6180000305 4.0000000000 27.000000000 7378.0000000 1.0000000000
 1589.7500000 10.529999733 9.4130001068 4.0000000000 27.000000000 7378.0000000 1.0000000000
 1589.8750000 10.715000153 9.2530002594 4.0000000000 27.000000000 7378.0000000 1.0000000000
 1590.0000000 11.194999695 9.1269998550 4.0000000000 27.000000000 7378.0000000 1.0000000000
 1590.1250000 11.631999969 9.0229997635 4.0000000000 27.000000000 7378.0000000 1.0000000000
 1590.2500000 12.217000008 8.9329996109 4.0000000000 27.000000000 7378.0000000 1.0000000000
 1590.3750000 12.961000443 8.8680000305 4.0000000000 27.000000000 7378.0000000 1.0000000000
 1590.5000000 13.423000336 8.7950000763 4.0000000000 27.000000000 7378.0000000 1.0000000000
 1590.6250000 13.944999695 8.7659997940 4.0000000000 27.000000000 7378.0000000 1.0000000000
 1590.7500000 14.560999870 8.7559995651 4.0000000000 27.000000000 7378.0000000 1.0000000000
 1590.8750000 14.923000336 8.7530002594 4.0000000000 27.000000000 7378.0000000 1.0000000000
 1591.0000000 15.189999580 8.7500000000 4.0000000000 27.000000000 7378.0000000 1.0000000000
 1591.1250000 14.630999565 8.7469997406 4.0000000000 27.000000000 7378.0000000 1.0000000000
 1591.2500000 13.954999924 8.7840003967 4.0000000000 27.000000000 7378.0000000 1.0000000000
