# LAS format log file from PETREL
# Project units are specified as depth units
#==================================================================
~Version information
VERS.   2.0:
WRAP.   NO:
#==================================================================
~Well
STRT .m      1480.0000000 :
STOP .m      1820.0000000 :
STEP .m     0.12500000 :
NULL .        -999.250000 :
COMP.           : COMPANY
WELL.  5-0165   : WELL
FLD.            : FIELD
LOC.            : LOCATION
SRVC.           : SERVICE COMPANY
DATE.  2020-03-08 09:25:09   : Log Export Date {yyyy-MM-dd HH:mm:ss}
PROV.           : PROVINCE
UWI.      : UNIQUE WELL ID
API.            : API NUMBER
#==================================================================
~Curve
DEPT .m                   : DEPTH
RT .ohm.m                 : RT
SP .                      : SP
Fluids .                  : Fluids
POR .m3/m3                : POR
PERM .mD                  : PERM
Lith .                    : Lith
~Parameter
#==================================================================
~Ascii
# ...
 1599.6250000 6.5580000877 55.282001495 4.0000000000 28.000000000 6827.0000000 1.0000000000
 1599.7500000 6.1009998322 55.299999237 4.0000000000 28.000000000 6827.0000000 1.0000000000
 1599.8750000 5.5440001488 55.320999146 4.0000000000 28.000000000 6827.0000000 1.0000000000
 1600.0000000 5.0009999275 55.340000153 4.0000000000 28.000000000 6827.0000000 1.0000000000
 1600.1250000 4.0659999847 55.354000092 4.0000000000 28.000000000 6827.0000000 1.0000000000
 1600.2500000 3.9670000076 55.361999512 4.0000000000 28.000000000 6827.0000000 1.0000000000
 1600.3750000 4.4889998436 55.365001678 4.0000000000 28.000000000 6827.0000000 1.0000000000
 1600.5000000 4.7030000687 55.366001129 4.0000000000 28.000000000 6827.0000000 1.0000000000
 1600.6250000 4.7080001831 55.365001678 4.0000000000 28.000000000 6827.0000000 1.0000000000
 1600.7500000 4.8750000000 55.361999512 4.0000000000 28.000000000 6827.0000000 1.0000000000
 1600.8750000 4.2080001831 55.354000092 4.0000000000 28.000000000 6827.0000000 1.0000000000
 1601.0000000 3.9449999332 55.340000153 4.0000000000 28.000000000 6827.0000000 1.0000000000
 1601.1250000 4.0240001678 55.320999146 4.0000000000 28.000000000 6827.0000000 1.0000000000
 1601.2500000 4.6490001678 55.299999237 4.0000000000 28.000000000 6827.0000000 1.0000000000
 1601.3750000 5.0320000648 55.277999878 4.0000000000 28.000000000 6827.0000000 1.0000000000
 1601.5000000 5.2259998322 55.256000519 4.0000000000 28.000000000 6827.0000000 1.0000000000
 1601.6250000 5.2699999809 55.234001160 4.0000000000 28.000000000 6827.0000000 1.0000000000
 1601.7500000 4.9720001221 55.212001801 4.0000000000 28.000000000 6827.0000000 1.0000000000
 1601.8750000 4.6739997864 55.189998627 4.0000000000 28.000000000 6827.0000000 1.0000000000
 1602.0000000 4.2389998436 55.172000885 4.0000000000 28.000000000 6827.0000000 1.0000000000
 1602.1250000 3.8080000877 55.158000946 4.0000000000 28.000000000 6827.0000000 1.0000000000
 1602.2500000 3.6019999981 55.150001526 4.0000000000 28.000000000 6827.0000000 1.0000000000
 1602.3750000 3.5420000553 55.145999908 4.0000000000 28.000000000 6827.0000000 1.0000000000
 1602.5000000 3.5899999142 55.145999908 4.0000000000 28.000000000 6827.0000000 1.0000000000
 1602.6250000 3.9839999676 55.145999908 4.0000000000 28.000000000 6827.0000000 1.0000000000
 1602.7500000 4.2249999046 55.145999908 4.0000000000 28.000000000 6827.0000000 1.0000000000
 1602.8750000 3.9909999371 55.145999908 4.0000000000 28.000000000 6827.0000000 1.0000000000
 1603.0000000 3.8369998932 55.145999908 4.0000000000 28.000000000 6827.0000000 1.0000000000
 1603.1250000 3.9820001125 55.145999908 4.0000000000 28.000000000 6827.0000000 1.0000000000
 1603.2500000 4.2160000801 55.145999908 4.0000000000 28.000000000 6827.0000000 1.0000000000
 1603.3750000 4.0780000687 55.145999908 4.0000000000 28.000000000 6827.0000000 1.0000000000
 1603.5000000 4.3920001984 55.141998291 4.0000000000 28.000000000 6827.0000000 1.0000000000
 1603.6250000 4.7560000420 55.134998322 4.0000000000 28.000000000 6827.0000000 1.0000000000
 1603.7500000 4.7779998779 55.124000549 4.0000000000 28.000000000 6827.0000000 1.0000000000
 1603.8750000 4.8239998817 55.109001160 4.0000000000 28.000000000 6827.0000000 1.0000000000
 1604.0000000 4.8480000496 55.095001221 4.0000000000 28.000000000 6827.0000000 1.0000000000
 1604.1250000 4.2820000648 55.083999634 4.0000000000 28.000000000 6827.0000000 1.0000000000
 1604.2500000 3.5769999027 55.081001282 4.0000000000 28.000000000 6827.0000000 1.0000000000
 1604.3750000 3.4330000877 55.083999634 4.0000000000 28.000000000 6827.0000000 1.0000000000
 1604.5000000 3.5729999542 55.095001221 4.0000000000 28.000000000 6827.0000000 1.0000000000
 1604.6250000 3.7349998951 55.109001160 4.0000000000 28.000000000 6827.0000000 1.0000000000
 1604.7500000 3.6770000458 55.124000549 4.0000000000 28.000000000 6827.0000000 1.0000000000
 1604.8750000 3.3220000267 55.134998322 4.0000000000 28.000000000 6827.0000000 1.0000000000
 1605.0000000 3.0910000801 55.141998291 4.0000000000 28.000000000 6827.0000000 1.0000000000
 1605.1250000 3.0510001183 55.145999908 4.0000000000 28.000000000 6827.0000000 1.0000000000
 1605.2500000 3.0650000572 55.145999908 4.0000000000 28.000000000 6827.0000000 1.0000000000
 1605.3750000 3.7360000610 55.145999908 4.0000000000 28.000000000 6827.0000000 1.0000000000
 1605.5000000 4.2199997902 55.145999908 4.0000000000 28.000000000 6827.0000000 1.0000000000
 1605.6250000 4.7649998665 55.145999908 4.0000000000 28.000000000 6827.0000000 1.0000000000
 1605.7500000 4.9869999886 55.145999908 4.0000000000 28.000000000 6827.0000000 1.0000000000
 1605.8750000 5.2600002289 55.141998291 4.0000000000 28.000000000 6827.0000000 1.0000000000
 1606.0000000 5.4590001106 55.133998871 4.0000000000 28.000000000 6827.0000000 1.0000000000
 1606.1250000 5.3130002022 55.119998932 4.0000000000 28.000000000 6827.0000000 1.0000000000
 1606.2500000 3.8540000916 55.097999573 4.0000000000 28.000000000 6827.0000000 1.0000000000
 1606.3750000 3.3329999447 55.073001862 4.0000000000 28.000000000 6827.0000000 1.0000000000
 1606.5000000 2.6089999676 55.048000336  -999.250000 0.1000000015 0.1000000015 0.0000000000
 1606.6250000 2.3750000000 55.028999329  -999.250000 0.1000000015 0.1000000015 0.0000000000
 1606.7500000 2.2709999084 55.020000458  -999.250000 0.1000000015 0.1000000015 0.0000000000
 1606.8750000 2.7200000286 55.019001007 4.0000000000 22.000000000 3016.0000000 1.0000000000
 1607.0000000 3.2049999237 55.026000977 4.0000000000 22.000000000 3016.0000000 1.0000000000
 1607.1250000 3.6700000763 55.040000916 4.0000000000 22.000000000 3016.0000000 1.0000000000
 1607.2500000 4.1149997711 55.058998108 4.0000000000 22.000000000 3016.0000000 1.0000000000
 1607.3750000 4.6630001068 55.081001282 4.0000000000 22.000000000 3016.0000000 1.0000000000
 1607.5000000 4.5009999275 55.104999542 4.0000000000 22.000000000 3016.0000000 1.0000000000
 1607.6250000 4.1620001793 55.131999969 4.0000000000 22.000000000 3016.0000000 1.0000000000
 1607.7500000 4.1310000420 55.159999847 4.0000000000 22.000000000 3016.0000000 1.0000000000
 1607.8750000 4.2979998589 55.187000275 4.0000000000 22.000000000 3016.0000000 1.0000000000
 1608.0000000 4.2909998894 55.209999084 4.0000000000 22.000000000 3016.0000000 1.0000000000
 1608.1250000 3.6610000134 55.229999542 4.0000000000 22.000000000 3016.0000000 1.0000000000
 1608.2500000 3.1449999809 55.243000031 4.0000000000 22.000000000 3016.0000000 1.0000000000
 1608.3750000 2.9309999943 55.248001099 4.0000000000 22.000000000 3016.0000000 1.0000000000
 1608.5000000 2.7980000973 55.243000031 4.0000000000 22.000000000 3016.0000000 1.0000000000
 1608.6250000 2.8619999886 55.229999542 4.0000000000 22.000000000 3016.0000000 1.0000000000
 1608.7500000 3.1700000763 55.210998535 4.0000000000 22.000000000 3016.0000000 1.0000000000
 1608.8750000 3.8389999866 55.189998627 4.0000000000 22.000000000 3016.0000000 1.0000000000
 1609.0000000 4.4710001945 55.172000885 4.0000000000 22.000000000 3016.0000000 1.0000000000
 1609.1250000 4.6209998131 55.158000946 4.0000000000 22.000000000 3016.0000000 1.0000000000
 1609.2500000 4.1659998894 55.150001526 4.0000000000 22.000000000 3016.0000000 1.0000000000
 1609.3750000 3.3250000477 55.145999908 4.0000000000 22.000000000 3016.0000000 1.0000000000
 1609.5000000 2.6919999123 55.145999908 4.0000000000 22.000000000 3016.0000000 1.0000000000
 1609.6250000 2.5030000210 55.145999908 4.0000000000 22.000000000 3016.0000000 1.0000000000
 1609.7500000 2.4489998817 55.145999908 4.0000000000 22.000000000 3016.0000000 1.0000000000
 1609.8750000 2.6019999981 55.145999908 4.0000000000 22.000000000 3016.0000000 1.0000000000
 1610.0000000 2.7999999523 55.145999908 4.0000000000 22.000000000 3016.0000000 1.0000000000
 1610.1250000 2.6579999924 55.145999908 4.0000000000 22.000000000 3016.0000000 1.0000000000
 1610.2500000 2.5280001163 55.145999908 4.0000000000 22.000000000 3016.0000000 1.0000000000
 1610.3750000 2.6670000553 55.145999908 4.0000000000 22.000000000 3016.0000000 1.0000000000
