# LAS format log file from PETREL
# Project units are specified as depth units
#==================================================================
~Version information
VERS.   2.0:
WRAP.   NO:
#==================================================================
~Well
STRT .m      1420.0000000 :
STOP .m      1734.8750000 :
STEP .m     0.12500000 :
NULL .        -999.250000 :
COMP.           : COMPANY
WELL.  5-0161C   : WELL
FLD.            : FIELD
LOC.            : LOCATION
SRVC.           : SERVICE COMPANY
DATE.  2020-03-08 09:25:09   : Log Export Date {yyyy-MM-dd HH:mm:ss}
PROV.           : PROVINCE
UWI.      : UNIQUE WELL ID
API.            : API NUMBER
#==================================================================
~Curve
DEPT .m                   : DEPTH
RT .ohm.m                 : RT
SP .                      : SP
Fluids .                  : Fluids
POR .m3/m3                : POR
PERM .mD                  : PERM
Lith .                    : Lith
~Parameter
#==================================================================
~Ascii
# ...
 1550.5000000 12.555999756 -56.63999939 3.0000000000 14.000000000 326.00000000 1.0000000000
 1550.6250000 13.000000000 -58.00500107 3.0000000000 14.000000000 326.00000000 1.0000000000
 1550.7500000 13.194000244 -59.24499893 3.0000000000 14.000000000 326.00000000 1.0000000000
 1550.8750000 13.083999634 -59.90800095 3.0000000000 14.000000000 326.00000000 1.0000000000
 1551.0000000 13.109999657 -59.76399994 3.0000000000 14.000000000 326.00000000 1.0000000000
 1551.1250000 12.977999687 -58.93700027  -999.250000 0.1000000015 0.1000000015 0.0000000000
 1551.2500000 12.510000229 -57.77199936  -999.250000 0.1000000015 0.1000000015 0.0000000000
 1551.3750000 11.944000244 -56.83200073  -999.250000 0.1000000015 0.1000000015 0.0000000000
 1551.5000000 12.076999664 -56.82699966  -999.250000 0.1000000015 0.1000000015 0.0000000000
 1551.6250000 12.838999748 -57.80099869  -999.250000 0.1000000015 0.1000000015 0.0000000000
 1551.7500000 13.960000038 -59.08300018 3.0000000000 21.000000000 1223.0000000 1.0000000000
 1551.8750000 15.303999901 -59.98699951 3.0000000000 21.000000000 1223.0000000 1.0000000000
 1552.0000000 15.666999817 -60.35499954 3.0000000000 21.000000000 1223.0000000 1.0000000000
 1552.1250000 13.982000351 -60.49800110 3.0000000000 21.000000000 1223.0000000 1.0000000000
 1552.2500000 10.946999550 -60.60100174 3.0000000000 21.000000000 1223.0000000 1.0000000000
 1552.3750000 7.7439999580 -60.60100174 3.0000000000 21.000000000 1223.0000000 1.0000000000
 1552.5000000 6.0830001831 -60.38000107  -999.250000 0.1000000015 0.1000000015 0.0000000000
 1552.6250000 5.3280000687 -59.65599823  -999.250000 0.1000000015 0.1000000015 0.0000000000
 1552.7500000 5.2010002136 -58.54000092  -999.250000 0.1000000015 0.1000000015 0.0000000000
 1552.8750000 5.4289999008 -57.16199875  -999.250000 0.1000000015 0.1000000015 0.0000000000
 1553.0000000 5.6310000420 -55.95600128  -999.250000 0.1000000015 0.1000000015 0.0000000000
 1553.1250000 5.9140000343 -55.23699951  -999.250000 0.1000000015 0.1000000015 0.0000000000
 1553.2500000 6.2189998627 -55.19699860  -999.250000 0.1000000015 0.1000000015 0.0000000000
 1553.3750000 6.4289999008 -55.54499817  -999.250000 0.1000000015 0.1000000015 0.0000000000
 1553.5000000 6.5180001259 -55.73899841  -999.250000 0.1000000015 0.1000000015 0.0000000000
 1553.6250000 6.5219998360 -55.62699890  -999.250000 0.1000000015 0.1000000015 0.0000000000
 1553.7500000 6.5770001411 -55.54199982  -999.250000 0.1000000015 0.1000000015 0.0000000000
 1553.8750000 6.7540001869 -55.93500137  -999.250000 0.1000000015 0.1000000015 0.0000000000
 1554.0000000 6.9710001945 -56.97399902  -999.250000 0.1000000015 0.1000000015 0.0000000000
 1554.1250000 7.1900000572 -58.55500031  -999.250000 0.1000000015 0.1000000015 0.0000000000
 1554.2500000 7.6339998245 -60.52899933 4.0000000000 25.000000000 3630.0000000 1.0000000000
 1554.3750000 8.3620004654 -62.68099976 4.0000000000 25.000000000 3630.0000000 1.0000000000
 1554.5000000 8.8929996490 -64.59700012 4.0000000000 25.000000000 3630.0000000 1.0000000000
 1554.6250000 9.0439996719 -66.00900269 4.0000000000 25.000000000 3630.0000000 1.0000000000
 1554.7500000 8.9060001373 -66.85800171 4.0000000000 25.000000000 3630.0000000 1.0000000000
 1554.8750000 8.8889999390 -67.37699890 4.0000000000 25.000000000 3630.0000000 1.0000000000
 1555.0000000 9.0649995804 -67.83699799 4.0000000000 25.000000000 3630.0000000 1.0000000000
 1555.1250000 9.5780000687 -68.16899872 4.0000000000 25.000000000 3630.0000000 1.0000000000
 1555.2500000 10.392999649 -68.14399719 4.0000000000 25.000000000 3630.0000000 1.0000000000
 1555.3750000 11.527999878 -67.60900116 4.0000000000 25.000000000 3630.0000000 1.0000000000
 1555.5000000 12.965999603 -66.73300171 4.0000000000 25.000000000 3630.0000000 1.0000000000
 1555.6250000 14.225000381 -65.85700226 4.0000000000 25.000000000 3630.0000000 1.0000000000
 1555.7500000 15.439000130 -65.18099976 4.0000000000 25.000000000 3630.0000000 1.0000000000
 1555.8750000 16.541999817 -64.74800110 4.0000000000 25.000000000 3630.0000000 1.0000000000
 1556.0000000 17.891000748 -64.49299622 4.0000000000 25.000000000 3630.0000000 1.0000000000
 1556.1250000 19.167999268 -64.43800354 4.0000000000 25.000000000 3630.0000000 1.0000000000
 1556.2500000 19.982000351 -64.53299713 4.0000000000 25.000000000 3630.0000000 1.0000000000
 1556.3750000 20.346000671 -64.74299622 4.0000000000 25.000000000 3630.0000000 1.0000000000
 1556.5000000 20.434999466 -65.04799652 4.0000000000 25.000000000 3630.0000000 1.0000000000
 1556.6250000 20.236000061 -65.41000366 4.0000000000 25.000000000 3630.0000000 1.0000000000
 1556.7500000 20.207000732 -65.64900208 4.0000000000 25.000000000 3630.0000000 1.0000000000
 1556.8750000 20.694000244 -65.65299988 4.0000000000 25.000000000 3630.0000000 1.0000000000
 1557.0000000 21.058000565 -65.58300018 4.0000000000 25.000000000 3630.0000000 1.0000000000
 1557.1250000 21.436000824 -65.61399841 4.0000000000 25.000000000 3630.0000000 1.0000000000
 1557.2500000 22.284999847 -65.68499756 4.0000000000 25.000000000 3630.0000000 1.0000000000
 1557.3750000 23.187999725 -65.66899872 4.0000000000 25.000000000 3630.0000000 1.0000000000
 1557.5000000 24.517000198 -65.58000183 4.0000000000 25.000000000 3630.0000000 1.0000000000
 1557.6250000 26.430999756 -65.47899628 4.0000000000 25.000000000 3630.0000000 1.0000000000
 1557.7500000 27.388999939 -65.32099915 4.0000000000 25.000000000 3630.0000000 1.0000000000
 1557.8750000 27.850000381 -65.12999725 4.0000000000 25.000000000 3630.0000000 1.0000000000
 1558.0000000 28.781999588 -65.02799988 4.0000000000 25.000000000 3630.0000000 1.0000000000
 1558.1250000 29.872999191 -65.12799835 4.0000000000 25.000000000 3630.0000000 1.0000000000
 1558.2500000 30.860000610 -65.30400085 4.0000000000 25.000000000 3630.0000000 1.0000000000
 1558.3750000 31.398000717 -65.41899872 4.0000000000 25.000000000 3630.0000000 1.0000000000
 1558.5000000 31.624000549 -65.45500183 4.0000000000 25.000000000 3630.0000000 1.0000000000
 1558.6250000 31.995000839 -65.59100342 4.0000000000 25.000000000 3630.0000000 1.0000000000
 1558.7500000 32.597999573 -66.06199646 4.0000000000 25.000000000 3630.0000000 1.0000000000
 1558.8750000 33.092998505 -66.89199829 4.0000000000 25.000000000 3630.0000000 1.0000000000
 1559.0000000 33.474998474 -67.82199860 4.0000000000 25.000000000 3630.0000000 1.0000000000
 1559.1250000 34.063999176 -68.51200104 4.0000000000 25.000000000 3630.0000000 1.0000000000
 1559.2500000 34.535999298 -68.89700317 4.0000000000 25.000000000 3630.0000000 1.0000000000
 1559.3750000 35.458000183 -69.16400146 4.0000000000 25.000000000 3630.0000000 1.0000000000
 1559.5000000 36.664001465 -69.46900177 4.0000000000 25.000000000 3630.0000000 1.0000000000
 1559.6250000 38.715999603 -69.46900177 4.0000000000 25.000000000 3630.0000000 1.0000000000
 1559.7500000 41.405998230 -69.83899689 4.0000000000 25.000000000 3630.0000000 1.0000000000
 1559.8750000 43.543998718 -70.21600342 4.0000000000 25.000000000 3630.0000000 1.0000000000
 1560.0000000 44.605998993 -70.49299622 4.0000000000 25.000000000 3630.0000000 1.0000000000
 1560.1250000 44.534999847 -70.53399658 4.0000000000 25.000000000 3630.0000000 1.0000000000
 1560.2500000 44.077999115 -70.29000092 4.0000000000 25.000000000 3630.0000000 1.0000000000
 1560.3750000 43.993999481 -69.86000061 4.0000000000 25.000000000 3630.0000000 1.0000000000
 1560.5000000 43.916999817 -69.38700104 4.0000000000 25.000000000 3630.0000000 1.0000000000
 1560.6250000 43.168998718 -68.98600006 4.0000000000 25.000000000 3630.0000000 1.0000000000
 1560.7500000 41.722000122 -68.63500214 4.0000000000 25.000000000 3630.0000000 1.0000000000
 1560.8750000 39.965999603 -68.33300018 4.0000000000 25.000000000 3630.0000000 1.0000000000
 1561.0000000 38.847999573 -68.06199646 4.0000000000 25.000000000 3630.0000000 1.0000000000
 1561.1250000 38.909999847 -67.80100250 4.0000000000 25.000000000 3630.0000000 1.0000000000
 1561.2500000 39.263000488 -67.52899933 4.0000000000 25.000000000 3630.0000000 1.0000000000
