# LAS format log file from PETREL
# Project units are specified as depth units
#==================================================================
~Version information
VERS.   2.0:
WRAP.   NO:
#==================================================================
~Well
STRT .m      725.00000000 :
STOP .m      1752.0000000 :
STEP .m     0.12500000 :
NULL .        -999.250000 :
COMP.           : COMPANY
WELL.  5-0166   : WELL
FLD.            : FIELD
LOC.            : LOCATION
SRVC.           : SERVICE COMPANY
DATE.  2020-03-08 09:25:09   : Log Export Date {yyyy-MM-dd HH:mm:ss}
PROV.           : PROVINCE
UWI.      : UNIQUE WELL ID
API.            : API NUMBER
#==================================================================
~Curve
DEPT .m                   : DEPTH
RT .ohm.m                 : RT
SP .                      : SP
Fluids .                  : Fluids
POR .m3/m3                : POR
PERM .mD                  : PERM
Lith .                    : Lith
~Parameter
#==================================================================
~Ascii
# ...
 1671.1250000 29.562299728 -9999.000000 4.0000000000 16.000000000 222.00000000 1.0000000000
 1671.2500000 27.525499344 -9999.000000 4.0000000000 16.000000000 222.00000000 1.0000000000
 1671.3750000 25.488700867 -9999.000000 4.0000000000 16.000000000 222.00000000 1.0000000000
 1671.5000000 23.451999664 -9999.000000 4.0000000000 16.000000000 222.00000000 1.0000000000
 1671.6250000 25.054000854 -9999.000000 4.0000000000 16.000000000 222.00000000 1.0000000000
 1671.7500000 26.656000137 -9999.000000 4.0000000000 16.000000000 222.00000000 1.0000000000
 1671.8750000 28.257999420 -9999.000000 4.0000000000 16.000000000 222.00000000 1.0000000000
 1672.0000000 29.860000610 -9999.000000 4.0000000000 16.000000000 222.00000000 1.0000000000
 1672.1250000 30.308300018 -9999.000000 4.0000000000 16.000000000 222.00000000 1.0000000000
 1672.2500000 30.756500244 -9999.000000 4.0000000000 16.000000000 222.00000000 1.0000000000
 1672.3750000 31.204799652 -9999.000000 4.0000000000 16.000000000 222.00000000 1.0000000000
 1672.5000000 31.652999878 -9999.000000 4.0000000000 16.000000000 222.00000000 1.0000000000
 1672.6250000 32.597698212 -9999.000000 4.0000000000 16.000000000 222.00000000 1.0000000000
 1672.7500000 33.542499542 -9999.000000 4.0000000000 16.000000000 222.00000000 1.0000000000
 1672.8750000 34.487201691 -9999.000000 4.0000000000 16.000000000 222.00000000 1.0000000000
 1673.0000000 35.431999207 -9999.000000 4.0000000000 16.000000000 222.00000000 1.0000000000
 1673.1250000 39.099998474 -9999.000000 4.0000000000 16.000000000 222.00000000 1.0000000000
 1673.2500000 42.768001556 -9999.000000 4.0000000000 16.000000000 222.00000000 1.0000000000
 1673.3750000 46.436000824 -9999.000000 4.0000000000 16.000000000 222.00000000 1.0000000000
 1673.5000000 50.104000092 -9999.000000 4.0000000000 16.000000000 222.00000000 1.0000000000
 1673.6250000 49.108501434 -9999.000000 4.0000000000 16.000000000 222.00000000 1.0000000000
 1673.7500000 48.112998962 -9999.000000 4.0000000000 16.000000000 222.00000000 1.0000000000
 1673.8750000 47.117500305 -9999.000000 4.0000000000 16.000000000 222.00000000 1.0000000000
 1674.0000000 46.122001648 -9999.000000 4.0000000000 16.000000000 222.00000000 1.0000000000
 1674.1250000 40.583801270 -9999.000000 4.0000000000 16.000000000 222.00000000 1.0000000000
 1674.2500000 35.045501709 -9999.000000 4.0000000000 16.000000000 222.00000000 1.0000000000
 1674.3750000 29.507299423 -9999.000000 4.0000000000 16.000000000 222.00000000 1.0000000000
 1674.5000000 23.968999863 -9999.000000 4.0000000000 16.000000000 222.00000000 1.0000000000
 1674.6250000 23.473800659 -9999.000000 4.0000000000 16.000000000 222.00000000 1.0000000000
 1674.7500000 22.978500366 -9999.000000 4.0000000000 16.000000000 222.00000000 1.0000000000
 1674.8750000 22.483299255 -9999.000000 4.0000000000 16.000000000 222.00000000 1.0000000000
 1675.0000000 21.988000870 -9999.000000 4.0000000000 16.000000000 222.00000000 1.0000000000
 1675.1250000 25.144800186 -9999.000000 4.0000000000 16.000000000 222.00000000 1.0000000000
 1675.2500000 28.301500320 -9999.000000 4.0000000000 16.000000000 222.00000000 1.0000000000
 1675.3750000 31.458299637 -9999.000000 4.0000000000 16.000000000 222.00000000 1.0000000000
 1675.5000000 34.615001678 -9999.000000 4.0000000000 16.000000000 222.00000000 1.0000000000
 1675.6250000 34.706298828 -9999.000000 4.0000000000 16.000000000 222.00000000 1.0000000000
 1675.7500000 34.797500610 -9999.000000 4.0000000000 16.000000000 222.00000000 1.0000000000
 1675.8750000 34.888801575 -9999.000000 4.0000000000 16.000000000 222.00000000 1.0000000000
 1676.0000000 34.979999542 -9999.000000 4.0000000000 16.000000000 222.00000000 1.0000000000
 1676.1250000 31.861999512 -9999.000000 4.0000000000 16.000000000 222.00000000 1.0000000000
 1676.2500000 28.743999481 -9999.000000 4.0000000000 16.000000000 222.00000000 1.0000000000
 1676.3750000 25.625999451 -9999.000000 4.0000000000 16.000000000 222.00000000 1.0000000000
 1676.5000000 22.507999420 -9999.000000 4.0000000000 16.000000000 222.00000000 1.0000000000
 1676.6250000 23.490499496 -9999.000000 4.0000000000 16.000000000 222.00000000 1.0000000000
 1676.7500000 24.472999573 -9999.000000 4.0000000000 16.000000000 222.00000000 1.0000000000
 1676.8750000 25.455499649 -9999.000000 4.0000000000 16.000000000 222.00000000 1.0000000000
 1677.0000000 26.437999725 -9999.000000 4.0000000000 16.000000000 222.00000000 1.0000000000
 1677.1250000 28.319000244 -9999.000000 4.0000000000 16.000000000 222.00000000 1.0000000000
 1677.2500000 30.200000763 -9999.000000 4.0000000000 16.000000000 222.00000000 1.0000000000
 1677.3750000 32.081001282 -9999.000000 4.0000000000 16.000000000 222.00000000 1.0000000000
 1677.5000000 33.962001801 -9999.000000 4.0000000000 16.000000000 222.00000000 1.0000000000
 1677.6250000 33.743301392 -9999.000000 4.0000000000 16.000000000 222.00000000 1.0000000000
 1677.7500000 33.524501801 -9999.000000 4.0000000000 16.000000000 222.00000000 1.0000000000
 1677.8750000 33.305801392 -9999.000000 4.0000000000 16.000000000 222.00000000 1.0000000000
 1678.0000000 33.087001801 -9999.000000 4.0000000000 16.000000000 222.00000000 1.0000000000
 1678.1250000 35.539299011 -9999.000000 4.0000000000 16.000000000 222.00000000 1.0000000000
 1678.2500000 37.991500854 -9999.000000 4.0000000000 16.000000000 222.00000000 1.0000000000
 1678.3750000 40.443801880 -9999.000000 4.0000000000 16.000000000 222.00000000 1.0000000000
 1678.5000000 42.895999908 -9999.000000 4.0000000000 16.000000000 222.00000000 1.0000000000
 1678.6250000 40.575000763 -9999.000000 4.0000000000 16.000000000 222.00000000 1.0000000000
 1678.7500000 38.254001617 -9999.000000 4.0000000000 16.000000000 222.00000000 1.0000000000
 1678.8750000 35.932998657 -9999.000000 4.0000000000 16.000000000 222.00000000 1.0000000000
 1679.0000000 33.611999512 -9999.000000 4.0000000000 16.000000000 222.00000000 1.0000000000
 1679.1250000 29.754199982 -9999.000000 4.0000000000 16.000000000 222.00000000 1.0000000000
 1679.2500000 25.896499634 -9999.000000 4.0000000000 16.000000000 222.00000000 1.0000000000
 1679.3750000 22.038700104 -9999.000000 4.0000000000 16.000000000 222.00000000 1.0000000000
 1679.5000000 18.180999756 -9999.000000 4.0000000000 16.000000000 222.00000000 1.0000000000
 1679.6250000 22.500699997 -9999.000000 4.0000000000 16.000000000 222.00000000 1.0000000000
 1679.7500000 26.820499420 -9999.000000 4.0000000000 16.000000000 222.00000000 1.0000000000
 1679.8750000 31.140199661 -9999.000000 4.0000000000 16.000000000 222.00000000 1.0000000000
 1680.0000000 35.459999084 -9999.000000 4.0000000000 16.000000000 222.00000000 1.0000000000
 1680.1250000 32.832199097 -9999.000000 4.0000000000 16.000000000 222.00000000 1.0000000000
 1680.2500000 30.204500198 -9999.000000 4.0000000000 16.000000000 222.00000000 1.0000000000
 1680.3750000 27.576700211 -9999.000000 4.0000000000 16.000000000 222.00000000 1.0000000000
 1680.5000000 24.948999405 -9999.000000 4.0000000000 16.000000000 222.00000000 1.0000000000
 1680.6250000 29.556999207 -9999.000000 4.0000000000 16.000000000 222.00000000 1.0000000000
 1680.7500000 34.165000916 -9999.000000 4.0000000000 16.000000000 222.00000000 1.0000000000
 1680.8750000 38.772998810 -9999.000000 4.0000000000 16.000000000 222.00000000 1.0000000000
 1681.0000000 43.381000519 -9999.000000 4.0000000000 16.000000000 222.00000000 1.0000000000
 1681.1250000 42.094799042 -9999.000000 4.0000000000 16.000000000 222.00000000 1.0000000000
 1681.2500000 40.808498383 -9999.000000 4.0000000000 16.000000000 222.00000000 1.0000000000
 1681.3750000 39.522300720 -9999.000000 4.0000000000 16.000000000 222.00000000 1.0000000000
 1681.5000000 38.236000061 -9999.000000 4.0000000000 16.000000000 222.00000000 1.0000000000
 1681.6250000 37.782001495 -9999.000000 4.0000000000 16.000000000 222.00000000 1.0000000000
 1681.7500000 37.327999115 -9999.000000 4.0000000000 16.000000000 222.00000000 1.0000000000
 1681.8750000 36.874000549 -9999.000000 4.0000000000 16.000000000 222.00000000 1.0000000000
