# LAS format log file from PETREL
# Project units are specified as depth units
#==================================================================
~Version information
VERS.   2.0:
WRAP.   NO:
#==================================================================
~Well
STRT .m      725.00000000 :
STOP .m      1752.0000000 :
STEP .m     0.12500000 :
NULL .        -999.250000 :
COMP.           : COMPANY
WELL.  5-0166   : WELL
FLD.            : FIELD
LOC.            : LOCATION
SRVC.           : SERVICE COMPANY
DATE.  2020-03-08 09:25:09   : Log Export Date {yyyy-MM-dd HH:mm:ss}
PROV.           : PROVINCE
UWI.      : UNIQUE WELL ID
API.            : API NUMBER
#==================================================================
~Curve
DEPT .m                   : DEPTH
RT .ohm.m                 : RT
SP .                      : SP
Fluids .                  : Fluids
POR .m3/m3                : POR
PERM .mD                  : PERM
Lith .                    : Lith
~Parameter
#==================================================================
~Ascii
# ...
 1703.7500000 3.2664999962 -9999.000000  -999.250000 0.1000000015 0.1000000015 0.0000000000
 1703.8750000 3.4212000370 -9999.000000  -999.250000 0.1000000015 0.1000000015 0.0000000000
 1704.0000000 3.5759999752 -9999.000000  -999.250000 0.1000000015 0.1000000015 0.0000000000
 1704.1250000 3.6189999580 -9999.000000  -999.250000 0.1000000015 0.1000000015 0.0000000000
 1704.2500000 3.6619999409 -9999.000000  -999.250000 0.1000000015 0.1000000015 0.0000000000
 1704.3750000 3.7049999237 -9999.000000  -999.250000 0.1000000015 0.1000000015 0.0000000000
 1704.5000000 3.7479999065 -9999.000000  -999.250000 0.1000000015 0.1000000015 0.0000000000
 1704.6250000 3.8921999931 -9999.000000  -999.250000 0.1000000015 0.1000000015 0.0000000000
 1704.7500000 4.0364999771 -9999.000000  -999.250000 0.1000000015 0.1000000015 0.0000000000
 1704.8750000 4.1806998253 -9999.000000  -999.250000 0.1000000015 0.1000000015 0.0000000000
 1705.0000000 4.3249998093 -9999.000000  -999.250000 0.1000000015 0.1000000015 0.0000000000
 1705.1250000 4.1875000000 -9999.000000  -999.250000 0.1000000015 0.1000000015 0.0000000000
 1705.2500000 4.0500001907 -9999.000000  -999.250000 0.1000000015 0.1000000015 0.0000000000
 1705.3750000 3.9124999046 -9999.000000  -999.250000 0.1000000015 0.1000000015 0.0000000000
 1705.5000000 3.7750000954 -9999.000000  -999.250000 0.1000000015 0.1000000015 0.0000000000
 1705.6250000 3.5954999924 -9999.000000  -999.250000 0.1000000015 0.1000000015 0.0000000000
 1705.7500000 3.4159998894 -9999.000000  -999.250000 0.1000000015 0.1000000015 0.0000000000
 1705.8750000 3.2365000248 -9999.000000  -999.250000 0.1000000015 0.1000000015 0.0000000000
 1706.0000000 3.0569999218 -9999.000000  -999.250000 0.1000000015 0.1000000015 0.0000000000
 1706.1250000 3.0876998901 -9999.000000  -999.250000 0.1000000015 0.1000000015 0.0000000000
 1706.2500000 3.1184999943 -9999.000000  -999.250000 0.1000000015 0.1000000015 0.0000000000
 1706.3750000 3.1493000984 -9999.000000  -999.250000 0.1000000015 0.1000000015 0.0000000000
 1706.5000000 3.1800000668 -9999.000000  -999.250000 0.1000000015 0.1000000015 0.0000000000
 1706.6250000 3.0792999268 -9999.000000  -999.250000 0.1000000015 0.1000000015 0.0000000000
 1706.7500000 2.9784998894 -9999.000000  -999.250000 0.1000000015 0.1000000015 0.0000000000
 1706.8750000 2.8777000904 -9999.000000  -999.250000 0.1000000015 0.1000000015 0.0000000000
 1707.0000000 2.7769999504 -9999.000000  -999.250000 0.1000000015 0.1000000015 0.0000000000
 1707.1250000 2.8640000820 -9999.000000  -999.250000 0.1000000015 0.1000000015 0.0000000000
 1707.2500000 2.9509999752 -9999.000000  -999.250000 0.1000000015 0.1000000015 0.0000000000
 1707.3750000 3.0380001068 -9999.000000  -999.250000 0.1000000015 0.1000000015 0.0000000000
 1707.5000000 3.1250000000 -9999.000000  -999.250000 0.1000000015 0.1000000015 0.0000000000
 1707.6250000 3.1494998932 -9999.000000  -999.250000 0.1000000015 0.1000000015 0.0000000000
 1707.7500000 3.1740000248 -9999.000000  -999.250000 0.1000000015 0.1000000015 0.0000000000
 1707.8750000 3.1984999180 -9999.000000  -999.250000 0.1000000015 0.1000000015 0.0000000000
 1708.0000000 3.2230000496 -9999.000000  -999.250000 0.1000000015 0.1000000015 0.0000000000
 1708.1250000 3.1877999306 -9999.000000  -999.250000 0.1000000015 0.1000000015 0.0000000000
 1708.2500000 3.1524999142 -9999.000000  -999.250000 0.1000000015 0.1000000015 0.0000000000
 1708.3750000 3.1173000336 -9999.000000  -999.250000 0.1000000015 0.1000000015 0.0000000000
 1708.5000000 3.0820000172 -9999.000000  -999.250000 0.1000000015 0.1000000015 0.0000000000
 1708.6250000 3.2650001049 -9999.000000  -999.250000 0.1000000015 0.1000000015 0.0000000000
 1708.7500000 3.4479999542 -9999.000000  -999.250000 0.1000000015 0.1000000015 0.0000000000
 1708.8750000 3.6310000420 -9999.000000  -999.250000 0.1000000015 0.1000000015 0.0000000000
 1709.0000000 3.8139998913 -9999.000000  -999.250000 0.1000000015 0.1000000015 0.0000000000
 1709.1250000 4.0949997902 -9999.000000  -999.250000 0.1000000015 0.1000000015 0.0000000000
 1709.2500000 4.3759999275 -9999.000000  -999.250000 0.1000000015 0.1000000015 0.0000000000
 1709.3750000 4.6570000648 -9999.000000  -999.250000 0.1000000015 0.1000000015 0.0000000000
 1709.5000000 4.9380002022 -9999.000000  -999.250000 0.1000000015 0.1000000015 0.0000000000
 1709.6250000 4.4368000031 -9999.000000  -999.250000 0.1000000015 0.1000000015 0.0000000000
 1709.7500000 3.9354999065 -9999.000000  -999.250000 0.1000000015 0.1000000015 0.0000000000
 1709.8750000 3.4342999458 -9999.000000  -999.250000 0.1000000015 0.1000000015 0.0000000000
 1710.0000000 2.9330000877 -9999.000000  -999.250000 0.1000000015 0.1000000015 0.0000000000
 1710.1250000 3.0625000000 -9999.000000  -999.250000 0.1000000015 0.1000000015 0.0000000000
 1710.2500000 3.1919999123 -9999.000000  -999.250000 0.1000000015 0.1000000015 0.0000000000
 1710.3750000 3.3215000629 -9999.000000  -999.250000 0.1000000015 0.1000000015 0.0000000000
 1710.5000000 3.4509999752 -9999.000000  -999.250000 0.1000000015 0.1000000015 0.0000000000
 1710.6250000 3.4354999065 -9999.000000  -999.250000 0.1000000015 0.1000000015 0.0000000000
 1710.7500000 3.4200000763 -9999.000000  -999.250000 0.1000000015 0.1000000015 0.0000000000
 1710.8750000 3.4045000076 -9999.000000  -999.250000 0.1000000015 0.1000000015 0.0000000000
 1711.0000000 3.3889999390 -9999.000000  -999.250000 0.1000000015 0.1000000015 0.0000000000
 1711.1250000 3.5092000961 -9999.000000  -999.250000 0.1000000015 0.1000000015 0.0000000000
 1711.2500000 3.6294999123 -9999.000000  -999.250000 0.1000000015 0.1000000015 0.0000000000
 1711.3750000 3.7497000694 -9999.000000  -999.250000 0.1000000015 0.1000000015 0.0000000000
 1711.5000000 3.8699998856 -9999.000000  -999.250000 0.1000000015 0.1000000015 0.0000000000
 1711.6250000 3.7706999779 -9999.000000  -999.250000 0.1000000015 0.1000000015 0.0000000000
 1711.7500000 3.6714999676 -9999.000000  -999.250000 0.1000000015 0.1000000015 0.0000000000
 1711.8750000 3.5722999573 -9999.000000  -999.250000 0.1000000015 0.1000000015 0.0000000000
 1712.0000000 3.4730000496 -9999.000000  -999.250000 0.1000000015 0.1000000015 0.0000000000
 1712.1250000 3.4344999790 -9999.000000  -999.250000 0.1000000015 0.1000000015 0.0000000000
 1712.2500000 3.3959999084 -9999.000000  -999.250000 0.1000000015 0.1000000015 0.0000000000
 1712.3750000 3.3575000763 -9999.000000  -999.250000 0.1000000015 0.1000000015 0.0000000000
 1712.5000000 3.3190000057 -9999.000000  -999.250000 0.1000000015 0.1000000015 0.0000000000
 1712.6250000 4.4523000717 -9999.000000  -999.250000 0.1000000015 0.1000000015 0.0000000000
 1712.7500000 5.5854997635 -9999.000000  -999.250000 0.1000000015 0.1000000015 0.0000000000
 1712.8750000 6.7188000679 -9999.000000  -999.250000 0.1000000015 0.1000000015 0.0000000000
 1713.0000000 7.8520002365 -9999.000000 0.0000000000 7.0000000000 14.000000000 1.0000000000
 1713.1250000 7.8210000992 -9999.000000 0.0000000000 7.0000000000 14.000000000 1.0000000000
 1713.2500000 7.7899999619 -9999.000000 0.0000000000 7.0000000000 14.000000000 1.0000000000
 1713.3750000 7.7589998245 -9999.000000 0.0000000000 7.0000000000 14.000000000 1.0000000000
 1713.5000000 7.7280001640 -9999.000000 0.0000000000 7.0000000000 14.000000000 1.0000000000
 1713.6250000 7.4825000763 -9999.000000 0.0000000000 7.0000000000 14.000000000 1.0000000000
 1713.7500000 7.2369999886 -9999.000000 0.0000000000 7.0000000000 14.000000000 1.0000000000
 1713.8750000 6.9914999008 -9999.000000 0.0000000000 7.0000000000 14.000000000 1.0000000000
 1714.0000000 6.7459998131 -9999.000000 0.0000000000 7.0000000000 14.000000000 1.0000000000
 1714.1250000 8.2126998901 -9999.000000 0.0000000000 7.0000000000 14.000000000 1.0000000000
 1714.2500000 9.6794996262 -9999.000000 0.0000000000 7.0000000000 14.000000000 1.0000000000
 1714.3750000 11.146200180 -9999.000000 0.0000000000 7.0000000000 14.000000000 1.0000000000
 1714.5000000 12.612999916 -9999.000000 0.0000000000 7.0000000000 14.000000000 1.0000000000
