# LAS format log file from PETREL
# Project units are specified as depth units
#==================================================================
~Version information
VERS.   2.0:
WRAP.   NO:
#==================================================================
~Well
STRT .m      1420.0000000 :
STOP .m      1734.8750000 :
STEP .m     0.12500000 :
NULL .        -999.250000 :
COMP.           : COMPANY
WELL.  5-0161C   : WELL
FLD.            : FIELD
LOC.            : LOCATION
SRVC.           : SERVICE COMPANY
DATE.  2020-03-08 09:25:09   : Log Export Date {yyyy-MM-dd HH:mm:ss}
PROV.           : PROVINCE
UWI.      : UNIQUE WELL ID
API.            : API NUMBER
#==================================================================
~Curve
DEPT .m                   : DEPTH
RT .ohm.m                 : RT
SP .                      : SP
Fluids .                  : Fluids
POR .m3/m3                : POR
PERM .mD                  : PERM
Lith .                    : Lith
~Parameter
#==================================================================
~Ascii
# ...
 1637.5000000 30.169000626 -67.74800110 4.0000000000 22.000000000 2428.0000000 1.0000000000
 1637.6250000 30.559000015 -67.44400024 4.0000000000 22.000000000 2428.0000000 1.0000000000
 1637.7500000 30.729000092 -67.16200256 4.0000000000 22.000000000 2428.0000000 1.0000000000
 1637.8750000 31.048000336 -67.24199677 4.0000000000 22.000000000 2428.0000000 1.0000000000
 1638.0000000 31.823999405 -67.99299622 4.0000000000 22.000000000 2428.0000000 1.0000000000
 1638.1250000 33.361000061 -69.49500275 4.0000000000 22.000000000 2428.0000000 1.0000000000
 1638.2500000 35.466999054 -71.31199646 4.0000000000 22.000000000 2428.0000000 1.0000000000
 1638.3750000 37.185001373 -72.81500244 4.0000000000 22.000000000 2428.0000000 1.0000000000
 1638.5000000 39.493999481 -73.72599792 4.0000000000 22.000000000 2428.0000000 1.0000000000
 1638.6250000 41.911998749 -74.20200348 4.0000000000 22.000000000 2428.0000000 1.0000000000
 1638.7500000 43.764999390 -74.47699738 4.0000000000 22.000000000 2428.0000000 1.0000000000
 1638.8750000 44.676998138 -74.64700317 4.0000000000 22.000000000 2428.0000000 1.0000000000
 1639.0000000 45.237998962 -74.65599823 4.0000000000 22.000000000 2428.0000000 1.0000000000
 1639.1250000 45.958999634 -74.50099945 4.0000000000 22.000000000 2428.0000000 1.0000000000
 1639.2500000 46.674999237 -74.17900085 4.0000000000 22.000000000 2428.0000000 1.0000000000
 1639.3750000 46.786998749 -73.78900146 4.0000000000 22.000000000 2428.0000000 1.0000000000
 1639.5000000 46.301998138 -73.38700104 4.0000000000 22.000000000 2428.0000000 1.0000000000
 1639.6250000 45.530998230 -73.07800293 4.0000000000 22.000000000 2428.0000000 1.0000000000
 1639.7500000 44.893001556 -72.87500000 4.0000000000 22.000000000 2428.0000000 1.0000000000
 1639.8750000 44.578998566 -72.78600311 4.0000000000 22.000000000 2428.0000000 1.0000000000
 1640.0000000 44.539001465 -72.78399658 4.0000000000 22.000000000 2428.0000000 1.0000000000
 1640.1250000 44.752998352 -72.85900116 4.0000000000 22.000000000 2428.0000000 1.0000000000
 1640.2500000 45.257999420 -73.02400208 4.0000000000 22.000000000 2428.0000000 1.0000000000
 1640.3750000 45.849998474 -73.26399994 4.0000000000 22.000000000 2428.0000000 1.0000000000
 1640.5000000 46.477001190 -73.55000305 4.0000000000 22.000000000 2428.0000000 1.0000000000
 1640.6250000 47.285999298 -73.86000061 4.0000000000 22.000000000 2428.0000000 1.0000000000
 1640.7500000 47.895999908 -74.17500305 4.0000000000 22.000000000 2428.0000000 1.0000000000
 1640.8750000 48.137001038 -74.49600220 4.0000000000 22.000000000 2428.0000000 1.0000000000
 1641.0000000 48.324001312 -74.76100159 4.0000000000 22.000000000 2428.0000000 1.0000000000
 1641.1250000 48.540000916 -74.92099762 4.0000000000 22.000000000 2428.0000000 1.0000000000
 1641.2500000 48.576999664 -74.95500183 4.0000000000 22.000000000 2428.0000000 1.0000000000
 1641.3750000 48.658000946 -74.93299866 4.0000000000 22.000000000 2428.0000000 1.0000000000
 1641.5000000 48.620998383 -74.90100098 4.0000000000 22.000000000 2428.0000000 1.0000000000
 1641.6250000 48.712001801 -74.88099670 4.0000000000 22.000000000 2428.0000000 1.0000000000
 1641.7500000 48.800998688 -74.78900146 4.0000000000 22.000000000 2428.0000000 1.0000000000
 1641.8750000 48.162998199 -74.60600281 4.0000000000 22.000000000 2428.0000000 1.0000000000
 1642.0000000 47.125999451 -74.38099670 4.0000000000 22.000000000 2428.0000000 1.0000000000
 1642.1250000 46.214000702 -74.15699768 4.0000000000 22.000000000 2428.0000000 1.0000000000
 1642.2500000 45.846000671 -73.91300201 4.0000000000 22.000000000 2428.0000000 1.0000000000
 1642.3750000 46.367000580 -73.64399719 4.0000000000 22.000000000 2428.0000000 1.0000000000
 1642.5000000 47.415000916 -73.35399628 4.0000000000 22.000000000 2428.0000000 1.0000000000
 1642.6250000 48.298000336 -73.16600037 4.0000000000 22.000000000 2428.0000000 1.0000000000
 1642.7500000 49.518001556 -73.09400177 4.0000000000 22.000000000 2428.0000000 1.0000000000
 1642.8750000 51.307998657 -73.20300293 4.0000000000 22.000000000 2428.0000000 1.0000000000
 1643.0000000 53.673999786 -73.41999817 4.0000000000 22.000000000 2428.0000000 1.0000000000
 1643.1250000 55.551998138 -73.64600372 4.0000000000 22.000000000 2428.0000000 1.0000000000
 1643.2500000 57.108001709 -73.80000305 4.0000000000 22.000000000 2428.0000000 1.0000000000
 1643.3750000 57.772998810 -73.86399841 4.0000000000 22.000000000 2428.0000000 1.0000000000
 1643.5000000 57.362998962 -73.83799744 4.0000000000 22.000000000 2428.0000000 1.0000000000
 1643.6250000 56.700000763 -73.74900055 4.0000000000 22.000000000 2428.0000000 1.0000000000
 1643.7500000 56.101001740 -73.63899994 4.0000000000 22.000000000 2428.0000000 1.0000000000
 1643.8750000 56.165000916 -73.57700348 4.0000000000 22.000000000 2428.0000000 1.0000000000
 1644.0000000 57.125000000 -73.55000305 4.0000000000 22.000000000 2428.0000000 1.0000000000
 1644.1250000 58.160999298 -73.53399658 4.0000000000 22.000000000 2428.0000000 1.0000000000
 1644.2500000 58.338001251 -73.51499939 4.0000000000 22.000000000 2428.0000000 1.0000000000
 1644.3750000 57.056999207 -73.46399689 4.0000000000 22.000000000 2428.0000000 1.0000000000
 1644.5000000 54.818000793 -73.40200043 4.0000000000 22.000000000 2428.0000000 1.0000000000
 1644.6250000 52.416999817 -73.33000183 4.0000000000 22.000000000 2428.0000000 1.0000000000
 1644.7500000 50.768001556 -73.28800201 4.0000000000 22.000000000 2428.0000000 1.0000000000
 1644.8750000 50.145999908 -73.32499695 4.0000000000 22.000000000 2428.0000000 1.0000000000
 1645.0000000 50.154998779 -73.37200165 4.0000000000 22.000000000 2428.0000000 1.0000000000
 1645.1250000 50.492000580 -73.47899628 4.0000000000 22.000000000 2428.0000000 1.0000000000
 1645.2500000 51.029998779 -73.57299805 4.0000000000 22.000000000 2428.0000000 1.0000000000
 1645.3750000 51.863998413 -73.67299652 4.0000000000 22.000000000 2428.0000000 1.0000000000
 1645.5000000 52.590000153 -73.79000092 4.0000000000 22.000000000 2428.0000000 1.0000000000
 1645.6250000 53.236999512 -73.97799683 4.0000000000 22.000000000 2428.0000000 1.0000000000
 1645.7500000 53.375000000 -74.30100250 4.0000000000 22.000000000 2428.0000000 1.0000000000
 1645.8750000 52.601001740 -74.66799927 4.0000000000 22.000000000 2428.0000000 1.0000000000
 1646.0000000 51.249000549 -74.96900177 4.0000000000 22.000000000 2428.0000000 1.0000000000
 1646.1250000 50.192001343 -75.09600067 4.0000000000 22.000000000 2428.0000000 1.0000000000
 1646.2500000 48.991001129 -75.06900024 4.0000000000 22.000000000 2428.0000000 1.0000000000
 1646.3750000 47.362998962 -75.00399780 4.0000000000 22.000000000 2428.0000000 1.0000000000
 1646.5000000 46.243000031 -74.98999786 4.0000000000 22.000000000 2428.0000000 1.0000000000
 1646.6250000 45.765998840 -75.05100250 4.0000000000 22.000000000 2428.0000000 1.0000000000
 1646.7500000 45.542999268 -75.11900330 4.0000000000 22.000000000 2428.0000000 1.0000000000
 1646.8750000 45.435001373 -75.16600037 4.0000000000 22.000000000 2428.0000000 1.0000000000
 1647.0000000 45.438999176 -75.19699860 4.0000000000 22.000000000 2428.0000000 1.0000000000
 1647.1250000 45.466999054 -75.22699738 4.0000000000 22.000000000 2428.0000000 1.0000000000
 1647.2500000 45.594001770 -75.23200226 4.0000000000 22.000000000 2428.0000000 1.0000000000
 1647.3750000 45.657001495 -75.17099762 4.0000000000 22.000000000 2428.0000000 1.0000000000
 1647.5000000 45.116001129 -75.11900330 4.0000000000 22.000000000 2428.0000000 1.0000000000
 1647.6250000 43.682998657 -75.13899994 4.0000000000 22.000000000 2428.0000000 1.0000000000
 1647.7500000 41.986000061 -75.24900055 4.0000000000 22.000000000 2428.0000000 1.0000000000
 1647.8750000 40.605998993 -75.37500000 4.0000000000 22.000000000 2428.0000000 1.0000000000
 1648.0000000 40.217998505 -75.53299713 4.0000000000 22.000000000 2428.0000000 1.0000000000
 1648.1250000 40.723999023 -75.72000122 4.0000000000 22.000000000 2428.0000000 1.0000000000
 1648.2500000 41.862998962 -75.89600372 4.0000000000 22.000000000 2428.0000000 1.0000000000
