# LAS format log file from PETREL
# Project units are specified as depth units
#==================================================================
~Version information
VERS.   2.0:
WRAP.   NO:
#==================================================================
~Well
STRT .m      725.00000000 :
STOP .m      1752.0000000 :
STEP .m     0.12500000 :
NULL .        -999.250000 :
COMP.           : COMPANY
WELL.  5-0166   : WELL
FLD.            : FIELD
LOC.            : LOCATION
SRVC.           : SERVICE COMPANY
DATE.  2020-03-08 09:25:09   : Log Export Date {yyyy-MM-dd HH:mm:ss}
PROV.           : PROVINCE
UWI.      : UNIQUE WELL ID
API.            : API NUMBER
#==================================================================
~Curve
DEPT .m                   : DEPTH
RT .ohm.m                 : RT
SP .                      : SP
Fluids .                  : Fluids
POR .m3/m3                : POR
PERM .mD                  : PERM
Lith .                    : Lith
~Parameter
#==================================================================
~Ascii
# ...
 1692.8750000 33.443000793 -9999.000000 4.0000000000 16.000000000 147.00000000 1.0000000000
 1693.0000000 33.237998962 -9999.000000 4.0000000000 16.000000000 147.00000000 1.0000000000
 1693.1250000 30.966699600 -9999.000000 4.0000000000 16.000000000 147.00000000 1.0000000000
 1693.2500000 28.695499420 -9999.000000 4.0000000000 16.000000000 147.00000000 1.0000000000
 1693.3750000 26.424200058 -9999.000000 4.0000000000 16.000000000 147.00000000 1.0000000000
 1693.5000000 24.152999878 -9999.000000 4.0000000000 16.000000000 147.00000000 1.0000000000
 1693.6250000 22.256799698 -9999.000000 4.0000000000 16.000000000 147.00000000 1.0000000000
 1693.7500000 20.360500336 -9999.000000 4.0000000000 16.000000000 147.00000000 1.0000000000
 1693.8750000 18.464300156 -9999.000000 4.0000000000 16.000000000 147.00000000 1.0000000000
 1694.0000000 16.568000793 -9999.000000 4.0000000000 16.000000000 147.00000000 1.0000000000
 1694.1250000 16.011800766 -9999.000000 4.0000000000 16.000000000 147.00000000 1.0000000000
 1694.2500000 15.455499649 -9999.000000 4.0000000000 16.000000000 147.00000000 1.0000000000
 1694.3750000 14.899299622 -9999.000000 4.0000000000 16.000000000 147.00000000 1.0000000000
 1694.5000000 14.343000412 -9999.000000 4.0000000000 16.000000000 147.00000000 1.0000000000
 1694.6250000 14.924500465 -9999.000000 4.0000000000 16.000000000 147.00000000 1.0000000000
 1694.7500000 15.505999565 -9999.000000 4.0000000000 16.000000000 147.00000000 1.0000000000
 1694.8750000 16.087499619 -9999.000000 4.0000000000 16.000000000 147.00000000 1.0000000000
 1695.0000000 16.669000626 -9999.000000 4.0000000000 16.000000000 147.00000000 1.0000000000
 1695.1250000 21.699800491 -9999.000000 4.0000000000 16.000000000 147.00000000 1.0000000000
 1695.2500000 26.730499268 -9999.000000 4.0000000000 16.000000000 147.00000000 1.0000000000
 1695.3750000 31.761299133 -9999.000000 4.0000000000 16.000000000 147.00000000 1.0000000000
 1695.5000000 36.791999817 -9999.000000 4.0000000000 16.000000000 147.00000000 1.0000000000
 1695.6250000 31.805700302 -9999.000000 4.0000000000 16.000000000 147.00000000 1.0000000000
 1695.7500000 26.819499969 -9999.000000 4.0000000000 16.000000000 147.00000000 1.0000000000
 1695.8750000 21.833299637 -9999.000000 4.0000000000 16.000000000 147.00000000 1.0000000000
 1696.0000000 16.847000122 -9999.000000 4.0000000000 16.000000000 147.00000000 1.0000000000
 1696.1250000 22.975500107 -9999.000000 4.0000000000 16.000000000 147.00000000 1.0000000000
 1696.2500000 29.104000092 -9999.000000 4.0000000000 16.000000000 147.00000000 1.0000000000
 1696.3750000 35.232498169 -9999.000000 4.0000000000 16.000000000 147.00000000 1.0000000000
 1696.5000000 41.361000061 -9999.000000 4.0000000000 16.000000000 147.00000000 1.0000000000
 1696.6250000 39.525001526 -9999.000000 4.0000000000 16.000000000 147.00000000 1.0000000000
 1696.7500000 37.688999176 -9999.000000 4.0000000000 16.000000000 147.00000000 1.0000000000
 1696.8750000 35.853000641 -9999.000000 4.0000000000 16.000000000 147.00000000 1.0000000000
 1697.0000000 34.016998291 -9999.000000 4.0000000000 16.000000000 147.00000000 1.0000000000
 1697.1250000 35.340698242 -9999.000000 4.0000000000 16.000000000 147.00000000 1.0000000000
 1697.2500000 36.664501190 -9999.000000 4.0000000000 16.000000000 147.00000000 1.0000000000
 1697.3750000 37.988201141 -9999.000000 4.0000000000 16.000000000 147.00000000 1.0000000000
 1697.5000000 39.312000275 -9999.000000 4.0000000000 16.000000000 147.00000000 1.0000000000
 1697.6250000 38.541000366 -9999.000000 4.0000000000 16.000000000 147.00000000 1.0000000000
 1697.7500000 37.770000458 -9999.000000 4.0000000000 16.000000000 147.00000000 1.0000000000
 1697.8750000 36.999000549 -9999.000000 4.0000000000 16.000000000 147.00000000 1.0000000000
 1698.0000000 36.228000641 -9999.000000 4.0000000000 16.000000000 147.00000000 1.0000000000
 1698.1250000 36.465499878 -9999.000000 4.0000000000 16.000000000 147.00000000 1.0000000000
 1698.2500000 36.702999115 -9999.000000 4.0000000000 16.000000000 147.00000000 1.0000000000
 1698.3750000 36.940498352 -9999.000000 4.0000000000 16.000000000 147.00000000 1.0000000000
 1698.5000000 37.178001404 -9999.000000 4.0000000000 16.000000000 147.00000000 1.0000000000
 1698.6250000 36.231800079 -9999.000000 4.0000000000 16.000000000 147.00000000 1.0000000000
 1698.7500000 35.285499573 -9999.000000 4.0000000000 16.000000000 147.00000000 1.0000000000
 1698.8750000 34.339298248 -9999.000000 4.0000000000 16.000000000 147.00000000 1.0000000000
 1699.0000000 33.393001556 -9999.000000 4.0000000000 16.000000000 147.00000000 1.0000000000
 1699.1250000 33.409999847 -9999.000000 4.0000000000 16.000000000 147.00000000 1.0000000000
 1699.2500000 33.426998138 -9999.000000 4.0000000000 16.000000000 147.00000000 1.0000000000
 1699.3750000 33.444000244 -9999.000000 4.0000000000 16.000000000 147.00000000 1.0000000000
 1699.5000000 33.460998535 -9999.000000 4.0000000000 16.000000000 147.00000000 1.0000000000
 1699.6250000 34.295700073 -9999.000000 4.0000000000 16.000000000 147.00000000 1.0000000000
 1699.7500000 35.130500793 -9999.000000 4.0000000000 16.000000000 147.00000000 1.0000000000
 1699.8750000 35.965198517 -9999.000000 4.0000000000 16.000000000 147.00000000 1.0000000000
 1700.0000000 36.799999237 -9999.000000 4.0000000000 16.000000000 147.00000000 1.0000000000
 1700.1250000 46.742698669 -9999.000000 4.0000000000 16.000000000 147.00000000 1.0000000000
 1700.2500000 56.685501099 -9999.000000 4.0000000000 16.000000000 147.00000000 1.0000000000
 1700.3750000 66.628196716 -9999.000000 4.0000000000 16.000000000 147.00000000 1.0000000000
 1700.5000000 76.570999146 -9999.000000 4.0000000000 16.000000000 147.00000000 1.0000000000
 1700.6250000 77.210700989 -9999.000000 4.0000000000 16.000000000 147.00000000 1.0000000000
 1700.7500000 77.850502014 -9999.000000 4.0000000000 16.000000000 147.00000000 1.0000000000
 1700.8750000 78.490196228 -9999.000000 4.0000000000 16.000000000 147.00000000 1.0000000000
 1701.0000000 79.129997253 -9999.000000 4.0000000000 16.000000000 147.00000000 1.0000000000
 1701.1250000 75.134201050 -9999.000000 4.0000000000 16.000000000 147.00000000 1.0000000000
 1701.2500000 71.138496399 -9999.000000 4.0000000000 16.000000000 147.00000000 1.0000000000
 1701.3750000 67.142700195 -9999.000000 4.0000000000 16.000000000 147.00000000 1.0000000000
 1701.5000000 63.146999359 -9999.000000 4.0000000000 16.000000000 147.00000000 1.0000000000
 1701.6250000 54.484500885 -9999.000000 4.0000000000 16.000000000 147.00000000 1.0000000000
 1701.7500000 45.821998596 -9999.000000 4.0000000000 16.000000000 147.00000000 1.0000000000
 1701.8750000 37.159500122 -9999.000000 4.0000000000 16.000000000 147.00000000 1.0000000000
 1702.0000000 28.496999741 -9999.000000 4.0000000000 16.000000000 147.00000000 1.0000000000
 1702.1250000 28.740699768 -9999.000000 4.0000000000 16.000000000 147.00000000 1.0000000000
 1702.2500000 28.984500885 -9999.000000 4.0000000000 16.000000000 147.00000000 1.0000000000
 1702.3750000 29.228300095 -9999.000000 4.0000000000 16.000000000 147.00000000 1.0000000000
 1702.5000000 29.472000122 -9999.000000 4.0000000000 16.000000000 147.00000000 1.0000000000
 1702.6250000 25.891799927 -9999.000000 4.0000000000 16.000000000 147.00000000 1.0000000000
 1702.7500000 22.311500549 -9999.000000 4.0000000000 16.000000000 147.00000000 1.0000000000
 1702.8750000 18.731300354 -9999.000000 4.0000000000 16.000000000 147.00000000 1.0000000000
 1703.0000000 15.151000023 -9999.000000  -999.250000 0.1000000015 0.1000000015 0.0000000000
 1703.1250000 12.102499962 -9999.000000  -999.250000 0.1000000015 0.1000000015 0.0000000000
 1703.2500000 9.0539999008 -9999.000000  -999.250000 0.1000000015 0.1000000015 0.0000000000
 1703.3750000 6.0054998398 -9999.000000  -999.250000 0.1000000015 0.1000000015 0.0000000000
 1703.5000000 2.9570000172 -9999.000000  -999.250000 0.1000000015 0.1000000015 0.0000000000
 1703.6250000 3.1117999554 -9999.000000  -999.250000 0.1000000015 0.1000000015 0.0000000000
