# LAS format log file from PETREL
# Project units are specified as depth units
#==================================================================
~Version information
VERS.   2.0:
WRAP.   NO:
#==================================================================
~Well
STRT .m      1350.0000000 :
STOP .m      1720.0000000 :
STEP .m     0.12500000 :
NULL .        -999.250000 :
COMP.           : COMPANY
WELL.  5-172C   : WELL
FLD.            : FIELD
LOC.            : LOCATION
SRVC.           : SERVICE COMPANY
DATE.  2020-03-08 09:25:10   : Log Export Date {yyyy-MM-dd HH:mm:ss}
PROV.           : PROVINCE
UWI.      : UNIQUE WELL ID
API.            : API NUMBER
#==================================================================
~Curve
DEPT .m                   : DEPTH
RT .ohm.m                 : RT
SP .                      : SP
Fluids .                  : Fluids
POR .m3/m3                : POR
PERM .mD                  : PERM
Lith .                    : Lith
~Parameter
#==================================================================
~Ascii
# ...
 1534.8750000 2.6570000648 15.680999756  -999.250000 0.1000000015 0.1000000015 0.0000000000
 1535.0000000 2.9010000229 15.640999794  -999.250000 0.1000000015 0.1000000015 0.0000000000
 1535.1250000 3.1480000019 15.635999680  -999.250000 0.1000000015 0.1000000015 0.0000000000
 1535.2500000 3.3959999084 15.630000114  -999.250000 0.1000000015 0.1000000015 0.0000000000
 1535.3750000 3.6459999084 15.628999710  -999.250000 0.1000000015 0.1000000015 0.0000000000
 1535.5000000 3.7590000629 15.628000259  -999.250000 0.1000000015 0.1000000015 0.0000000000
 1535.6250000 3.8789999485 15.593000412  -999.250000 0.1000000015 0.1000000015 0.0000000000
 1535.7500000 3.9690001011 15.557000160  -999.250000 0.1000000015 0.1000000015 0.0000000000
 1535.8750000 4.0799999237 15.522000313  -999.250000 0.1000000015 0.1000000015 0.0000000000
 1536.0000000 4.0159997940 15.519000053  -999.250000 0.1000000015 0.1000000015 0.0000000000
 1536.1250000 3.4179999828 15.515000343  -999.250000 0.1000000015 0.1000000015 0.0000000000
 1536.2500000 2.8190000057 15.515000343  -999.250000 0.1000000015 0.1000000015 0.0000000000
 1536.3750000 1.8839999437 15.515000343  -999.250000 0.1000000015 0.1000000015 0.0000000000
 1536.5000000 0.9879999757 15.472999573  -999.250000 0.1000000015 0.1000000015 0.0000000000
 1536.6250000 0.3370000124 15.430000305  -999.250000 0.1000000015 0.1000000015 0.0000000000
 1536.7500000 0.1659999937 15.368000031  -999.250000 0.1000000015 0.1000000015 0.0000000000
 1536.8750000 0.0989999995 15.305999756  -999.250000 0.1000000015 0.1000000015 0.0000000000
 1537.0000000 0.1239999980 15.300999641  -999.250000 0.1000000015 0.1000000015 0.0000000000
 1537.1250000 0.1630000025 15.295999527  -999.250000 0.1000000015 0.1000000015 0.0000000000
 1537.2500000 0.2189999968 15.291000366  -999.250000 0.1000000015 0.1000000015 0.0000000000
 1537.3750000 0.3160000145 15.291000366  -999.250000 0.1000000015 0.1000000015 0.0000000000
 1537.5000000 0.4129999876 15.291000366  -999.250000 0.1000000015 0.1000000015 0.0000000000
 1537.6250000 0.6219999790 15.291000366  -999.250000 0.1000000015 0.1000000015 0.0000000000
 1537.7500000 0.8190000057 15.262999535  -999.250000 0.1000000015 0.1000000015 0.0000000000
 1537.8750000 0.9660000205 15.234000206  -999.250000 0.1000000015 0.1000000015 0.0000000000
 1538.0000000 1.1660000086 15.204999924  -999.250000 0.1000000015 0.1000000015 0.0000000000
 1538.1250000 1.3140000105 15.163000107  -999.250000 0.1000000015 0.1000000015 0.0000000000
 1538.2500000 1.4819999933 15.121000290  -999.250000 0.1000000015 0.1000000015 0.0000000000
 1538.3750000 1.6610000134 15.079000473  -999.250000 0.1000000015 0.1000000015 0.0000000000
 1538.5000000 1.8300000429 15.013999939  -999.250000 0.1000000015 0.1000000015 0.0000000000
 1538.6250000 2.0469999313 14.954000473  -999.250000 0.1000000015 0.1000000015 0.0000000000
 1538.7500000 2.5060000420 14.895000458  -999.250000 0.1000000015 0.1000000015 0.0000000000
 1538.8750000 2.7019999027 14.845000267  -999.250000 0.1000000015 0.1000000015 0.0000000000
 1539.0000000 2.8480000496 14.795000076  -999.250000 0.1000000015 0.1000000015 0.0000000000
 1539.1250000 2.9749999046 14.744000435  -999.250000 0.1000000015 0.1000000015 0.0000000000
 1539.2500000 3.0999999046 14.696999550  -999.250000 0.1000000015 0.1000000015 0.0000000000
 1539.3750000 2.8259999752 14.649999619  -999.250000 0.1000000015 0.1000000015 0.0000000000
 1539.5000000 2.5020000935 14.607999802  -999.250000 0.1000000015 0.1000000015 0.0000000000
 1539.6250000 2.2599999905 14.567000389  -999.250000 0.1000000015 0.1000000015 0.0000000000
 1539.7500000 2.1080000401 14.524999619  -999.250000 0.1000000015 0.1000000015 0.0000000000
 1539.8750000 1.9370000362 14.451000214  -999.250000 0.1000000015 0.1000000015 0.0000000000
 1540.0000000 1.7979999781 14.376999855  -999.250000 0.1000000015 0.1000000015 0.0000000000
 1540.1250000 1.7450000048 14.303000450  -999.250000 0.1000000015 0.1000000015 0.0000000000
 1540.2500000 1.7000000477 14.258999825  -999.250000 0.1000000015 0.1000000015 0.0000000000
 1540.3750000 1.6460000277 14.215000153  -999.250000 0.1000000015 0.1000000015 0.0000000000
 1540.5000000 1.6019999981 14.170999527  -999.250000 0.1000000015 0.1000000015 0.0000000000
 1540.6250000 1.5829999447 14.102000237  -999.250000 0.1000000015 0.1000000015 0.0000000000
 1540.7500000 1.5470000505 14.032999992  -999.250000 0.1000000015 0.1000000015 0.0000000000
 1540.8750000 1.5319999456 13.963999748  -999.250000 0.1000000015 0.1000000015 0.0000000000
 1541.0000000 1.5269999504 13.925000191  -999.250000 0.1000000015 0.1000000015 0.0000000000
 1541.1250000 1.5269999504 13.887000084  -999.250000 0.1000000015 0.1000000015 0.0000000000
 1541.2500000 1.5679999590 13.847999573  -999.250000 0.1000000015 0.1000000015 0.0000000000
 1541.3750000 1.7079999447 13.782999992  -999.250000 0.1000000015 0.1000000015 0.0000000000
 1541.5000000 1.8480000496 13.717000008  -999.250000 0.1000000015 0.1000000015 0.0000000000
 1541.6250000 2.0020000935 13.652000427  -999.250000 0.1000000015 0.1000000015 0.0000000000
 1541.7500000 2.1719999313 13.614000320  -999.250000 0.1000000015 0.1000000015 0.0000000000
 1541.8750000 2.3169999123 13.576999664  -999.250000 0.1000000015 0.1000000015 0.0000000000
 1542.0000000 2.4149999619 13.539999962  -999.250000 0.1000000015 0.1000000015 0.0000000000
 1542.1250000 2.5639998913 13.501999855  -999.250000 0.1000000015 0.1000000015 0.0000000000
 1542.2500000 2.6960000992 13.461999893  -999.250000 0.1000000015 0.1000000015 0.0000000000
 1542.3750000 2.8719999790 13.423000336  -999.250000 0.1000000015 0.1000000015 0.0000000000
 1542.5000000 3.0899999142 13.383000374  -999.250000 0.1000000015 0.1000000015 0.0000000000
 1542.6250000 3.2899999619 13.354000092  -999.250000 0.1000000015 0.1000000015 0.0000000000
 1542.7500000 3.4340000153 13.326000214  -999.250000 0.1000000015 0.1000000015 0.0000000000
 1542.8750000 3.6019999981 13.296999931  -999.250000 0.1000000015 0.1000000015 0.0000000000
 1543.0000000 3.4939999580 13.267999649  -999.250000 0.1000000015 0.1000000015 0.0000000000
 1543.1250000 3.1779999733 13.237000465  -999.250000 0.1000000015 0.1000000015 0.0000000000
 1543.2500000 2.9289999008 13.206000328  -999.250000 0.1000000015 0.1000000015 0.0000000000
 1543.3750000 2.5360000134 13.175999641  -999.250000 0.1000000015 0.1000000015 0.0000000000
 1543.5000000 2.1949999332 13.196999550  -999.250000 0.1000000015 0.1000000015 0.0000000000
 1543.6250000 1.9400000572 13.218000412  -999.250000 0.1000000015 0.1000000015 0.0000000000
 1543.7500000 1.7300000191 13.239999771  -999.250000 0.1000000015 0.1000000015 0.0000000000
 1543.8750000 1.5920000076 13.260999680  -999.250000 0.1000000015 0.1000000015 0.0000000000
 1544.0000000 1.4229999781 13.262000084  -999.250000 0.1000000015 0.1000000015 0.0000000000
 1544.1250000 1.2879999876 13.262999535  -999.250000 0.1000000015 0.1000000015 0.0000000000
 1544.2500000 1.3090000153 13.263999939  -999.250000 0.1000000015 0.1000000015 0.0000000000
 1544.3750000 1.3300000429 13.296999931  -999.250000 0.1000000015 0.1000000015 0.0000000000
 1544.5000000 1.3309999704 13.329000473  -999.250000 0.1000000015 0.1000000015 0.0000000000
 1544.6250000 1.3780000210 13.362000465  -999.250000 0.1000000015 0.1000000015 0.0000000000
 1544.7500000 1.4040000439 13.394000053  -999.250000 0.1000000015 0.1000000015 0.0000000000
 1544.8750000 1.4299999475 13.425999641  -999.250000 0.1000000015 0.1000000015 0.0000000000
 1545.0000000 1.5800000429 13.458000183  -999.250000 0.1000000015 0.1000000015 0.0000000000
 1545.1250000 1.7170000076 13.489999771  -999.250000 0.1000000015 0.1000000015 0.0000000000
 1545.2500000 1.8450000286 13.491000175  -999.250000 0.1000000015 0.1000000015 0.0000000000
 1545.3750000 2.0050001144 13.491999626  -999.250000 0.1000000015 0.1000000015 0.0000000000
 1545.5000000 2.2209999561 13.494000435  -999.250000 0.1000000015 0.1000000015 0.0000000000
 1545.6250000 2.3959999084 13.494999886  -999.250000 0.1000000015 0.1000000015 0.0000000000
