# LAS format log file from PETREL
# Project units are specified as depth units
#==================================================================
~Version information
VERS.   2.0:
WRAP.   NO:
#==================================================================
~Well
STRT .m      1350.0000000 :
STOP .m      1720.0000000 :
STEP .m     0.12500000 :
NULL .        -999.250000 :
COMP.           : COMPANY
WELL.  5-172C   : WELL
FLD.            : FIELD
LOC.            : LOCATION
SRVC.           : SERVICE COMPANY
DATE.  2020-03-08 09:25:10   : Log Export Date {yyyy-MM-dd HH:mm:ss}
PROV.           : PROVINCE
UWI.      : UNIQUE WELL ID
API.            : API NUMBER
#==================================================================
~Curve
DEPT .m                   : DEPTH
RT .ohm.m                 : RT
SP .                      : SP
Fluids .                  : Fluids
POR .m3/m3                : POR
PERM .mD                  : PERM
Lith .                    : Lith
~Parameter
#==================================================================
~Ascii
# ...
 1676.2500000 12.840999603 22.950000763 4.0000000000 22.000000000 1740.0000000 1.0000000000
 1676.3750000 12.579000473 22.948999405 4.0000000000 22.000000000 1740.0000000 1.0000000000
 1676.5000000 12.355999947 22.863000870 4.0000000000 22.000000000 1740.0000000 1.0000000000
 1676.6250000 12.248999596 22.844999313 4.0000000000 22.000000000 1740.0000000 1.0000000000
 1676.7500000 12.020999908 22.708999634 4.0000000000 22.000000000 1740.0000000 1.0000000000
 1676.8750000 11.970000267 22.570999146 4.0000000000 22.000000000 1740.0000000 1.0000000000
 1677.0000000 12.072999954 22.398000717 4.0000000000 22.000000000 1740.0000000 1.0000000000
 1677.1250000 12.175999641 22.169000626 4.0000000000 22.000000000 1740.0000000 1.0000000000
 1677.2500000 12.414999962 21.517999649 4.0000000000 22.000000000 1740.0000000 1.0000000000
 1677.3750000 12.654000282 13.652000427 4.0000000000 22.000000000 1740.0000000 1.0000000000
 1677.5000000 13.100000381 8.9650001526 4.0000000000 22.000000000 1740.0000000 1.0000000000
 1677.6250000 13.527000427 6.9559998512 4.0000000000 22.000000000 1740.0000000 1.0000000000
 1677.7500000 14.043000221 5.7350001335 4.0000000000 22.000000000 1740.0000000 1.0000000000
 1677.8750000 14.496999741 4.3340001106 4.0000000000 22.000000000 1740.0000000 1.0000000000
 1678.0000000 15.168999672 2.4489998817 4.0000000000 22.000000000 1740.0000000 1.0000000000
 1678.1250000 15.815999985 1.3300000429 4.0000000000 22.000000000 1740.0000000 1.0000000000
 1678.2500000 16.629999161 0.6629999876 4.0000000000 22.000000000 1740.0000000 1.0000000000
 1678.3750000 17.139999390 0.3370000124 4.0000000000 22.000000000 1740.0000000 1.0000000000
 1678.5000000 17.896999359 0.0989999995 4.0000000000 22.000000000 1740.0000000 1.0000000000
 1678.6250000 18.562000275 -0.026000001 4.0000000000 22.000000000 1740.0000000 1.0000000000
 1678.7500000 19.190000534 -0.071999997 4.0000000000 22.000000000 1740.0000000 1.0000000000
 1678.8750000 19.815000534 -0.097000003 4.0000000000 22.000000000 1740.0000000 1.0000000000
 1679.0000000 20.577999115 0.1180000007 4.0000000000 22.000000000 1740.0000000 1.0000000000
 1679.1250000 21.427999496 0.4620000124 4.0000000000 22.000000000 1740.0000000 1.0000000000
 1679.2500000 22.125000000 0.7620000243 4.0000000000 22.000000000 1740.0000000 1.0000000000
 1679.3750000 22.941999435 0.9610000253 4.0000000000 22.000000000 1740.0000000 1.0000000000
 1679.5000000 24.007999420 1.2200000286 4.0000000000 22.000000000 1740.0000000 1.0000000000
 1679.6250000 25.620000839 1.3710000515 4.0000000000 22.000000000 1740.0000000 1.0000000000
 1679.7500000 26.732000351 1.4420000315 4.0000000000 22.000000000 1740.0000000 1.0000000000
 1679.8750000 27.934999466 1.5290000439 4.0000000000 22.000000000 1740.0000000 1.0000000000
 1680.0000000 31.009000778 1.6219999790 4.0000000000 22.000000000 1740.0000000 1.0000000000
 1680.1250000 34.430000305 1.6710000038 4.0000000000 22.000000000 1740.0000000 1.0000000000
 1680.2500000 42.874000549 1.6950000525 4.0000000000 22.000000000 1740.0000000 1.0000000000
 1680.3750000 56.465999603 1.6210000515 4.0000000000 22.000000000 1740.0000000 1.0000000000
 1680.5000000 62.188999176 1.4579999447 4.0000000000 22.000000000 1740.0000000 1.0000000000
 1680.6250000 64.043998718 1.3919999599 4.0000000000 22.000000000 1740.0000000 1.0000000000
 1680.7500000 64.213996887 1.3040000200 4.0000000000 22.000000000 1740.0000000 1.0000000000
 1680.8750000 64.042999268 1.3519999981 4.0000000000 22.000000000 1740.0000000 1.0000000000
 1681.0000000 64.150001526 1.4359999895 4.0000000000 22.000000000 1740.0000000 1.0000000000
 1681.1250000 64.258003235 1.6369999647 4.0000000000 22.000000000 1740.0000000 1.0000000000
 1681.2500000 64.382003784 1.8279999495 4.0000000000 22.000000000 1740.0000000 1.0000000000
 1681.3750000 64.505996704 1.9910000563 4.0000000000 22.000000000 1740.0000000 1.0000000000
 1681.5000000 64.280998230 2.1740000248 4.0000000000 22.000000000 1740.0000000 1.0000000000
 1681.6250000 64.056999207 2.3329999447 4.0000000000 22.000000000 1740.0000000 1.0000000000
 1681.7500000 63.469001770 2.4809999466 4.0000000000 22.000000000 1740.0000000 1.0000000000
 1681.8750000 62.865001678 2.5820000172 4.0000000000 22.000000000 1740.0000000 1.0000000000
 1682.0000000 62.391998291 2.7109999657 4.0000000000 22.000000000 1740.0000000 1.0000000000
 1682.1250000 62.002998352 2.8919999599 4.0000000000 22.000000000 1740.0000000 1.0000000000
 1682.2500000 61.660999298 3.1419999599 4.0000000000 22.000000000 1740.0000000 1.0000000000
 1682.3750000 61.126998901 3.4219999313 4.0000000000 22.000000000 1740.0000000 1.0000000000
 1682.5000000 60.743999481 3.7039999962 4.0000000000 22.000000000 1740.0000000 1.0000000000
 1682.6250000 60.360000610 4.3920001984 4.0000000000 22.000000000 1740.0000000 1.0000000000
 1682.7500000 59.902999878 6.5250000954 4.0000000000 22.000000000 1740.0000000 1.0000000000
 1682.8750000 59.362998962 8.8730001450 4.0000000000 22.000000000 1740.0000000 1.0000000000
 1683.0000000 58.957000732 10.598999977 4.0000000000 22.000000000 1740.0000000 1.0000000000
 1683.1250000 58.546001434 11.479000092 4.0000000000 22.000000000 1740.0000000 1.0000000000
 1683.2500000 58.914001465 12.057999611 4.0000000000 22.000000000 1740.0000000 1.0000000000
 1683.3750000 59.453998566 12.310999870 4.0000000000 22.000000000 1740.0000000 1.0000000000
 1683.5000000 60.768001556 12.579999924 4.0000000000 22.000000000 1740.0000000 1.0000000000
 1683.6250000 62.680000305 12.776000023 4.0000000000 22.000000000 1740.0000000 1.0000000000
 1683.7500000 64.568000793 12.840999603 4.0000000000 22.000000000 1740.0000000 1.0000000000
 1683.8750000 66.233001709 12.770000458 4.0000000000 22.000000000 1740.0000000 1.0000000000
 1684.0000000 66.941001892 12.557999611 4.0000000000 22.000000000 1740.0000000 1.0000000000
 1684.1250000 67.649002075 12.366999626 4.0000000000 22.000000000 1740.0000000 1.0000000000
 1684.2500000 67.561996460 12.038000107 4.0000000000 22.000000000 1740.0000000 1.0000000000
 1684.3750000 67.385002136 11.656000137 4.0000000000 22.000000000 1740.0000000 1.0000000000
 1684.5000000 66.952003479 10.512000084 4.0000000000 22.000000000 1740.0000000 1.0000000000
 1684.6250000 59.198001862 9.3819999695 4.0000000000 22.000000000 1740.0000000 1.0000000000
 1684.7500000 43.979999542 8.1870002747 4.0000000000 22.000000000 1740.0000000 1.0000000000
 1684.8750000 42.710998535 7.1849999428 4.0000000000 22.000000000 1740.0000000 1.0000000000
 1685.0000000 41.443000793 6.5669999123 4.0000000000 22.000000000 1740.0000000 1.0000000000
 1685.1250000 40.353000641 5.9019999504 4.0000000000 22.000000000 1740.0000000 1.0000000000
 1685.2500000 39.181999207 5.3880000114 4.0000000000 22.000000000 1740.0000000 1.0000000000
 1685.3750000 38.164001465 5.0630002022 4.0000000000 22.000000000 1740.0000000 1.0000000000
 1685.5000000 37.445999146 4.6760001183 4.0000000000 22.000000000 1740.0000000 1.0000000000
 1685.6250000 37.016998291 4.2620000839 4.0000000000 22.000000000 1740.0000000 1.0000000000
 1685.7500000 36.956001282 4.1900000572 4.0000000000 22.000000000 1740.0000000 1.0000000000
 1685.8750000 37.073001862 4.1170001030 4.0000000000 22.000000000 1740.0000000 1.0000000000
 1686.0000000 37.249000549 4.2459998131 4.0000000000 22.000000000 1740.0000000 1.0000000000
 1686.1250000 37.340999603 4.3540000916 4.0000000000 22.000000000 1740.0000000 1.0000000000
 1686.2500000 37.374000549 4.4000000954 4.0000000000 22.000000000 1740.0000000 1.0000000000
 1686.3750000 37.507999420 4.4470000267 4.0000000000 22.000000000 1740.0000000 1.0000000000
 1686.5000000 37.643001556 4.6230001450 4.0000000000 22.000000000 1740.0000000 1.0000000000
 1686.6250000 37.648998260 4.8099999428 4.0000000000 22.000000000 1740.0000000 1.0000000000
 1686.7500000 37.654998779 4.9980001450 4.0000000000 22.000000000 1740.0000000 1.0000000000
 1686.8750000 37.655998230 5.2360000610 4.0000000000 22.000000000 1740.0000000 1.0000000000
 1687.0000000 37.526000977 5.5869998932 4.0000000000 22.000000000 1740.0000000 1.0000000000
