# LAS format log file from PETREL
# Project units are specified as depth units
#==================================================================
~Version information
VERS.   2.0:
WRAP.   NO:
#==================================================================
~Well
STRT .m      1300.0000000 :
STOP .m      1750.0000000 :
STEP .m     0.12500000 :
NULL .        -999.250000 :
COMP.           : COMPANY
WELL.  5-176   : WELL
FLD.            : FIELD
LOC.            : LOCATION
SRVC.           : SERVICE COMPANY
DATE.  2020-03-08 09:25:10   : Log Export Date {yyyy-MM-dd HH:mm:ss}
PROV.           : PROVINCE
UWI.      : UNIQUE WELL ID
API.            : API NUMBER
#==================================================================
~Curve
DEPT .m                   : DEPTH
RT .ohm.m                 : RT
SP .                      : SP
Fluids .                  : Fluids
POR .m3/m3                : POR
PERM .mD                  : PERM
Lith .                    : Lith
~Parameter
#==================================================================
~Ascii
# ...
 1354.3750000 4.7789998055 32.119998932  -999.250000 0.1000000015 0.1000000015 0.0000000000
 1354.5000000 5.1240000725 32.117000580  -999.250000 0.1000000015 0.1000000015 0.0000000000
 1354.6250000 6.3629999161 32.020999908  -999.250000 0.1000000015 0.1000000015 0.0000000000
 1354.7500000 7.0510001183 32.008998871  -999.250000 0.1000000015 0.1000000015 0.0000000000
 1354.8750000 7.7399997711 32.006000519  -999.250000 0.1000000015 0.1000000015 0.0000000000
 1355.0000000 8.1040000916 32.006000519  -999.250000 0.1000000015 0.1000000015 0.0000000000
 1355.1250000 8.4630002975 32.006000519  -999.250000 0.1000000015 0.1000000015 0.0000000000
 1355.2500000 8.8210000992 32.006999969  -999.250000 0.1000000015 0.1000000015 0.0000000000
 1355.3750000 9.3260002136 32.007999420  -999.250000 0.1000000015 0.1000000015 0.0000000000
 1355.5000000 9.8470001221 32.008998871  -999.250000 0.1000000015 0.1000000015 0.0000000000
 1355.6250000 11.064000130 31.965000153  -999.250000 0.1000000015 0.1000000015 0.0000000000
 1355.7500000 11.611000061 31.920999527  -999.250000 0.1000000015 0.1000000015 0.0000000000
 1355.8750000 11.916999817 31.905000687  -999.250000 0.1000000015 0.1000000015 0.0000000000
 1356.0000000 12.083999634 31.902000427  -999.250000 0.1000000015 0.1000000015 0.0000000000
 1356.1250000 12.039999962 31.899999619  -999.250000 0.1000000015 0.1000000015 0.0000000000
 1356.2500000 11.996000290 31.900999069  -999.250000 0.1000000015 0.1000000015 0.0000000000
 1356.3750000 9.3479995728 31.902000427  -999.250000 0.1000000015 0.1000000015 0.0000000000
 1356.5000000 7.7490000725 31.981000900  -999.250000 0.1000000015 0.1000000015 0.0000000000
 1356.6250000 6.6310000420 32.002998352  -999.250000 0.1000000015 0.1000000015 0.0000000000
 1356.7500000 5.4720001221 32.084999084  -999.250000 0.1000000015 0.1000000015 0.0000000000
 1356.8750000 5.0809998512 32.199001312  -999.250000 0.1000000015 0.1000000015 0.0000000000
 1357.0000000 4.8509998322 32.327999115  -999.250000 0.1000000015 0.1000000015 0.0000000000
 1357.1250000 4.7329998016 32.462001801  -999.250000 0.1000000015 0.1000000015 0.0000000000
 1357.2500000 4.6469998360 32.556999207  -999.250000 0.1000000015 0.1000000015 0.0000000000
 1357.3750000 4.5770001411 32.771999359  -999.250000 0.1000000015 0.1000000015 0.0000000000
 1357.5000000 4.5539999008 32.925998688  -999.250000 0.1000000015 0.1000000015 0.0000000000
 1357.6250000 4.5479998589 33.104999542  -999.250000 0.1000000015 0.1000000015 0.0000000000
 1357.7500000 4.5840001106 33.254001617  -999.250000 0.1000000015 0.1000000015 0.0000000000
 1357.8750000 4.5960001945 33.430999756  -999.250000 0.1000000015 0.1000000015 0.0000000000
 1358.0000000 4.5970001221 33.581001282  -999.250000 0.1000000015 0.1000000015 0.0000000000
 1358.1250000 4.6350002289 33.756000519  -999.250000 0.1000000015 0.1000000015 0.0000000000
 1358.2500000 4.6880002022 33.987998962  -999.250000 0.1000000015 0.1000000015 0.0000000000
 1358.3750000 4.9380002022 34.115001678  -999.250000 0.1000000015 0.1000000015 0.0000000000
 1358.5000000 4.9039998055 34.320999146  -999.250000 0.1000000015 0.1000000015 0.0000000000
 1358.6250000 4.8699998856 34.383998871  -999.250000 0.1000000015 0.1000000015 0.0000000000
 1358.7500000 4.7859997749 34.551998138  -999.250000 0.1000000015 0.1000000015 0.0000000000
 1358.8750000 4.6770000458 34.611000061  -999.250000 0.1000000015 0.1000000015 0.0000000000
 1359.0000000 4.4660000801 34.770999908  -999.250000 0.1000000015 0.1000000015 0.0000000000
 1359.1250000 3.8840000629 34.917999268  -999.250000 0.1000000015 0.1000000015 0.0000000000
 1359.2500000 3.2160000801 35.027999878  -999.250000 0.1000000015 0.1000000015 0.0000000000
 1359.3750000 2.7409999371 35.084999084  -999.250000 0.1000000015 0.1000000015 0.0000000000
 1359.5000000 2.6449999809 35.162998199  -999.250000 0.1000000015 0.1000000015 0.0000000000
 1359.6250000 2.5490000248 35.242000580  -999.250000 0.1000000015 0.1000000015 0.0000000000
 1359.7500000 2.5739998817 35.332000732  -999.250000 0.1000000015 0.1000000015 0.0000000000
 1359.8750000 2.6089999676 35.344001770  -999.250000 0.1000000015 0.1000000015 0.0000000000
 1360.0000000 2.6879999638 35.355998993  -999.250000 0.1000000015 0.1000000015 0.0000000000
 1360.1250000 2.7890000343 35.414001465  -999.250000 0.1000000015 0.1000000015 0.0000000000
 1360.2500000 2.9400000572 35.471000671  -999.250000 0.1000000015 0.1000000015 0.0000000000
 1360.3750000 3.1960000992 35.477001190  -999.250000 0.1000000015 0.1000000015 0.0000000000
 1360.5000000 3.1219999790 35.479000092  -999.250000 0.1000000015 0.1000000015 0.0000000000
 1360.6250000 2.9419999123 35.479999542  -999.250000 0.1000000015 0.1000000015 0.0000000000
 1360.7500000 2.8120000362 35.480998993  -999.250000 0.1000000015 0.1000000015 0.0000000000
 1360.8750000 2.6879999638 35.426998138  -999.250000 0.1000000015 0.1000000015 0.0000000000
 1361.0000000 2.6080000401 35.372001648  -999.250000 0.1000000015 0.1000000015 0.0000000000
 1361.1250000 2.6340000629 35.372001648  -999.250000 0.1000000015 0.1000000015 0.0000000000
 1361.2500000 2.7249999046 35.372001648  -999.250000 0.1000000015 0.1000000015 0.0000000000
 1361.3750000 2.8169999123 35.373001099  -999.250000 0.1000000015 0.1000000015 0.0000000000
 1361.5000000 2.9760000706 35.374000549  -999.250000 0.1000000015 0.1000000015 0.0000000000
 1361.6250000 3.0959999561 35.301998138  -999.250000 0.1000000015 0.1000000015 0.0000000000
 1361.7500000 3.2160000801 35.279998779  -999.250000 0.1000000015 0.1000000015 0.0000000000
 1361.8750000 3.2669999599 35.229000092  -999.250000 0.1000000015 0.1000000015 0.0000000000
 1362.0000000 3.1710000038 35.176998138  -999.250000 0.1000000015 0.1000000015 0.0000000000
 1362.1250000 3.0590000153 35.075000763  -999.250000 0.1000000015 0.1000000015 0.0000000000
 1362.2500000 2.9419999123 34.985000610  -999.250000 0.1000000015 0.1000000015 0.0000000000
 1362.3750000 2.8529999256 34.895000458  -999.250000 0.1000000015 0.1000000015 0.0000000000
 1362.5000000 2.7160000801 34.819999695  -999.250000 0.1000000015 0.1000000015 0.0000000000
 1362.6250000 2.6459999084 34.744998932  -999.250000 0.1000000015 0.1000000015 0.0000000000
 1362.7500000 2.6110000610 34.601001740  -999.250000 0.1000000015 0.1000000015 0.0000000000
 1362.8750000 2.5959999561 34.488998413  -999.250000 0.1000000015 0.1000000015 0.0000000000
 1363.0000000 2.6189999580 34.377998352  -999.250000 0.1000000015 0.1000000015 0.0000000000
 1363.1250000 2.7209999561 34.208000183  -999.250000 0.1000000015 0.1000000015 0.0000000000
 1363.2500000 2.8989999294 34.097999573  -999.250000 0.1000000015 0.1000000015 0.0000000000
 1363.3750000 3.1889998913 33.902999878  -999.250000 0.1000000015 0.1000000015 0.0000000000
 1363.5000000 3.6089999676 33.780998230  -999.250000 0.1000000015 0.1000000015 0.0000000000
 1363.6250000 3.7690000534 33.720001221  -999.250000 0.1000000015 0.1000000015 0.0000000000
 1363.7500000 3.9409999847 33.641998291  -999.250000 0.1000000015 0.1000000015 0.0000000000
 1363.8750000 4.0700001717 33.474998474  -999.250000 0.1000000015 0.1000000015 0.0000000000
 1364.0000000 4.1929998398 33.325000763  -999.250000 0.1000000015 0.1000000015 0.0000000000
 1364.1250000 4.3520002365 33.110000610  -999.250000 0.1000000015 0.1000000015 0.0000000000
 1364.2500000 4.4460000992 32.862998962  -999.250000 0.1000000015 0.1000000015 0.0000000000
 1364.3750000 4.5549998283 32.601001740 1.0000000000 16.000000000 608.00000000 1.0000000000
 1364.5000000 4.6420001984 32.334999084 1.0000000000 16.000000000 608.00000000 1.0000000000
 1364.6250000 4.6799998283 32.152000427 1.0000000000 16.000000000 608.00000000 1.0000000000
 1364.7500000 4.6950001717 31.909000397 1.0000000000 16.000000000 608.00000000 1.0000000000
 1364.8750000 4.6079998016 31.722000122 1.0000000000 16.000000000 608.00000000 1.0000000000
 1365.0000000 4.3689999580 31.483999252 1.0000000000 16.000000000 608.00000000 1.0000000000
 1365.1250000 4.0199999809 31.292999268 1.0000000000 16.000000000 608.00000000 1.0000000000
