# LAS format log file from PETREL
# Project units are specified as depth units
#==================================================================
~Version information
VERS.   2.0:
WRAP.   NO:
#==================================================================
~Well
STRT .m      1350.0000000 :
STOP .m      1730.0000000 :
STEP .m     0.12500000 :
NULL .        -999.250000 :
COMP.           : COMPANY
WELL.  5-172   : WELL
FLD.            : FIELD
LOC.            : LOCATION
SRVC.           : SERVICE COMPANY
DATE.  2020-03-08 09:25:10   : Log Export Date {yyyy-MM-dd HH:mm:ss}
PROV.           : PROVINCE
UWI.      : UNIQUE WELL ID
API.            : API NUMBER
#==================================================================
~Curve
DEPT .m                   : DEPTH
RT .ohm.m                 : RT
SP .                      : SP
Fluids .                  : Fluids
POR .m3/m3                : POR
PERM .mD                  : PERM
Lith .                    : Lith
~Parameter
#==================================================================
~Ascii
# ...
 1371.7500000 5.8159999847 24.313999176  -999.250000 0.1000000015 0.1000000015 0.0000000000
 1371.8750000 5.6669998169 24.318000793  -999.250000 0.1000000015 0.1000000015 0.0000000000
 1372.0000000 5.4930000305 24.322000504  -999.250000 0.1000000015 0.1000000015 0.0000000000
 1372.1250000 5.2550001144 24.326000214  -999.250000 0.1000000015 0.1000000015 0.0000000000
 1372.2500000 4.9229998589 24.628000259  -999.250000 0.1000000015 0.1000000015 0.0000000000
 1372.3750000 4.6810002327 24.923000336  -999.250000 0.1000000015 0.1000000015 0.0000000000
 1372.5000000 4.5370001793 25.113000870  -999.250000 0.1000000015 0.1000000015 0.0000000000
 1372.6250000 4.3930001259 25.329000473  -999.250000 0.1000000015 0.1000000015 0.0000000000
 1372.7500000 4.3629999161 25.531000137  -999.250000 0.1000000015 0.1000000015 0.0000000000
 1372.8750000 4.2989997864 25.708000183  -999.250000 0.1000000015 0.1000000015 0.0000000000
 1373.0000000 4.2680001259 25.943000793  -999.250000 0.1000000015 0.1000000015 0.0000000000
 1373.1250000 4.2550001144 26.149999619  -999.250000 0.1000000015 0.1000000015 0.0000000000
 1373.2500000 4.2529997826 26.399000168  -999.250000 0.1000000015 0.1000000015 0.0000000000
 1373.3750000 4.2540001869 26.844999313  -999.250000 0.1000000015 0.1000000015 0.0000000000
 1373.5000000 4.2859997749 27.080999374  -999.250000 0.1000000015 0.1000000015 0.0000000000
 1373.6250000 4.2979998589 27.260999680  -999.250000 0.1000000015 0.1000000015 0.0000000000
 1373.7500000 4.3359999657 27.440000534  -999.250000 0.1000000015 0.1000000015 0.0000000000
 1373.8750000 4.5749998093 27.719999313  -999.250000 0.1000000015 0.1000000015 0.0000000000
 1374.0000000 4.7270002365 27.930999756  -999.250000 0.1000000015 0.1000000015 0.0000000000
 1374.1250000 4.7919998169 28.188999176  -999.250000 0.1000000015 0.1000000015 0.0000000000
 1374.2500000 4.8099999428 28.370000839  -999.250000 0.1000000015 0.1000000015 0.0000000000
 1374.3750000 4.8179998398 28.545000076  -999.250000 0.1000000015 0.1000000015 0.0000000000
 1374.5000000 4.8220000267 28.721000671  -999.250000 0.1000000015 0.1000000015 0.0000000000
 1374.6250000 4.7750000954 28.870000839  -999.250000 0.1000000015 0.1000000015 0.0000000000
 1374.7500000 4.7280001640 28.945999146  -999.250000 0.1000000015 0.1000000015 0.0000000000
 1374.8750000 4.6799998283 29.037000656  -999.250000 0.1000000015 0.1000000015 0.0000000000
 1375.0000000 4.6199998856 29.084999084  -999.250000 0.1000000015 0.1000000015 0.0000000000
 1375.1250000 4.5260000229 29.187999725  -999.250000 0.1000000015 0.1000000015 0.0000000000
 1375.2500000 4.4939999580 29.226999283  -999.250000 0.1000000015 0.1000000015 0.0000000000
 1375.3750000 4.4889998436 29.159999847  -999.250000 0.1000000015 0.1000000015 0.0000000000
 1375.5000000 4.4889998436 29.048999786  -999.250000 0.1000000015 0.1000000015 0.0000000000
 1375.6250000 4.4910001755 28.955999374  -999.250000 0.1000000015 0.1000000015 0.0000000000
 1375.7500000 4.5659999847 28.837999344  -999.250000 0.1000000015 0.1000000015 0.0000000000
 1375.8750000 4.6420001984 28.707000732  -999.250000 0.1000000015 0.1000000015 0.0000000000
 1376.0000000 5.1669998169 28.531000137  -999.250000 0.1000000015 0.1000000015 0.0000000000
 1376.1250000 5.7630000114 28.382999420  -999.250000 0.1000000015 0.1000000015 0.0000000000
 1376.2500000 6.2150001526 28.285999298  -999.250000 0.1000000015 0.1000000015 0.0000000000
 1376.3750000 6.5430002213 28.163999557  -999.250000 0.1000000015 0.1000000015 0.0000000000
 1376.5000000 6.7379999161 28.031000137  -999.250000 0.1000000015 0.1000000015 0.0000000000
 1376.6250000 6.9330000877 27.868999481  -999.250000 0.1000000015 0.1000000015 0.0000000000
 1376.7500000 7.1149997711 27.707000732  -999.250000 0.1000000015 0.1000000015 0.0000000000
 1376.8750000 7.2969999313 27.506000519  -999.250000 0.1000000015 0.1000000015 0.0000000000
 1377.0000000 7.5209999084 27.339000702  -999.250000 0.1000000015 0.1000000015 0.0000000000
 1377.1250000 7.7300000191 27.225000381  -999.250000 0.1000000015 0.1000000015 0.0000000000
 1377.2500000 7.8810000420 27.030000687  -999.250000 0.1000000015 0.1000000015 0.0000000000
 1377.3750000 8.0920000076 26.791000366 1.0000000000 12.000000000 48.000000000 1.0000000000
 1377.5000000 8.3350000381 26.618999481 1.0000000000 12.000000000 48.000000000 1.0000000000
 1377.6250000 8.5699996948 26.514999390 1.0000000000 12.000000000 48.000000000 1.0000000000
 1377.7500000 8.8050003052 26.422000885 1.0000000000 12.000000000 48.000000000 1.0000000000
 1377.8750000 9.1569995880 26.381000519 1.0000000000 12.000000000 48.000000000 1.0000000000
 1378.0000000 9.3879995346 26.371000290 1.0000000000 12.000000000 48.000000000 1.0000000000
 1378.1250000 9.2010002136 26.443000793 1.0000000000 12.000000000 48.000000000 1.0000000000
 1378.2500000 8.8479995728 26.533000946 1.0000000000 12.000000000 48.000000000 1.0000000000
 1378.3750000 6.5139999390 26.579000473  -999.250000 0.1000000015 0.1000000015 0.0000000000
 1378.5000000 5.0619997978 26.767000198  -999.250000 0.1000000015 0.1000000015 0.0000000000
 1378.6250000 4.1970000267 26.829000473  -999.250000 0.1000000015 0.1000000015 0.0000000000
 1378.7500000 3.5899999142 26.995000839  -999.250000 0.1000000015 0.1000000015 0.0000000000
 1378.8750000 3.1070001125 27.159999847  -999.250000 0.1000000015 0.1000000015 0.0000000000
 1379.0000000 2.7550001144 27.187000275  -999.250000 0.1000000015 0.1000000015 0.0000000000
 1379.1250000 2.5699999332 27.198999405  -999.250000 0.1000000015 0.1000000015 0.0000000000
 1379.2500000 2.3880000114 27.204999924  -999.250000 0.1000000015 0.1000000015 0.0000000000
 1379.3750000 2.3599998951 27.208999634  -999.250000 0.1000000015 0.1000000015 0.0000000000
 1379.5000000 2.4760000706 27.214000702  -999.250000 0.1000000015 0.1000000015 0.0000000000
 1379.6250000 2.6029999256 27.218000412  -999.250000 0.1000000015 0.1000000015 0.0000000000
 1379.7500000 2.8190000057 27.222999573  -999.250000 0.1000000015 0.1000000015 0.0000000000
 1379.8750000 3.0510001183 27.226999283  -999.250000 0.1000000015 0.1000000015 0.0000000000
 1380.0000000 3.2839999199 27.231000900  -999.250000 0.1000000015 0.1000000015 0.0000000000
 1380.1250000 3.3010001183 27.236000061  -999.250000 0.1000000015 0.1000000015 0.0000000000
 1380.2500000 3.2569999695 27.167999268  -999.250000 0.1000000015 0.1000000015 0.0000000000
 1380.3750000 3.1649999619 27.084999084  -999.250000 0.1000000015 0.1000000015 0.0000000000
 1380.5000000 3.0720000267 26.975999832  -999.250000 0.1000000015 0.1000000015 0.0000000000
 1380.6250000 2.9570000172 26.851999283  -999.250000 0.1000000015 0.1000000015 0.0000000000
 1380.7500000 2.8420000076 26.629999161  -999.250000 0.1000000015 0.1000000015 0.0000000000
 1380.8750000 2.7409999371 26.267000198  -999.250000 0.1000000015 0.1000000015 0.0000000000
 1381.0000000 2.6410000324 25.988000870  -999.250000 0.1000000015 0.1000000015 0.0000000000
 1381.1250000 2.5269999504 25.615999222  -999.250000 0.1000000015 0.1000000015 0.0000000000
 1381.2500000 2.4690001011 25.211000443  -999.250000 0.1000000015 0.1000000015 0.0000000000
 1381.3750000 2.5030000210 24.670000076  -999.250000 0.1000000015 0.1000000015 0.0000000000
 1381.5000000 2.5840001106 24.128999710  -999.250000 0.1000000015 0.1000000015 0.0000000000
 1381.6250000 2.6679999828 23.650999069  -999.250000 0.1000000015 0.1000000015 0.0000000000
 1381.7500000 2.7530000210 23.208999634  -999.250000 0.1000000015 0.1000000015 0.0000000000
 1381.8750000 2.8389999866 22.708999634  -999.250000 0.1000000015 0.1000000015 0.0000000000
 1382.0000000 2.9679999352 22.270000458  -999.250000 0.1000000015 0.1000000015 0.0000000000
 1382.1250000 3.0680000782 21.893999100  -999.250000 0.1000000015 0.1000000015 0.0000000000
 1382.2500000 3.1659998894 21.583000183  -999.250000 0.1000000015 0.1000000015 0.0000000000
 1382.3750000 3.2639999390 21.298999786  -999.250000 0.1000000015 0.1000000015 0.0000000000
 1382.5000000 3.4279999733 21.025999069 1.0000000000 21.000000000 1947.0000000 1.0000000000
