# LAS format log file from PETREL
# Project units are specified as depth units
#==================================================================
~Version information
VERS.   2.0:
WRAP.   NO:
#==================================================================
~Well
STRT .m      1385.0000000 :
STOP .m      1720.0000000 :
STEP .m     0.12500000 :
NULL .        -999.250000 :
COMP.           : COMPANY
WELL.  5-17C2   : WELL
FLD.            : FIELD
LOC.            : LOCATION
SRVC.           : SERVICE COMPANY
DATE.  2020-03-08 09:25:10   : Log Export Date {yyyy-MM-dd HH:mm:ss}
PROV.           : PROVINCE
UWI.      : UNIQUE WELL ID
API.            : API NUMBER
#==================================================================
~Curve
DEPT .m                   : DEPTH
RT .ohm.m                 : RT
SP .                      : SP
Fluids .                  : Fluids
POR .m3/m3                : POR
PERM .mD                  : PERM
Lith .                    : Lith
~Parameter
#==================================================================
~Ascii
# ...
 1678.6250000 28.285999298 61.692001343 3.0000000000 15.000000000 222.00000000 1.0000000000
 1678.7500000 29.759000778 61.669998169 3.0000000000 15.000000000 222.00000000 1.0000000000
 1678.8750000 31.184999466 61.658000946 3.0000000000 15.000000000 222.00000000 1.0000000000
 1679.0000000 32.373001099 61.654998779 3.0000000000 15.000000000 222.00000000 1.0000000000
 1679.1250000 33.351001740 61.666000366 3.0000000000 15.000000000 222.00000000 1.0000000000
 1679.2500000 34.106998444 61.687999725 3.0000000000 15.000000000 222.00000000 1.0000000000
 1679.3750000 34.785999298 61.726001740 3.0000000000 15.000000000 222.00000000 1.0000000000
 1679.5000000 35.554000854 61.759998322 3.0000000000 15.000000000 222.00000000 1.0000000000
 1679.6250000 36.618999481 61.792999268 3.0000000000 15.000000000 222.00000000 1.0000000000
 1679.7500000 37.884998322 61.814998627 3.0000000000 15.000000000 222.00000000 1.0000000000
 1679.8750000 39.183998108 61.833999634 3.0000000000 15.000000000 222.00000000 1.0000000000
 1680.0000000 40.189998627 61.852001190 3.0000000000 15.000000000 222.00000000 1.0000000000
 1680.1250000 40.848999023 61.868000031 3.0000000000 15.000000000 222.00000000 1.0000000000
 1680.2500000 41.301998138 61.883998871 3.0000000000 15.000000000 222.00000000 1.0000000000
 1680.3750000 41.738998413 61.884998322 3.0000000000 15.000000000 222.00000000 1.0000000000
 1680.5000000 42.352001190 61.877998352 3.0000000000 15.000000000 222.00000000 1.0000000000
 1680.6250000 43.183998108 61.861000061 3.0000000000 15.000000000 222.00000000 1.0000000000
 1680.7500000 44.243000031 61.854000092 3.0000000000 15.000000000 222.00000000 1.0000000000
 1680.8750000 45.474998474 61.852001190 3.0000000000 15.000000000 222.00000000 1.0000000000
 1681.0000000 46.861999512 61.855998993 3.0000000000 15.000000000 222.00000000 1.0000000000
 1681.1250000 48.321998596 61.859001160 3.0000000000 15.000000000 222.00000000 1.0000000000
 1681.2500000 49.706001282 61.861000061 3.0000000000 15.000000000 222.00000000 1.0000000000
 1681.3750000 51.138000488 61.861000061 3.0000000000 15.000000000 222.00000000 1.0000000000
 1681.5000000 52.660999298 61.861000061 3.0000000000 15.000000000 222.00000000 1.0000000000
 1681.6250000 54.361000061 61.875000000 3.0000000000 15.000000000 222.00000000 1.0000000000
 1681.7500000 56.266998291 61.895999908 3.0000000000 15.000000000 222.00000000 1.0000000000
 1681.8750000 58.199001312 61.925998688 3.0000000000 15.000000000 222.00000000 1.0000000000
 1682.0000000 60.022998810 61.956001282 3.0000000000 15.000000000 222.00000000 1.0000000000
 1682.1250000 61.573001862 61.992000580 3.0000000000 15.000000000 222.00000000 1.0000000000
 1682.2500000 62.895000458 62.034999847 3.0000000000 15.000000000 222.00000000 1.0000000000
 1682.3750000 63.833000183 62.089000702 3.0000000000 15.000000000 222.00000000 1.0000000000
 1682.5000000 64.297996521 62.164001465 3.0000000000 15.000000000 222.00000000 1.0000000000
 1682.6250000 64.230003357 62.251998901 3.0000000000 15.000000000 222.00000000 1.0000000000
 1682.7500000 63.728000641 62.359001160 3.0000000000 15.000000000 222.00000000 1.0000000000
 1682.8750000 62.676998138 62.473999023 3.0000000000 15.000000000 222.00000000 1.0000000000
 1683.0000000 61.127998352 62.613998413 3.0000000000 15.000000000 222.00000000 1.0000000000
 1683.1250000 59.104000092 62.779998779 3.0000000000 15.000000000 222.00000000 1.0000000000
 1683.2500000 56.826000214 62.986000061 3.0000000000 15.000000000 222.00000000 1.0000000000
 1683.3750000 54.455001831 63.229999542 3.0000000000 15.000000000 222.00000000 1.0000000000
 1683.5000000 52.282001495 63.495998383 3.0000000000 15.000000000 222.00000000 1.0000000000
 1683.6250000 50.305000305 63.770999908 3.0000000000 15.000000000 222.00000000 1.0000000000
 1683.7500000 48.430000305 64.038002014 3.0000000000 15.000000000 222.00000000 1.0000000000
 1683.8750000 46.743999481 64.306999207 3.0000000000 15.000000000 222.00000000 1.0000000000
 1684.0000000 45.332000732 64.571998596 3.0000000000 15.000000000 222.00000000 1.0000000000
 1684.1250000 44.205001831 64.846000671  -999.250000 0.1000000015 0.1000000015 0.0000000000
 1684.2500000 43.152999878 65.112998962  -999.250000 0.1000000015 0.1000000015 0.0000000000
 1684.3750000 42.000000000 65.376998901  -999.250000 0.1000000015 0.1000000015 0.0000000000
 1684.5000000 40.748001099 65.624000549  -999.250000 0.1000000015 0.1000000015 0.0000000000
 1684.6250000 39.262001038 65.852996826  -999.250000 0.1000000015 0.1000000015 0.0000000000
 1684.7500000 37.446998596 66.067001343  -999.250000 0.1000000015 0.1000000015 0.0000000000
 1684.8750000 35.077999115 66.258003235  -999.250000 0.1000000015 0.1000000015 0.0000000000
 1685.0000000 31.978000641 66.425003052  -999.250000 0.1000000015 0.1000000015 0.0000000000
 1685.1250000 27.798000336 66.545997620  -999.250000 0.1000000015 0.1000000015 0.0000000000
 1685.2500000 22.475000381 66.628997803  -999.250000 0.1000000015 0.1000000015 0.0000000000
 1685.3750000 16.816999435 66.666999817  -999.250000 0.1000000015 0.1000000015 0.0000000000
 1685.5000000 11.529000282 66.668998718  -999.250000 0.1000000015 0.1000000015 0.0000000000
 1685.6250000 7.6189999580 66.652000427  -999.250000 0.1000000015 0.1000000015 0.0000000000
 1685.7500000 5.2100000381 66.626998901  -999.250000 0.1000000015 0.1000000015 0.0000000000
 1685.8750000 4.0040001869 66.602996826  -999.250000 0.1000000015 0.1000000015 0.0000000000
 1686.0000000 3.4500000477 66.571998596  -999.250000 0.1000000015 0.1000000015 0.0000000000
 1686.1250000 3.2460000515 66.538002014  -999.250000 0.1000000015 0.1000000015 0.0000000000
 1686.2500000 3.2349998951 66.489997864  -999.250000 0.1000000015 0.1000000015 0.0000000000
 1686.3750000 3.3499999046 66.443000793  -999.250000 0.1000000015 0.1000000015 0.0000000000
 1686.5000000 3.5130000114 66.397003174  -999.250000 0.1000000015 0.1000000015 0.0000000000
 1686.6250000 3.6949999332 66.356002808  -999.250000 0.1000000015 0.1000000015 0.0000000000
 1686.7500000 3.8680000305 66.319999695  -999.250000 0.1000000015 0.1000000015 0.0000000000
 1686.8750000 4.0110001564 66.283996582  -999.250000 0.1000000015 0.1000000015 0.0000000000
 1687.0000000 4.0989999771 66.252998352  -999.250000 0.1000000015 0.1000000015 0.0000000000
 1687.1250000 4.1789999008 66.225997925  -999.250000 0.1000000015 0.1000000015 0.0000000000
 1687.2500000 4.2389998436 66.218002319  -999.250000 0.1000000015 0.1000000015 0.0000000000
 1687.3750000 4.2829999924 66.217002869  -999.250000 0.1000000015 0.1000000015 0.0000000000
 1687.5000000 4.3000001907 66.222999573  -999.250000 0.1000000015 0.1000000015 0.0000000000
 1687.6250000 4.3210000992 66.223999023  -999.250000 0.1000000015 0.1000000015 0.0000000000
 1687.7500000 4.3680000305 66.220001221  -999.250000 0.1000000015 0.1000000015 0.0000000000
 1687.8750000 4.4060001373 66.208000183  -999.250000 0.1000000015 0.1000000015 0.0000000000
 1688.0000000 4.2950000763 66.191001892  -999.250000 0.1000000015 0.1000000015 0.0000000000
 1688.1250000 4.0100002289 66.179000854  -999.250000 0.1000000015 0.1000000015 0.0000000000
 1688.2500000 3.6110000610 66.166000366  -999.250000 0.1000000015 0.1000000015 0.0000000000
 1688.3750000 3.1519999504 66.163002014  -999.250000 0.1000000015 0.1000000015 0.0000000000
 1688.5000000 2.7520000935 66.154998779  -999.250000 0.1000000015 0.1000000015 0.0000000000
 1688.6250000 2.4730000496 66.146003723  -999.250000 0.1000000015 0.1000000015 0.0000000000
 1688.7500000 2.3110001087 66.132003784  -999.250000 0.1000000015 0.1000000015 0.0000000000
 1688.8750000 2.2579998970 66.119003296  -999.250000 0.1000000015 0.1000000015 0.0000000000
 1689.0000000 2.2860000134 66.107002258  -999.250000 0.1000000015 0.1000000015 0.0000000000
 1689.1250000 2.3810000420 66.092002869  -999.250000 0.1000000015 0.1000000015 0.0000000000
 1689.2500000 2.4860000610 66.077003479  -999.250000 0.1000000015 0.1000000015 0.0000000000
 1689.3750000 2.5580000877 66.053001404  -999.250000 0.1000000015 0.1000000015 0.0000000000
