# LAS format log file from PETREL
# Project units are specified as depth units
#==================================================================
~Version information
VERS.   2.0:
WRAP.   NO:
#==================================================================
~Well
STRT .m      1300.0000000 :
STOP .m      1750.0000000 :
STEP .m     0.12500000 :
NULL .        -999.250000 :
COMP.           : COMPANY
WELL.  5-176   : WELL
FLD.            : FIELD
LOC.            : LOCATION
SRVC.           : SERVICE COMPANY
DATE.  2020-03-08 09:25:10   : Log Export Date {yyyy-MM-dd HH:mm:ss}
PROV.           : PROVINCE
UWI.      : UNIQUE WELL ID
API.            : API NUMBER
#==================================================================
~Curve
DEPT .m                   : DEPTH
RT .ohm.m                 : RT
SP .                      : SP
Fluids .                  : Fluids
POR .m3/m3                : POR
PERM .mD                  : PERM
Lith .                    : Lith
~Parameter
#==================================================================
~Ascii
# ...
 1484.8750000 2.2260000706 30.922000885  -999.250000 0.1000000015 0.1000000015 0.0000000000
 1485.0000000 2.2260000706 30.923000336  -999.250000 0.1000000015 0.1000000015 0.0000000000
 1485.1250000 2.2260000706 30.923999786  -999.250000 0.1000000015 0.1000000015 0.0000000000
 1485.2500000 2.2260000706 30.903999329  -999.250000 0.1000000015 0.1000000015 0.0000000000
 1485.3750000 2.1930000782 30.884000778  -999.250000 0.1000000015 0.1000000015 0.0000000000
 1485.5000000 2.1449999809 30.864000320  -999.250000 0.1000000015 0.1000000015 0.0000000000
 1485.6250000 2.1289999485 30.843999863  -999.250000 0.1000000015 0.1000000015 0.0000000000
 1485.7500000 2.1600000858 30.823999405  -999.250000 0.1000000015 0.1000000015 0.0000000000
 1485.8750000 2.2449998856 30.822999954  -999.250000 0.1000000015 0.1000000015 0.0000000000
 1486.0000000 2.3529999256 30.822999954  -999.250000 0.1000000015 0.1000000015 0.0000000000
 1486.1250000 2.4700000286 30.822000504  -999.250000 0.1000000015 0.1000000015 0.0000000000
 1486.2500000 2.6459999084 30.822000504  -999.250000 0.1000000015 0.1000000015 0.0000000000
 1486.3750000 2.8110001087 30.820999146  -999.250000 0.1000000015 0.1000000015 0.0000000000
 1486.5000000 2.9760000706 30.802999496  -999.250000 0.1000000015 0.1000000015 0.0000000000
 1486.6250000 3.1240000725 30.784999847  -999.250000 0.1000000015 0.1000000015 0.0000000000
 1486.7500000 3.2890000343 30.767000198  -999.250000 0.1000000015 0.1000000015 0.0000000000
 1486.8750000 3.4260001183 30.749000549  -999.250000 0.1000000015 0.1000000015 0.0000000000
 1487.0000000 3.4900000095 30.731000900  -999.250000 0.1000000015 0.1000000015 0.0000000000
 1487.1250000 3.3559999466 30.712999344  -999.250000 0.1000000015 0.1000000015 0.0000000000
 1487.2500000 3.1229999065 30.712999344  -999.250000 0.1000000015 0.1000000015 0.0000000000
 1487.3750000 2.8880000114 30.714000702  -999.250000 0.1000000015 0.1000000015 0.0000000000
 1487.5000000 2.7839999199 30.715000153  -999.250000 0.1000000015 0.1000000015 0.0000000000
 1487.6250000 2.6700000763 30.715999603  -999.250000 0.1000000015 0.1000000015 0.0000000000
 1487.7500000 2.5120000839 30.716999054  -999.250000 0.1000000015 0.1000000015 0.0000000000
 1487.8750000 2.4219999313 30.718000412  -999.250000 0.1000000015 0.1000000015 0.0000000000
 1488.0000000 2.3510000706 30.718999863  -999.250000 0.1000000015 0.1000000015 0.0000000000
 1488.1250000 2.2890000343 30.719999313  -999.250000 0.1000000015 0.1000000015 0.0000000000
 1488.2500000 2.2290000916 30.721000671  -999.250000 0.1000000015 0.1000000015 0.0000000000
 1488.3750000 2.2269999981 30.722000122  -999.250000 0.1000000015 0.1000000015 0.0000000000
 1488.5000000 2.2269999981 30.722999573  -999.250000 0.1000000015 0.1000000015 0.0000000000
 1488.6250000 2.1919999123 30.724000931  -999.250000 0.1000000015 0.1000000015 0.0000000000
 1488.7500000 2.1530001163 30.725000381  -999.250000 0.1000000015 0.1000000015 0.0000000000
 1488.8750000 2.1140000820 30.725999832  -999.250000 0.1000000015 0.1000000015 0.0000000000
 1489.0000000 2.0659999847 30.728000641  -999.250000 0.1000000015 0.1000000015 0.0000000000
 1489.1250000 2.0469999313 30.729000092  -999.250000 0.1000000015 0.1000000015 0.0000000000
 1489.2500000 2.0280001163 30.729999542  -999.250000 0.1000000015 0.1000000015 0.0000000000
 1489.3750000 2.0629999638 30.731000900  -999.250000 0.1000000015 0.1000000015 0.0000000000
 1489.5000000 2.0739998817 30.732000351  -999.250000 0.1000000015 0.1000000015 0.0000000000
 1489.6250000 2.0759999752 30.732999802  -999.250000 0.1000000015 0.1000000015 0.0000000000
 1489.7500000 2.1140000820 30.733999252  -999.250000 0.1000000015 0.1000000015 0.0000000000
 1489.8750000 2.1250000000 30.735000610  -999.250000 0.1000000015 0.1000000015 0.0000000000
 1490.0000000 2.1270000935 30.736000061  -999.250000 0.1000000015 0.1000000015 0.0000000000
 1490.1250000 2.1649999619 30.736999512  -999.250000 0.1000000015 0.1000000015 0.0000000000
 1490.2500000 2.1749999523 30.738000870  -999.250000 0.1000000015 0.1000000015 0.0000000000
 1490.3750000 2.1770000458 30.739000320  -999.250000 0.1000000015 0.1000000015 0.0000000000
 1490.5000000 2.1970000267 30.739999771  -999.250000 0.1000000015 0.1000000015 0.0000000000
 1490.6250000 2.2170000076 30.740999222  -999.250000 0.1000000015 0.1000000015 0.0000000000
 1490.7500000 2.2239999771 30.742000580  -999.250000 0.1000000015 0.1000000015 0.0000000000
 1490.8750000 2.2669999599 30.743000031  -999.250000 0.1000000015 0.1000000015 0.0000000000
 1491.0000000 2.2739999294 30.743999481  -999.250000 0.1000000015 0.1000000015 0.0000000000
 1491.1250000 2.3139998913 30.745000839  -999.250000 0.1000000015 0.1000000015 0.0000000000
 1491.2500000 2.3259999752 30.746000290  -999.250000 0.1000000015 0.1000000015 0.0000000000
 1491.3750000 2.3280000687 30.746999741  -999.250000 0.1000000015 0.1000000015 0.0000000000
 1491.5000000 2.3280000687 30.747999191  -999.250000 0.1000000015 0.1000000015 0.0000000000
 1491.6250000 2.3280000687 30.750000000  -999.250000 0.1000000015 0.1000000015 0.0000000000
 1491.7500000 2.3280000687 30.750999451  -999.250000 0.1000000015 0.1000000015 0.0000000000
 1491.8750000 2.3289999962 30.752000809  -999.250000 0.1000000015 0.1000000015 0.0000000000
 1492.0000000 2.2850000858 30.767000198  -999.250000 0.1000000015 0.1000000015 0.0000000000
 1492.1250000 2.2799999714 30.783000946  -999.250000 0.1000000015 0.1000000015 0.0000000000
 1492.2500000 2.2790000439 30.798000336  -999.250000 0.1000000015 0.1000000015 0.0000000000
 1492.3750000 2.2530000210 30.813999176  -999.250000 0.1000000015 0.1000000015 0.0000000000
 1492.5000000 2.2400000095 30.829999924  -999.250000 0.1000000015 0.1000000015 0.0000000000
 1492.6250000 2.2330000401 30.844999313  -999.250000 0.1000000015 0.1000000015 0.0000000000
 1492.7500000 2.2100000381 30.861000061  -999.250000 0.1000000015 0.1000000015 0.0000000000
 1492.8750000 2.1860001087 30.864000320  -999.250000 0.1000000015 0.1000000015 0.0000000000
 1493.0000000 2.1819999218 30.867000580  -999.250000 0.1000000015 0.1000000015 0.0000000000
 1493.1250000 2.1779999733 30.870000839  -999.250000 0.1000000015 0.1000000015 0.0000000000
 1493.2500000 2.1410000324 30.872999191  -999.250000 0.1000000015 0.1000000015 0.0000000000
 1493.3750000 2.1099998951 30.877000809  -999.250000 0.1000000015 0.1000000015 0.0000000000
 1493.5000000 2.0789999962 30.878000259  -999.250000 0.1000000015 0.1000000015 0.0000000000
 1493.6250000 2.0390000343 30.878999710  -999.250000 0.1000000015 0.1000000015 0.0000000000
 1493.7500000 2.0329999924 30.881000519  -999.250000 0.1000000015 0.1000000015 0.0000000000
 1493.8750000 2.0269999504 30.881999969  -999.250000 0.1000000015 0.1000000015 0.0000000000
 1494.0000000 2.0269999504 30.882999420  -999.250000 0.1000000015 0.1000000015 0.0000000000
 1494.1250000 2.0269999504 30.885000229  -999.250000 0.1000000015 0.1000000015 0.0000000000
 1494.2500000 2.0269999504 30.885999680  -999.250000 0.1000000015 0.1000000015 0.0000000000
 1494.3750000 2.0280001163 30.886999130  -999.250000 0.1000000015 0.1000000015 0.0000000000
 1494.5000000 2.0280001163 30.888000488  -999.250000 0.1000000015 0.1000000015 0.0000000000
 1494.6250000 2.0280001163 30.888999939  -999.250000 0.1000000015 0.1000000015 0.0000000000
 1494.7500000 2.0280001163 30.871999741  -999.250000 0.1000000015 0.1000000015 0.0000000000
 1494.8750000 2.0280001163 30.854000092  -999.250000 0.1000000015 0.1000000015 0.0000000000
 1495.0000000 2.0280001163 30.836999893  -999.250000 0.1000000015 0.1000000015 0.0000000000
 1495.1250000 2.0480000973 30.819000244  -999.250000 0.1000000015 0.1000000015 0.0000000000
 1495.2500000 2.0690000057 30.802000046  -999.250000 0.1000000015 0.1000000015 0.0000000000
 1495.3750000 2.1140000820 30.784999847  -999.250000 0.1000000015 0.1000000015 0.0000000000
 1495.5000000 2.1549999714 30.763000488  -999.250000 0.1000000015 0.1000000015 0.0000000000
 1495.6250000 2.1949999332 30.742000580  -999.250000 0.1000000015 0.1000000015 0.0000000000
