# LAS format log file from PETREL
# Project units are specified as depth units
#==================================================================
~Version information
VERS.   2.0:
WRAP.   NO:
#==================================================================
~Well
STRT .m      1300.0000000 :
STOP .m      1750.0000000 :
STEP .m     0.12500000 :
NULL .        -999.250000 :
COMP.           : COMPANY
WELL.  5-176   : WELL
FLD.            : FIELD
LOC.            : LOCATION
SRVC.           : SERVICE COMPANY
DATE.  2020-03-08 09:25:10   : Log Export Date {yyyy-MM-dd HH:mm:ss}
PROV.           : PROVINCE
UWI.      : UNIQUE WELL ID
API.            : API NUMBER
#==================================================================
~Curve
DEPT .m                   : DEPTH
RT .ohm.m                 : RT
SP .                      : SP
Fluids .                  : Fluids
POR .m3/m3                : POR
PERM .mD                  : PERM
Lith .                    : Lith
~Parameter
#==================================================================
~Ascii
# ...
 1582.7500000 1.8020000458 30.791000366  -999.250000 0.1000000015 0.1000000015 0.0000000000
 1582.8750000 1.9780000448 30.774000168  -999.250000 0.1000000015 0.1000000015 0.0000000000
 1583.0000000 2.1170001030 30.756999969  -999.250000 0.1000000015 0.1000000015 0.0000000000
 1583.1250000 2.2569999695 30.739999771  -999.250000 0.1000000015 0.1000000015 0.0000000000
 1583.2500000 2.5230000019 30.724000931  -999.250000 0.1000000015 0.1000000015 0.0000000000
 1583.3750000 2.7739999294 30.704999924  -999.250000 0.1000000015 0.1000000015 0.0000000000
 1583.5000000 2.9330000877 30.687000275  -999.250000 0.1000000015 0.1000000015 0.0000000000
 1583.6250000 3.0409998894 30.669000626  -999.250000 0.1000000015 0.1000000015 0.0000000000
 1583.7500000 3.1879999638 30.650999069  -999.250000 0.1000000015 0.1000000015 0.0000000000
 1583.8750000 3.3540000916 30.632999420  -999.250000 0.1000000015 0.1000000015 0.0000000000
 1584.0000000 3.3310000896 30.614999771  -999.250000 0.1000000015 0.1000000015 0.0000000000
 1584.1250000 3.2869999409 30.594999313  -999.250000 0.1000000015 0.1000000015 0.0000000000
 1584.2500000 3.2709999084 30.576000214  -999.250000 0.1000000015 0.1000000015 0.0000000000
 1584.3750000 3.2239999771 30.555999756  -999.250000 0.1000000015 0.1000000015 0.0000000000
 1584.5000000 3.1830000877 30.535999298  -999.250000 0.1000000015 0.1000000015 0.0000000000
 1584.6250000 3.0920000076 30.517000198  -999.250000 0.1000000015 0.1000000015 0.0000000000
 1584.7500000 2.8949999809 30.496000290  -999.250000 0.1000000015 0.1000000015 0.0000000000
 1584.8750000 2.7139999866 30.474000931  -999.250000 0.1000000015 0.1000000015 0.0000000000
 1585.0000000 2.5480000973 30.452999115  -999.250000 0.1000000015 0.1000000015 0.0000000000
 1585.1250000 2.3819999695 30.431999207  -999.250000 0.1000000015 0.1000000015 0.0000000000
 1585.2500000 2.2049999237 30.410999298  -999.250000 0.1000000015 0.1000000015 0.0000000000
 1585.3750000 2.0269999504 30.391000748  -999.250000 0.1000000015 0.1000000015 0.0000000000
 1585.5000000 1.8500000238 30.371000290  -999.250000 0.1000000015 0.1000000015 0.0000000000
 1585.6250000 1.7089999914 30.350999832  -999.250000 0.1000000015 0.1000000015 0.0000000000
 1585.7500000 1.6460000277 30.330999374  -999.250000 0.1000000015 0.1000000015 0.0000000000
 1585.8750000 1.5850000381 30.312000275  -999.250000 0.1000000015 0.1000000015 0.0000000000
 1586.0000000 1.5399999619 30.291999817  -999.250000 0.1000000015 0.1000000015 0.0000000000
 1586.1250000 1.4869999886 30.271999359  -999.250000 0.1000000015 0.1000000015 0.0000000000
 1586.2500000 1.4309999943 30.252000809  -999.250000 0.1000000015 0.1000000015 0.0000000000
 1586.3750000 1.3719999790 30.232999802  -999.250000 0.1000000015 0.1000000015 0.0000000000
 1586.5000000 1.3289999962 30.212999344  -999.250000 0.1000000015 0.1000000015 0.0000000000
 1586.6250000 1.3109999895 30.193000793  -999.250000 0.1000000015 0.1000000015 0.0000000000
 1586.7500000 1.3450000286 30.190000534  -999.250000 0.1000000015 0.1000000015 0.0000000000
 1586.8750000 1.4479999542 30.187000275  -999.250000 0.1000000015 0.1000000015 0.0000000000
 1587.0000000 1.9539999962 30.184000015  -999.250000 0.1000000015 0.1000000015 0.0000000000
 1587.1250000 2.3989999294 30.180999756  -999.250000 0.1000000015 0.1000000015 0.0000000000
 1587.2500000 2.7300000191 30.167999268  -999.250000 0.1000000015 0.1000000015 0.0000000000
 1587.3750000 2.9730000496 30.153999329  -999.250000 0.1000000015 0.1000000015 0.0000000000
 1587.5000000 3.0899999142 30.139999390  -999.250000 0.1000000015 0.1000000015 0.0000000000
 1587.6250000 3.2079999447 30.125999451  -999.250000 0.1000000015 0.1000000015 0.0000000000
 1587.7500000 3.2409999371 30.113000870  -999.250000 0.1000000015 0.1000000015 0.0000000000
 1587.8750000 3.2569999695 30.099000931  -999.250000 0.1000000015 0.1000000015 0.0000000000
 1588.0000000 3.0230000019 30.084999084  -999.250000 0.1000000015 0.1000000015 0.0000000000
 1588.1250000 2.9400000572 30.063999176  -999.250000 0.1000000015 0.1000000015 0.0000000000
 1588.2500000 3.0050001144 30.041999817  -999.250000 0.1000000015 0.1000000015 0.0000000000
 1588.3750000 3.1170001030 30.020000458  -999.250000 0.1000000015 0.1000000015 0.0000000000
 1588.5000000 3.2339999676 29.997999191  -999.250000 0.1000000015 0.1000000015 0.0000000000
 1588.6250000 3.3519999981 29.975999832  -999.250000 0.1000000015 0.1000000015 0.0000000000
 1588.7500000 3.4709999561 29.975000381  -999.250000 0.1000000015 0.1000000015 0.0000000000
 1588.8750000 3.6300001144 29.974000931  -999.250000 0.1000000015 0.1000000015 0.0000000000
 1589.0000000 3.8029999733 29.972000122  -999.250000 0.1000000015 0.1000000015 0.0000000000
 1589.1250000 3.9530000687 29.971000671  -999.250000 0.1000000015 0.1000000015 0.0000000000
 1589.2500000 4.0869998932 29.968999863  -999.250000 0.1000000015 0.1000000015 0.0000000000
 1589.3750000 4.1779999733 29.948999405  -999.250000 0.1000000015 0.1000000015 0.0000000000
 1589.5000000 4.2039999962 29.927999496  -999.250000 0.1000000015 0.1000000015 0.0000000000
 1589.6250000 3.9349999428 29.908000946  -999.250000 0.1000000015 0.1000000015 0.0000000000
 1589.7500000 3.0659999847 29.886999130  -999.250000 0.1000000015 0.1000000015 0.0000000000
 1589.8750000 2.6059999466 29.867000580  -999.250000 0.1000000015 0.1000000015 0.0000000000
 1590.0000000 2.1789999008 29.865999222  -999.250000 0.1000000015 0.1000000015 0.0000000000
 1590.1250000 1.8120000362 29.864999771  -999.250000 0.1000000015 0.1000000015 0.0000000000
 1590.2500000 1.6529999971 29.864000320  -999.250000 0.1000000015 0.1000000015 0.0000000000
 1590.3750000 1.5679999590 29.863000870  -999.250000 0.1000000015 0.1000000015 0.0000000000
 1590.5000000 1.4789999723 29.841999054  -999.250000 0.1000000015 0.1000000015 0.0000000000
 1590.6250000 1.4359999895 29.822000504  -999.250000 0.1000000015 0.1000000015 0.0000000000
 1590.7500000 1.4199999571 29.801000595  -999.250000 0.1000000015 0.1000000015 0.0000000000
 1590.8750000 1.4960000515 29.780000687  -999.250000 0.1000000015 0.1000000015 0.0000000000
 1591.0000000 1.5629999638 29.760000229  -999.250000 0.1000000015 0.1000000015 0.0000000000
 1591.1250000 1.5859999657 29.738000870  -999.250000 0.1000000015 0.1000000015 0.0000000000
 1591.2500000 1.6260000467 29.716999054  -999.250000 0.1000000015 0.1000000015 0.0000000000
 1591.3750000 1.7079999447 29.695999146  -999.250000 0.1000000015 0.1000000015 0.0000000000
 1591.5000000 1.7879999876 29.673999786  -999.250000 0.1000000015 0.1000000015 0.0000000000
 1591.6250000 1.8860000372 29.652999878  -999.250000 0.1000000015 0.1000000015 0.0000000000
 1591.7500000 1.9329999685 29.652999878  -999.250000 0.1000000015 0.1000000015 0.0000000000
 1591.8750000 1.9199999571 29.652000427  -999.250000 0.1000000015 0.1000000015 0.0000000000
 1592.0000000 1.9140000343 29.652000427  -999.250000 0.1000000015 0.1000000015 0.0000000000
 1592.1250000 1.8789999485 29.650999069  -999.250000 0.1000000015 0.1000000015 0.0000000000
 1592.2500000 1.8289999962 29.650999069  -999.250000 0.1000000015 0.1000000015 0.0000000000
 1592.3750000 1.7869999409 29.632999420  -999.250000 0.1000000015 0.1000000015 0.0000000000
 1592.5000000 1.7680000067 29.614000320  -999.250000 0.1000000015 0.1000000015 0.0000000000
 1592.6250000 1.7250000238 29.596000671  -999.250000 0.1000000015 0.1000000015 0.0000000000
 1592.7500000 1.7150000334 29.577999115  -999.250000 0.1000000015 0.1000000015 0.0000000000
 1592.8750000 1.6770000458 29.559999466  -999.250000 0.1000000015 0.1000000015 0.0000000000
 1593.0000000 1.6629999876 29.538999557  -999.250000 0.1000000015 0.1000000015 0.0000000000
 1593.1250000 1.7009999752 29.517999649  -999.250000 0.1000000015 0.1000000015 0.0000000000
 1593.2500000 1.7079999447 29.496999741  -999.250000 0.1000000015 0.1000000015 0.0000000000
 1593.3750000 1.7849999666 29.475999832  -999.250000 0.1000000015 0.1000000015 0.0000000000
 1593.5000000 1.8489999771 29.454999924  -999.250000 0.1000000015 0.1000000015 0.0000000000
