# LAS format log file from PETREL
# Project units are specified as depth units
#==================================================================
~Version information
VERS.   2.0:
WRAP.   NO:
#==================================================================
~Well
STRT .m      1350.0000000 :
STOP .m      1720.0000000 :
STEP .m     0.12500000 :
NULL .        -999.250000 :
COMP.           : COMPANY
WELL.  5-172C   : WELL
FLD.            : FIELD
LOC.            : LOCATION
SRVC.           : SERVICE COMPANY
DATE.  2020-03-08 09:25:10   : Log Export Date {yyyy-MM-dd HH:mm:ss}
PROV.           : PROVINCE
UWI.      : UNIQUE WELL ID
API.            : API NUMBER
#==================================================================
~Curve
DEPT .m                   : DEPTH
RT .ohm.m                 : RT
SP .                      : SP
Fluids .                  : Fluids
POR .m3/m3                : POR
PERM .mD                  : PERM
Lith .                    : Lith
~Parameter
#==================================================================
~Ascii
# ...
 1382.6250000 4.0050001144 20.354000092 1.0000000000 18.000000000 1072.0000000 1.0000000000
 1382.7500000 4.3099999428 20.527999878 1.0000000000 18.000000000 1072.0000000 1.0000000000
 1382.8750000 4.7639999390 20.715999603 1.0000000000 18.000000000 1072.0000000 1.0000000000
 1383.0000000 5.2439999580 20.048999786 1.0000000000 18.000000000 1072.0000000 1.0000000000
 1383.1250000 5.9099998474 19.426000595 1.0000000000 18.000000000 1072.0000000 1.0000000000
 1383.2500000 6.8249998093 18.802999496 1.0000000000 18.000000000 1072.0000000 1.0000000000
 1383.3750000 7.3819999695 17.972999573 1.0000000000 18.000000000 1072.0000000 1.0000000000
 1383.5000000 7.9130001068 16.988000870 1.0000000000 18.000000000 1072.0000000 1.0000000000
 1383.6250000 9.1120004654 15.918000221 1.0000000000 18.000000000 1072.0000000 1.0000000000
 1383.7500000 10.345999718 14.515000343 1.0000000000 18.000000000 1072.0000000 1.0000000000
 1383.8750000 11.399999619 12.092000008 1.0000000000 18.000000000 1072.0000000 1.0000000000
 1384.0000000 12.270000458 10.800000191 1.0000000000 18.000000000 1072.0000000 1.0000000000
 1384.1250000 12.784999847 9.7720003128 1.0000000000 18.000000000 1072.0000000 1.0000000000
 1384.2500000 13.019000053 8.9779996872 1.0000000000 18.000000000 1072.0000000 1.0000000000
 1384.3750000 13.309000015 8.4630002975 1.0000000000 18.000000000 1072.0000000 1.0000000000
 1384.5000000 13.524000168 8.0649995804 1.0000000000 18.000000000 1072.0000000 1.0000000000
 1384.6250000 13.852999687 7.8689999580 1.0000000000 18.000000000 1072.0000000 1.0000000000
 1384.7500000 14.223999977 7.8410000801 1.0000000000 18.000000000 1072.0000000 1.0000000000
 1384.8750000 14.493000031 7.8940000534 1.0000000000 18.000000000 1072.0000000 1.0000000000
 1385.0000000 14.722999573 7.9910001755 1.0000000000 18.000000000 1072.0000000 1.0000000000
 1385.1250000 15.062000275 8.1490001678 1.0000000000 18.000000000 1072.0000000 1.0000000000
 1385.2500000 15.076000214 8.3690004349 1.0000000000 18.000000000 1072.0000000 1.0000000000
 1385.3750000 14.755999565 8.8640003204 1.0000000000 18.000000000 1072.0000000 1.0000000000
 1385.5000000 14.217000008 9.4119997025 1.0000000000 18.000000000 1072.0000000 1.0000000000
 1385.6250000 13.059000015 10.850999832 1.0000000000 18.000000000 1072.0000000 1.0000000000
 1385.7500000 12.973999977 12.467000008 1.0000000000 18.000000000 1072.0000000 1.0000000000
 1385.8750000 13.052000046 14.269000053 1.0000000000 18.000000000 1072.0000000 1.0000000000
 1386.0000000 13.194999695 14.640999794 1.0000000000 18.000000000 1072.0000000 1.0000000000
 1386.1250000 13.411999702 14.892000198 1.0000000000 18.000000000 1072.0000000 1.0000000000
 1386.2500000 14.118000031 15.159999847 1.0000000000 18.000000000 1072.0000000 1.0000000000
 1386.3750000 14.684000015 15.435999870 1.0000000000 18.000000000 1072.0000000 1.0000000000
 1386.5000000 15.135999680 15.625000000 1.0000000000 18.000000000 1072.0000000 1.0000000000
 1386.6250000 15.461999893 15.734999657 1.0000000000 18.000000000 1072.0000000 1.0000000000
 1386.7500000 16.117000580 15.774000168 1.0000000000 18.000000000 1072.0000000 1.0000000000
 1386.8750000 16.618000031 15.675000191 1.0000000000 18.000000000 1072.0000000 1.0000000000
 1387.0000000 16.622999191 15.489999771 1.0000000000 18.000000000 1072.0000000 1.0000000000
 1387.1250000 16.628000259 15.229999542 1.0000000000 18.000000000 1072.0000000 1.0000000000
 1387.2500000 16.573999405 15.003999710 1.0000000000 18.000000000 1072.0000000 1.0000000000
 1387.3750000 16.514999390 14.777000427 1.0000000000 18.000000000 1072.0000000 1.0000000000
 1387.5000000 16.412000656 14.428999901 1.0000000000 18.000000000 1072.0000000 1.0000000000
 1387.6250000 16.264999390 14.123000145 1.0000000000 18.000000000 1072.0000000 1.0000000000
 1387.7500000 16.059000015 13.828000069 1.0000000000 18.000000000 1072.0000000 1.0000000000
 1387.8750000 15.824000359 13.541000366 1.0000000000 18.000000000 1072.0000000 1.0000000000
 1388.0000000 15.649999619 13.432000160 1.0000000000 18.000000000 1072.0000000 1.0000000000
 1388.1250000 15.383000374 13.404000282 1.0000000000 18.000000000 1072.0000000 1.0000000000
 1388.2500000 15.020000458 13.402999878 1.0000000000 18.000000000 1072.0000000 1.0000000000
 1388.3750000 14.656000137 13.402000427 1.0000000000 18.000000000 1072.0000000 1.0000000000
 1388.5000000 16.673999786 13.456000328 1.0000000000 18.000000000 1072.0000000 1.0000000000
 1388.6250000 19.531999588 13.510000229 1.0000000000 18.000000000 1072.0000000 1.0000000000
 1388.7500000 22.558000565 13.447999954 1.0000000000 18.000000000 1072.0000000 1.0000000000
 1388.8750000 24.205999374 13.194000244 1.0000000000 18.000000000 1072.0000000 1.0000000000
 1389.0000000 26.580999374 12.923000336 1.0000000000 18.000000000 1072.0000000 1.0000000000
 1389.1250000 27.854000092 12.644000053 1.0000000000 18.000000000 1072.0000000 1.0000000000
 1389.2500000 28.419000626 12.362000465 1.0000000000 18.000000000 1072.0000000 1.0000000000
 1389.3750000 27.622999191 12.227000237 1.0000000000 18.000000000 1072.0000000 1.0000000000
 1389.5000000 26.978000641 12.185999870 1.0000000000 18.000000000 1072.0000000 1.0000000000
 1389.6250000 26.489999771 12.239999771 1.0000000000 18.000000000 1072.0000000 1.0000000000
 1389.7500000 25.909000397 12.515000343 1.0000000000 18.000000000 1072.0000000 1.0000000000
 1389.8750000 25.308000565 12.795999527 1.0000000000 18.000000000 1072.0000000 1.0000000000
 1390.0000000 24.809999466 13.079000473 1.0000000000 18.000000000 1072.0000000 1.0000000000
 1390.1250000 24.004999161 13.560000420 1.0000000000 18.000000000 1072.0000000 1.0000000000
 1390.2500000 23.604000092 14.961000443 1.0000000000 18.000000000 1072.0000000 1.0000000000
 1390.3750000 23.273000717 15.486000061 1.0000000000 18.000000000 1072.0000000 1.0000000000
 1390.5000000 22.979999542 15.854999542 1.0000000000 18.000000000 1072.0000000 1.0000000000
 1390.6250000 22.711000443 16.114000320 1.0000000000 18.000000000 1072.0000000 1.0000000000
 1390.7500000 22.454999924 16.319999695 1.0000000000 18.000000000 1072.0000000 1.0000000000
 1390.8750000 22.291000366 16.458000183 1.0000000000 18.000000000 1072.0000000 1.0000000000
 1391.0000000 22.198999405 16.533000946 1.0000000000 18.000000000 1072.0000000 1.0000000000
 1391.1250000 22.084999084 16.562999725 1.0000000000 18.000000000 1072.0000000 1.0000000000
 1391.2500000 22.329999924 16.579000473 1.0000000000 18.000000000 1072.0000000 1.0000000000
 1391.3750000 22.705999374 16.514999390 1.0000000000 18.000000000 1072.0000000 1.0000000000
 1391.5000000 23.340999603 16.325000763 1.0000000000 18.000000000 1072.0000000 1.0000000000
 1391.6250000 24.228000641 16.065000534 1.0000000000 18.000000000 1072.0000000 1.0000000000
 1391.7500000 25.600999832 14.901000023 1.0000000000 18.000000000 1072.0000000 1.0000000000
 1391.8750000 28.076000214 13.762000084 1.0000000000 18.000000000 1072.0000000 1.0000000000
 1392.0000000 28.368999481 12.078000069 1.0000000000 18.000000000 1072.0000000 1.0000000000
 1392.1250000 28.660999298 11.154000282 1.0000000000 18.000000000 1072.0000000 1.0000000000
 1392.2500000 28.854999542 10.343000412 1.0000000000 18.000000000 1072.0000000 1.0000000000
 1392.3750000 29.004999161 9.3769998550 1.0000000000 18.000000000 1072.0000000 1.0000000000
 1392.5000000 29.143999100 8.3999996185 1.0000000000 18.000000000 1072.0000000 1.0000000000
 1392.6250000 29.246999741 7.5980000496 1.0000000000 18.000000000 1072.0000000 1.0000000000
 1392.7500000 29.361000061 6.7620000839 1.0000000000 18.000000000 1072.0000000 1.0000000000
 1392.8750000 29.513000488 5.7820000648 1.0000000000 18.000000000 1072.0000000 1.0000000000
 1393.0000000 29.686000824 4.1900000572 1.0000000000 18.000000000 1072.0000000 1.0000000000
 1393.1250000 29.868999481 3.1300001144 1.0000000000 18.000000000 1072.0000000 1.0000000000
 1393.2500000 29.885000229 2.1849999428 1.0000000000 18.000000000 1072.0000000 1.0000000000
 1393.3750000 29.492000580 1.4750000238 1.0000000000 18.000000000 1072.0000000 1.0000000000
