# LAS format log file from PETREL
# Project units are specified as depth units
#==================================================================
~Version information
VERS.   2.0:
WRAP.   NO:
#==================================================================
~Well
STRT .m      1350.0000000 :
STOP .m      1730.0000000 :
STEP .m     0.12500000 :
NULL .        -999.250000 :
COMP.           : COMPANY
WELL.  5-172   : WELL
FLD.            : FIELD
LOC.            : LOCATION
SRVC.           : SERVICE COMPANY
DATE.  2020-03-08 09:25:10   : Log Export Date {yyyy-MM-dd HH:mm:ss}
PROV.           : PROVINCE
UWI.      : UNIQUE WELL ID
API.            : API NUMBER
#==================================================================
~Curve
DEPT .m                   : DEPTH
RT .ohm.m                 : RT
SP .                      : SP
Fluids .                  : Fluids
POR .m3/m3                : POR
PERM .mD                  : PERM
Lith .                    : Lith
~Parameter
#==================================================================
~Ascii
# ...
 1534.8750000 2.4149999619 30.393999100  -999.250000 0.1000000015 0.1000000015 0.0000000000
 1535.0000000 2.5369999409 30.398000717  -999.250000 0.1000000015 0.1000000015 0.0000000000
 1535.1250000 2.6630001068 30.402000427  -999.250000 0.1000000015 0.1000000015 0.0000000000
 1535.2500000 2.7909998894 30.406999588  -999.250000 0.1000000015 0.1000000015 0.0000000000
 1535.3750000 2.8859999180 30.410999298  -999.250000 0.1000000015 0.1000000015 0.0000000000
 1535.5000000 3.0020000935 30.416000366  -999.250000 0.1000000015 0.1000000015 0.0000000000
 1535.6250000 3.1740000248 30.420000076  -999.250000 0.1000000015 0.1000000015 0.0000000000
 1535.7500000 3.3299999237 30.423999786  -999.250000 0.1000000015 0.1000000015 0.0000000000
 1535.8750000 3.4860000610 30.370000839  -999.250000 0.1000000015 0.1000000015 0.0000000000
 1536.0000000 3.5910000801 30.353000641  -999.250000 0.1000000015 0.1000000015 0.0000000000
 1536.1250000 3.6960000992 30.336000443  -999.250000 0.1000000015 0.1000000015 0.0000000000
 1536.2500000 3.7490000725 30.291999817  -999.250000 0.1000000015 0.1000000015 0.0000000000
 1536.3750000 3.8020000458 30.247999191  -999.250000 0.1000000015 0.1000000015 0.0000000000
 1536.5000000 3.8050000668 30.239000320  -999.250000 0.1000000015 0.1000000015 0.0000000000
 1536.6250000 3.8069999218 30.229999542  -999.250000 0.1000000015 0.1000000015 0.0000000000
 1536.7500000 3.6889998913 30.232000351  -999.250000 0.1000000015 0.1000000015 0.0000000000
 1536.8750000 3.5020000935 30.236000061  -999.250000 0.1000000015 0.1000000015 0.0000000000
 1537.0000000 3.2090001106 30.239999771  -999.250000 0.1000000015 0.1000000015 0.0000000000
 1537.1250000 2.8719999790 30.243999481  -999.250000 0.1000000015 0.1000000015 0.0000000000
 1537.2500000 2.3359999657 30.249000549  -999.250000 0.1000000015 0.1000000015 0.0000000000
 1537.3750000 2.1459999084 30.253000259  -999.250000 0.1000000015 0.1000000015 0.0000000000
 1537.5000000 2.0940001011 30.208999634  -999.250000 0.1000000015 0.1000000015 0.0000000000
 1537.6250000 2.0799999237 30.165000916  -999.250000 0.1000000015 0.1000000015 0.0000000000
 1537.7500000 2.1300001144 30.158000946  -999.250000 0.1000000015 0.1000000015 0.0000000000
 1537.8750000 2.1879999638 30.107999802  -999.250000 0.1000000015 0.1000000015 0.0000000000
 1538.0000000 2.2360000610 30.058000565  -999.250000 0.1000000015 0.1000000015 0.0000000000
 1538.1250000 2.3229999542 30.056999207  -999.250000 0.1000000015 0.1000000015 0.0000000000
 1538.2500000 2.3980000019 30.055999756  -999.250000 0.1000000015 0.1000000015 0.0000000000
 1538.3750000 2.5079998970 30.023000717  -999.250000 0.1000000015 0.1000000015 0.0000000000
 1538.5000000 2.6329998970 29.989999771  -999.250000 0.1000000015 0.1000000015 0.0000000000
 1538.6250000 2.7360000610 29.958000183  -999.250000 0.1000000015 0.1000000015 0.0000000000
 1538.7500000 2.8399999142 29.893999100  -999.250000 0.1000000015 0.1000000015 0.0000000000
 1538.8750000 2.8110001087 29.877000809  -999.250000 0.1000000015 0.1000000015 0.0000000000
 1539.0000000 2.7999999523 29.860000610  -999.250000 0.1000000015 0.1000000015 0.0000000000
 1539.1250000 2.6760001183 29.861000061  -999.250000 0.1000000015 0.1000000015 0.0000000000
 1539.2500000 2.5209999084 29.864000320  -999.250000 0.1000000015 0.1000000015 0.0000000000
 1539.3750000 2.3489999771 29.867000580  -999.250000 0.1000000015 0.1000000015 0.0000000000
 1539.5000000 2.2850000858 29.871000290  -999.250000 0.1000000015 0.1000000015 0.0000000000
 1539.6250000 2.1849999428 29.875000000  -999.250000 0.1000000015 0.1000000015 0.0000000000
 1539.7500000 2.1329998970 29.878999710  -999.250000 0.1000000015 0.1000000015 0.0000000000
 1539.8750000 2.0769999027 29.884000778  -999.250000 0.1000000015 0.1000000015 0.0000000000
 1540.0000000 2.0659999847 29.888000488  -999.250000 0.1000000015 0.1000000015 0.0000000000
 1540.1250000 2.0639998913 29.892999649  -999.250000 0.1000000015 0.1000000015 0.0000000000
 1540.2500000 2.1300001144 29.896999359  -999.250000 0.1000000015 0.1000000015 0.0000000000
 1540.3750000 2.2730000019 29.900999069  -999.250000 0.1000000015 0.1000000015 0.0000000000
 1540.5000000 2.4519999027 29.906000137  -999.250000 0.1000000015 0.1000000015 0.0000000000
 1540.6250000 2.5840001106 29.857000351  -999.250000 0.1000000015 0.1000000015 0.0000000000
 1540.7500000 2.7149999142 29.809000015  -999.250000 0.1000000015 0.1000000015 0.0000000000
 1540.8750000 3.0030000210 29.808000565  -999.250000 0.1000000015 0.1000000015 0.0000000000
 1541.0000000 3.2379999161 29.868000031  -999.250000 0.1000000015 0.1000000015 0.0000000000
 1541.1250000 3.3940000534 29.948999405  -999.250000 0.1000000015 0.1000000015 0.0000000000
 1541.2500000 3.4969999790 30.031000137  -999.250000 0.1000000015 0.1000000015 0.0000000000
 1541.3750000 3.5539999008 30.127000809  -999.250000 0.1000000015 0.1000000015 0.0000000000
 1541.5000000 3.6029999256 30.225000381  -999.250000 0.1000000015 0.1000000015 0.0000000000
 1541.6250000 3.6270000935 30.322999954  -999.250000 0.1000000015 0.1000000015 0.0000000000
 1541.7500000 3.5299999714 30.375999451  -999.250000 0.1000000015 0.1000000015 0.0000000000
 1541.8750000 3.2160000801 30.444000244  -999.250000 0.1000000015 0.1000000015 0.0000000000
 1542.0000000 2.7409999371 30.513000488  -999.250000 0.1000000015 0.1000000015 0.0000000000
 1542.1250000 2.4470000267 30.533000946  -999.250000 0.1000000015 0.1000000015 0.0000000000
 1542.2500000 2.2320001125 30.538000107  -999.250000 0.1000000015 0.1000000015 0.0000000000
 1542.3750000 2.0209999084 30.542999268  -999.250000 0.1000000015 0.1000000015 0.0000000000
 1542.5000000 1.8559999466 30.547000885  -999.250000 0.1000000015 0.1000000015 0.0000000000
 1542.6250000 1.7879999876 30.552000046  -999.250000 0.1000000015 0.1000000015 0.0000000000
 1542.7500000 1.7209999561 30.555999756  -999.250000 0.1000000015 0.1000000015 0.0000000000
 1542.8750000 1.6590000391 30.561000824  -999.250000 0.1000000015 0.1000000015 0.0000000000
 1543.0000000 1.5789999962 30.502000809  -999.250000 0.1000000015 0.1000000015 0.0000000000
 1543.1250000 1.5169999599 30.488000870  -999.250000 0.1000000015 0.1000000015 0.0000000000
 1543.2500000 1.4639999866 30.475000381  -999.250000 0.1000000015 0.1000000015 0.0000000000
 1543.3750000 1.4119999409 30.427000046  -999.250000 0.1000000015 0.1000000015 0.0000000000
 1543.5000000 1.3750000000 30.378000259  -999.250000 0.1000000015 0.1000000015 0.0000000000
 1543.6250000 1.3380000591 30.326999664  -999.250000 0.1000000015 0.1000000015 0.0000000000
 1543.7500000 1.2920000553 30.275999069  -999.250000 0.1000000015 0.1000000015 0.0000000000
 1543.8750000 1.2469999790 30.214000702  -999.250000 0.1000000015 0.1000000015 0.0000000000
 1544.0000000 1.2389999628 30.152000427  -999.250000 0.1000000015 0.1000000015 0.0000000000
 1544.1250000 1.2309999466 30.086000443  -999.250000 0.1000000015 0.1000000015 0.0000000000
 1544.2500000 1.2300000191 30.063999176  -999.250000 0.1000000015 0.1000000015 0.0000000000
 1544.3750000 1.2519999743 30.027000427  -999.250000 0.1000000015 0.1000000015 0.0000000000
 1544.5000000 1.2749999762 29.990999222  -999.250000 0.1000000015 0.1000000015 0.0000000000
 1544.6250000 1.3470000029 29.954000473  -999.250000 0.1000000015 0.1000000015 0.0000000000
 1544.7500000 1.4290000200 29.947999954  -999.250000 0.1000000015 0.1000000015 0.0000000000
 1544.8750000 1.5140000582 29.948999405  -999.250000 0.1000000015 0.1000000015 0.0000000000
 1545.0000000 1.5900000334 29.951000214  -999.250000 0.1000000015 0.1000000015 0.0000000000
 1545.1250000 1.6599999666 29.954999924  -999.250000 0.1000000015 0.1000000015 0.0000000000
 1545.2500000 1.7660000324 29.958999634  -999.250000 0.1000000015 0.1000000015 0.0000000000
 1545.3750000 1.9259999990 29.962999344  -999.250000 0.1000000015 0.1000000015 0.0000000000
 1545.5000000 2.2339999676 29.966999054  -999.250000 0.1000000015 0.1000000015 0.0000000000
 1545.6250000 2.5590000153 29.972000122  -999.250000 0.1000000015 0.1000000015 0.0000000000
