# LAS format log file from PETREL
# Project units are specified as depth units
#==================================================================
~Version information
VERS.   2.0:
WRAP.   NO:
#==================================================================
~Well
STRT .m      1385.0000000 :
STOP .m      1720.0000000 :
STEP .m     0.12500000 :
NULL .        -999.250000 :
COMP.           : COMPANY
WELL.  5-17C2   : WELL
FLD.            : FIELD
LOC.            : LOCATION
SRVC.           : SERVICE COMPANY
DATE.  2020-03-08 09:25:10   : Log Export Date {yyyy-MM-dd HH:mm:ss}
PROV.           : PROVINCE
UWI.      : UNIQUE WELL ID
API.            : API NUMBER
#==================================================================
~Curve
DEPT .m                   : DEPTH
RT .ohm.m                 : RT
SP .                      : SP
Fluids .                  : Fluids
POR .m3/m3                : POR
PERM .mD                  : PERM
Lith .                    : Lith
~Parameter
#==================================================================
~Ascii
# ...
 1613.3750000 38.013000488 60.407001495 4.0000000000 24.000000000 2761.0000000 1.0000000000
 1613.5000000 38.355998993 60.548000336 4.0000000000 24.000000000 2761.0000000 1.0000000000
 1613.6250000 39.036998749 60.713001251 4.0000000000 24.000000000 2761.0000000 1.0000000000
 1613.7500000 39.645999908 60.898998260 4.0000000000 24.000000000 2761.0000000 1.0000000000
 1613.8750000 39.752998352 61.112998962 4.0000000000 24.000000000 2761.0000000 1.0000000000
 1614.0000000 39.083000183 61.333999634  -999.250000 0.1000000015 0.1000000015 0.0000000000
 1614.1250000 37.568000793 61.549999237  -999.250000 0.1000000015 0.1000000015 0.0000000000
 1614.2500000 35.553001404 61.729999542  -999.250000 0.1000000015 0.1000000015 0.0000000000
 1614.3750000 33.488998413 61.868999481  -999.250000 0.1000000015 0.1000000015 0.0000000000
 1614.5000000 31.979000092 61.951999664 3.0000000000 16.000000000 278.00000000 1.0000000000
 1614.6250000 31.364000320 61.992000580 3.0000000000 16.000000000 278.00000000 1.0000000000
 1614.7500000 31.965000153 61.995998383 3.0000000000 16.000000000 278.00000000 1.0000000000
 1614.8750000 33.937000275 61.957000732 3.0000000000 16.000000000 278.00000000 1.0000000000
 1615.0000000 36.957000732 61.893001556 3.0000000000 16.000000000 278.00000000 1.0000000000
 1615.1250000 40.708000183 61.821998596 3.0000000000 16.000000000 278.00000000 1.0000000000
 1615.2500000 44.381999969 61.768001556 3.0000000000 16.000000000 278.00000000 1.0000000000
 1615.3750000 47.273998260 61.719001770  -999.250000 0.1000000015 0.1000000015 0.0000000000
 1615.5000000 48.358001709 61.675998688  -999.250000 0.1000000015 0.1000000015 0.0000000000
 1615.6250000 46.891998291 61.625999451  -999.250000 0.1000000015 0.1000000015 0.0000000000
 1615.7500000 42.849998474 61.564998627  -999.250000 0.1000000015 0.1000000015 0.0000000000
 1615.8750000 36.826999664 61.480998993  -999.250000 0.1000000015 0.1000000015 0.0000000000
 1616.0000000 30.443000793 61.355998993  -999.250000 0.1000000015 0.1000000015 0.0000000000
 1616.1250000 24.823999405 61.200000763 4.0000000000 15.000000000 210.00000000 1.0000000000
 1616.2500000 20.990999222 61.013999939 4.0000000000 15.000000000 210.00000000 1.0000000000
 1616.3750000 18.603000641 60.826999664 4.0000000000 15.000000000 210.00000000 1.0000000000
 1616.5000000 17.135000229 60.654998779 4.0000000000 15.000000000 210.00000000 1.0000000000
 1616.6250000 16.301000595 60.519001007 4.0000000000 15.000000000 210.00000000 1.0000000000
 1616.7500000 15.826999664 60.409999847 4.0000000000 15.000000000 210.00000000 1.0000000000
 1616.8750000 15.560000420 60.333000183 4.0000000000 15.000000000 210.00000000 1.0000000000
 1617.0000000 15.380000114 60.289001465 4.0000000000 15.000000000 210.00000000 1.0000000000
 1617.1250000 15.274999619 60.265998840 4.0000000000 15.000000000 210.00000000 1.0000000000
 1617.2500000 15.255999565 60.256999969 4.0000000000 15.000000000 210.00000000 1.0000000000
 1617.3750000 15.369000435 60.241001129 4.0000000000 15.000000000 210.00000000 1.0000000000
 1617.5000000 15.552000046 60.222000122 4.0000000000 15.000000000 210.00000000 1.0000000000
 1617.6250000 15.715999603 60.183998108 4.0000000000 15.000000000 210.00000000 1.0000000000
 1617.7500000 15.843000412 60.139999390 4.0000000000 15.000000000 210.00000000 1.0000000000
 1617.8750000 15.963000298 60.094001770 4.0000000000 15.000000000 210.00000000 1.0000000000
 1618.0000000 16.052000046 60.070999146 4.0000000000 15.000000000 210.00000000 1.0000000000
 1618.1250000 16.051000595 60.089000702 4.0000000000 15.000000000 210.00000000 1.0000000000
 1618.2500000 15.940999985 60.145999908 4.0000000000 15.000000000 210.00000000 1.0000000000
 1618.3750000 15.772999763 60.236999512 4.0000000000 15.000000000 210.00000000 1.0000000000
 1618.5000000 15.621000290 60.334999084 4.0000000000 15.000000000 210.00000000 1.0000000000
 1618.6250000 15.524000168 60.448001862 4.0000000000 15.000000000 210.00000000 1.0000000000
 1618.7500000 15.524999619 60.570999146 4.0000000000 15.000000000 210.00000000 1.0000000000
 1618.8750000 15.654000282 60.723999023 4.0000000000 15.000000000 210.00000000 1.0000000000
 1619.0000000 15.921999931 60.898998260 4.0000000000 15.000000000 210.00000000 1.0000000000
 1619.1250000 16.292999268 61.084999084 4.0000000000 15.000000000 210.00000000 1.0000000000
 1619.2500000 16.684999466 61.265998840 4.0000000000 15.000000000 210.00000000 1.0000000000
 1619.3750000 17.104000092 61.438999176 4.0000000000 15.000000000 210.00000000 1.0000000000
 1619.5000000 17.465999603 61.616001129 4.0000000000 15.000000000 210.00000000 1.0000000000
 1619.6250000 17.722000122 61.789001465 4.0000000000 15.000000000 210.00000000 1.0000000000
 1619.7500000 17.795999527 61.972000122 4.0000000000 15.000000000 210.00000000 1.0000000000
 1619.8750000 17.697000504 62.148998260 4.0000000000 15.000000000 210.00000000 1.0000000000
 1620.0000000 17.510000229 62.327999115 4.0000000000 15.000000000 210.00000000 1.0000000000
 1620.1250000 17.326999664 62.487998962  -999.250000 0.1000000015 0.1000000015 0.0000000000
 1620.2500000 17.208000183 62.629001617  -999.250000 0.1000000015 0.1000000015 0.0000000000
 1620.3750000 17.003000259 62.752998352  -999.250000 0.1000000015 0.1000000015 0.0000000000
 1620.5000000 16.475999832 62.874000549  -999.250000 0.1000000015 0.1000000015 0.0000000000
 1620.6250000 15.564999580 63.013000488  -999.250000 0.1000000015 0.1000000015 0.0000000000
 1620.7500000 14.513999939 63.151000977  -999.250000 0.1000000015 0.1000000015 0.0000000000
 1620.8750000 13.673999786 63.282001495 3.0000000000 11.000000000 26.000000000 1.0000000000
 1621.0000000 13.144000053 63.381999969 3.0000000000 11.000000000 26.000000000 1.0000000000
 1621.1250000 12.881999969 63.456001282 3.0000000000 11.000000000 26.000000000 1.0000000000
 1621.2500000 12.770999908 63.492000580 3.0000000000 11.000000000 26.000000000 1.0000000000
 1621.3750000 12.730999947 63.484001160 3.0000000000 11.000000000 26.000000000 1.0000000000
 1621.5000000 12.746999741 63.429000854 3.0000000000 11.000000000 26.000000000 1.0000000000
 1621.6250000 12.784000397 63.333000183 3.0000000000 11.000000000 26.000000000 1.0000000000
 1621.7500000 12.805000305 63.215000153 3.0000000000 11.000000000 26.000000000 1.0000000000
 1621.8750000 12.689000130 63.069999695 3.0000000000 11.000000000 26.000000000 1.0000000000
 1622.0000000 12.487999916 62.916000366 3.0000000000 11.000000000 26.000000000 1.0000000000
 1622.1250000 12.260999680 62.740001678  -999.250000 0.1000000015 0.1000000015 0.0000000000
 1622.2500000 12.029000282 62.556999207  -999.250000 0.1000000015 0.1000000015 0.0000000000
 1622.3750000 11.739999771 62.354000092  -999.250000 0.1000000015 0.1000000015 0.0000000000
 1622.5000000 11.312000275 62.138000488  -999.250000 0.1000000015 0.1000000015 0.0000000000
 1622.6250000 10.704000473 61.912998199  -999.250000 0.1000000015 0.1000000015 0.0000000000
 1622.7500000 9.7969999313 61.680000305  -999.250000 0.1000000015 0.1000000015 0.0000000000
 1622.8750000 8.8699998856 61.458999634 4.0000000000 15.000000000 199.00000000 1.0000000000
 1623.0000000 8.1459999084 61.252998352 4.0000000000 15.000000000 199.00000000 1.0000000000
 1623.1250000 7.8189997673 61.084999084 4.0000000000 15.000000000 199.00000000 1.0000000000
 1623.2500000 7.8249998093 60.952999115 4.0000000000 15.000000000 199.00000000 1.0000000000
 1623.3750000 8.1020002365 60.889999390 4.0000000000 15.000000000 199.00000000 1.0000000000
 1623.5000000 8.5030002594 60.918998718 4.0000000000 15.000000000 199.00000000 1.0000000000
 1623.6250000 8.9659996033 61.041999817 4.0000000000 15.000000000 199.00000000 1.0000000000
 1623.7500000 9.4020004272 61.231998444 4.0000000000 15.000000000 199.00000000 1.0000000000
 1623.8750000 9.8020000458 61.479999542 4.0000000000 15.000000000 199.00000000 1.0000000000
 1624.0000000 10.130000114 61.782001495 4.0000000000 15.000000000 199.00000000 1.0000000000
 1624.1250000 10.373000145 62.094001770 4.0000000000 15.000000000 199.00000000 1.0000000000
