# LAS format log file from PETREL
# Project units are specified as depth units
#==================================================================
~Version information
VERS.   2.0:
WRAP.   NO:
#==================================================================
~Well
STRT .m      1300.0000000 :
STOP .m      1750.0000000 :
STEP .m     0.12500000 :
NULL .        -999.250000 :
COMP.           : COMPANY
WELL.  5-176   : WELL
FLD.            : FIELD
LOC.            : LOCATION
SRVC.           : SERVICE COMPANY
DATE.  2020-03-08 09:25:10   : Log Export Date {yyyy-MM-dd HH:mm:ss}
PROV.           : PROVINCE
UWI.      : UNIQUE WELL ID
API.            : API NUMBER
#==================================================================
~Curve
DEPT .m                   : DEPTH
RT .ohm.m                 : RT
SP .                      : SP
Fluids .                  : Fluids
POR .m3/m3                : POR
PERM .mD                  : PERM
Lith .                    : Lith
~Parameter
#==================================================================
~Ascii
# ...
 1463.1250000 3.0399999619 30.968999863  -999.250000 0.1000000015 0.1000000015 0.0000000000
 1463.2500000 3.0599999428 30.969999313  -999.250000 0.1000000015 0.1000000015 0.0000000000
 1463.3750000 3.0669999123 30.971000671  -999.250000 0.1000000015 0.1000000015 0.0000000000
 1463.5000000 3.0420000553 30.971000671  -999.250000 0.1000000015 0.1000000015 0.0000000000
 1463.6250000 3.0079998970 30.972000122  -999.250000 0.1000000015 0.1000000015 0.0000000000
 1463.7500000 2.9739999771 30.972999573  -999.250000 0.1000000015 0.1000000015 0.0000000000
 1463.8750000 2.7990000248 30.947000504  -999.250000 0.1000000015 0.1000000015 0.0000000000
 1464.0000000 2.6860001087 30.920999527  -999.250000 0.1000000015 0.1000000015 0.0000000000
 1464.1250000 2.6240000725 30.895999908  -999.250000 0.1000000015 0.1000000015 0.0000000000
 1464.2500000 2.5929999352 30.870000839  -999.250000 0.1000000015 0.1000000015 0.0000000000
 1464.3750000 2.5789999962 30.843999863  -999.250000 0.1000000015 0.1000000015 0.0000000000
 1464.5000000 2.5729999542 30.818000793  -999.250000 0.1000000015 0.1000000015 0.0000000000
 1464.6250000 2.5710000992 30.791999817  -999.250000 0.1000000015 0.1000000015 0.0000000000
 1464.7500000 2.5710000992 30.766000748  -999.250000 0.1000000015 0.1000000015 0.0000000000
 1464.8750000 2.6080000401 30.764999390  -999.250000 0.1000000015 0.1000000015 0.0000000000
 1465.0000000 2.5360000134 30.763000488  -999.250000 0.1000000015 0.1000000015 0.0000000000
 1465.1250000 2.4739999771 30.760999680  -999.250000 0.1000000015 0.1000000015 0.0000000000
 1465.2500000 2.4719998837 30.759000778  -999.250000 0.1000000015 0.1000000015 0.0000000000
 1465.3750000 2.5130000114 30.736999512  -999.250000 0.1000000015 0.1000000015 0.0000000000
 1465.5000000 2.5209999084 30.715000153  -999.250000 0.1000000015 0.1000000015 0.0000000000
 1465.6250000 2.5209999084 30.691999435  -999.250000 0.1000000015 0.1000000015 0.0000000000
 1465.7500000 2.5650000572 30.670000076  -999.250000 0.1000000015 0.1000000015 0.0000000000
 1465.8750000 2.6050000191 30.665000916  -999.250000 0.1000000015 0.1000000015 0.0000000000
 1466.0000000 2.6180000305 30.659999847  -999.250000 0.1000000015 0.1000000015 0.0000000000
 1466.1250000 2.6210000515 30.656000137  -999.250000 0.1000000015 0.1000000015 0.0000000000
 1466.2500000 2.6210000515 30.656000137  -999.250000 0.1000000015 0.1000000015 0.0000000000
 1466.3750000 2.6619999409 30.656000137  -999.250000 0.1000000015 0.1000000015 0.0000000000
 1466.5000000 2.6689999104 30.656999588  -999.250000 0.1000000015 0.1000000015 0.0000000000
 1466.6250000 2.7079999447 30.656999588  -999.250000 0.1000000015 0.1000000015 0.0000000000
 1466.7500000 2.7170000076 30.656999588  -999.250000 0.1000000015 0.1000000015 0.0000000000
 1466.8750000 2.7209999561 30.656999588  -999.250000 0.1000000015 0.1000000015 0.0000000000
 1467.0000000 2.6930000782 30.658000946  -999.250000 0.1000000015 0.1000000015 0.0000000000
 1467.1250000 2.6800000668 30.659000397  -999.250000 0.1000000015 0.1000000015 0.0000000000
 1467.2500000 2.6760001183 30.659999847  -999.250000 0.1000000015 0.1000000015 0.0000000000
 1467.3750000 2.6740000248 30.660999298  -999.250000 0.1000000015 0.1000000015 0.0000000000
 1467.5000000 2.6730000973 30.662000656  -999.250000 0.1000000015 0.1000000015 0.0000000000
 1467.6250000 2.6730000973 30.663000107  -999.250000 0.1000000015 0.1000000015 0.0000000000
 1467.7500000 2.6730000973 30.663999557  -999.250000 0.1000000015 0.1000000015 0.0000000000
 1467.8750000 2.6280000210 30.665000916  -999.250000 0.1000000015 0.1000000015 0.0000000000
 1468.0000000 2.6240000725 30.666000366  -999.250000 0.1000000015 0.1000000015 0.0000000000
 1468.1250000 2.6229999065 30.666999817  -999.250000 0.1000000015 0.1000000015 0.0000000000
 1468.2500000 2.6229999065 30.667999268  -999.250000 0.1000000015 0.1000000015 0.0000000000
 1468.3750000 2.6229999065 30.669000626  -999.250000 0.1000000015 0.1000000015 0.0000000000
 1468.5000000 2.6229999065 30.670000076  -999.250000 0.1000000015 0.1000000015 0.0000000000
 1468.6250000 2.6229999065 30.670999527  -999.250000 0.1000000015 0.1000000015 0.0000000000
 1468.7500000 2.6229999065 30.672000885  -999.250000 0.1000000015 0.1000000015 0.0000000000
 1468.8750000 2.6229999065 30.673000336  -999.250000 0.1000000015 0.1000000015 0.0000000000
 1469.0000000 2.6229999065 30.673999786  -999.250000 0.1000000015 0.1000000015 0.0000000000
 1469.1250000 2.6229999065 30.674999237  -999.250000 0.1000000015 0.1000000015 0.0000000000
 1469.2500000 2.6229999065 30.676000595  -999.250000 0.1000000015 0.1000000015 0.0000000000
 1469.3750000 2.6229999065 30.677000046  -999.250000 0.1000000015 0.1000000015 0.0000000000
 1469.5000000 2.6229999065 30.677999496  -999.250000 0.1000000015 0.1000000015 0.0000000000
 1469.6250000 2.6229999065 30.679000854  -999.250000 0.1000000015 0.1000000015 0.0000000000
 1469.7500000 2.6229999065 30.680999756  -999.250000 0.1000000015 0.1000000015 0.0000000000
 1469.8750000 2.6229999065 30.681999207  -999.250000 0.1000000015 0.1000000015 0.0000000000
 1470.0000000 2.6050000191 30.683000565  -999.250000 0.1000000015 0.1000000015 0.0000000000
 1470.1250000 2.5869998932 30.684000015  -999.250000 0.1000000015 0.1000000015 0.0000000000
 1470.2500000 2.5610001087 30.684999466  -999.250000 0.1000000015 0.1000000015 0.0000000000
 1470.3750000 2.5350000858 30.686000824  -999.250000 0.1000000015 0.1000000015 0.0000000000
 1470.5000000 2.5290000439 30.687000275  -999.250000 0.1000000015 0.1000000015 0.0000000000
 1470.6250000 2.5239999294 30.687999725  -999.250000 0.1000000015 0.1000000015 0.0000000000
 1470.7500000 2.5009999275 30.688999176  -999.250000 0.1000000015 0.1000000015 0.0000000000
 1470.8750000 2.4790000916 30.690000534  -999.250000 0.1000000015 0.1000000015 0.0000000000
 1471.0000000 2.4509999752 30.690999985  -999.250000 0.1000000015 0.1000000015 0.0000000000
 1471.1250000 2.4219999313 30.691999435  -999.250000 0.1000000015 0.1000000015 0.0000000000
 1471.2500000 2.4219999313 30.693000793  -999.250000 0.1000000015 0.1000000015 0.0000000000
 1471.3750000 2.4219999313 30.694000244  -999.250000 0.1000000015 0.1000000015 0.0000000000
 1471.5000000 2.4219999313 30.694999695  -999.250000 0.1000000015 0.1000000015 0.0000000000
 1471.6250000 2.4219999313 30.695999146  -999.250000 0.1000000015 0.1000000015 0.0000000000
 1471.7500000 2.4219999313 30.697000504  -999.250000 0.1000000015 0.1000000015 0.0000000000
 1471.8750000 2.4219999313 30.697999954  -999.250000 0.1000000015 0.1000000015 0.0000000000
 1472.0000000 2.4230000973 30.698999405  -999.250000 0.1000000015 0.1000000015 0.0000000000
 1472.1250000 2.4230000973 30.700000763  -999.250000 0.1000000015 0.1000000015 0.0000000000
 1472.2500000 2.4230000973 30.701000214  -999.250000 0.1000000015 0.1000000015 0.0000000000
 1472.3750000 2.4230000973 30.702999115  -999.250000 0.1000000015 0.1000000015 0.0000000000
 1472.5000000 2.4230000973 30.704000473  -999.250000 0.1000000015 0.1000000015 0.0000000000
 1472.6250000 2.4230000973 30.704999924  -999.250000 0.1000000015 0.1000000015 0.0000000000
 1472.7500000 2.4230000973 30.705999374  -999.250000 0.1000000015 0.1000000015 0.0000000000
 1472.8750000 2.4230000973 30.729000092  -999.250000 0.1000000015 0.1000000015 0.0000000000
 1473.0000000 2.4230000973 30.752000809  -999.250000 0.1000000015 0.1000000015 0.0000000000
 1473.1250000 2.4230000973 30.774999619  -999.250000 0.1000000015 0.1000000015 0.0000000000
 1473.2500000 2.4230000973 30.798000336  -999.250000 0.1000000015 0.1000000015 0.0000000000
 1473.3750000 2.4230000973 30.820999146  -999.250000 0.1000000015 0.1000000015 0.0000000000
 1473.5000000 2.4230000973 30.822999954  -999.250000 0.1000000015 0.1000000015 0.0000000000
 1473.6250000 2.4230000973 30.825000763  -999.250000 0.1000000015 0.1000000015 0.0000000000
 1473.7500000 2.4230000973 30.826000214  -999.250000 0.1000000015 0.1000000015 0.0000000000
 1473.8750000 2.4230000973 30.827999115  -999.250000 0.1000000015 0.1000000015 0.0000000000
