# LAS format log file from PETREL
# Project units are specified as depth units
#==================================================================
~Version information
VERS.   2.0:
WRAP.   NO:
#==================================================================
~Well
STRT .m      1350.0000000 :
STOP .m      1730.0000000 :
STEP .m     0.12500000 :
NULL .        -999.250000 :
COMP.           : COMPANY
WELL.  5-172   : WELL
FLD.            : FIELD
LOC.            : LOCATION
SRVC.           : SERVICE COMPANY
DATE.  2020-03-08 09:25:10   : Log Export Date {yyyy-MM-dd HH:mm:ss}
PROV.           : PROVINCE
UWI.      : UNIQUE WELL ID
API.            : API NUMBER
#==================================================================
~Curve
DEPT .m                   : DEPTH
RT .ohm.m                 : RT
SP .                      : SP
Fluids .                  : Fluids
POR .m3/m3                : POR
PERM .mD                  : PERM
Lith .                    : Lith
~Parameter
#==================================================================
~Ascii
# ...
 1600.1250000 12.843000412 17.913999557 3.0000000000 14.000000000 201.00000000 1.0000000000
 1600.2500000 11.963999748 18.305999756 3.0000000000 14.000000000 201.00000000 1.0000000000
 1600.3750000 11.321999550 18.697999954 3.0000000000 14.000000000 201.00000000 1.0000000000
 1600.5000000 10.708000183 19.104999542 3.0000000000 14.000000000 201.00000000 1.0000000000
 1600.6250000 9.9309997559 19.510999680 3.0000000000 14.000000000 201.00000000 1.0000000000
 1600.7500000 9.2639999390 19.812999725 3.0000000000 14.000000000 201.00000000 1.0000000000
 1600.8750000 8.6440000534 20.209999084  -999.250000 0.1000000015 0.1000000015 0.0000000000
 1601.0000000 8.4169998169 20.423000336  -999.250000 0.1000000015 0.1000000015 0.0000000000
 1601.1250000 8.5909996033 20.690000534  -999.250000 0.1000000015 0.1000000015 0.0000000000
 1601.2500000 8.9079999924 20.892000198  -999.250000 0.1000000015 0.1000000015 0.0000000000
 1601.3750000 9.2290000916 21.054000854  -999.250000 0.1000000015 0.1000000015 0.0000000000
 1601.5000000 9.5530004501 21.267000198 3.0000000000 11.000000000 48.000000000 1.0000000000
 1601.6250000 9.6440000534 21.409999847 3.0000000000 11.000000000 48.000000000 1.0000000000
 1601.7500000 9.6599998474 21.554000854 3.0000000000 11.000000000 48.000000000 1.0000000000
 1601.8750000 9.6709995270 21.625999451 3.0000000000 11.000000000 48.000000000 1.0000000000
 1602.0000000 9.6820001602 21.652000427 3.0000000000 11.000000000 48.000000000 1.0000000000
 1602.1250000 9.6920003891 21.596000671 3.0000000000 11.000000000 48.000000000 1.0000000000
 1602.2500000 9.7030000687 21.416000366 3.0000000000 11.000000000 48.000000000 1.0000000000
 1602.3750000 9.7130002975 21.086000443  -999.250000 0.1000000015 0.1000000015 0.0000000000
 1602.5000000 9.8719997406 20.697000504  -999.250000 0.1000000015 0.1000000015 0.0000000000
 1602.6250000 9.9359998703 20.315000534  -999.250000 0.1000000015 0.1000000015 0.0000000000
 1602.7500000 9.9750003815 19.933000565  -999.250000 0.1000000015 0.1000000015 0.0000000000
 1602.8750000 10.128000259 19.530000687 3.0000000000 11.000000000 59.000000000 1.0000000000
 1603.0000000 10.199999809 19.202999115 3.0000000000 11.000000000 59.000000000 1.0000000000
 1603.1250000 10.270999908 18.875000000 3.0000000000 11.000000000 59.000000000 1.0000000000
 1603.2500000 10.404000282 18.534999847 3.0000000000 11.000000000 59.000000000 1.0000000000
 1603.3750000 10.536000252 18.231000900 3.0000000000 11.000000000 59.000000000 1.0000000000
 1603.5000000 11.704999924 17.947999954 3.0000000000 11.000000000 59.000000000 1.0000000000
 1603.6250000 11.949999809 17.531999588 3.0000000000 11.000000000 59.000000000 1.0000000000
 1603.7500000 12.203000069 17.091999054 3.0000000000 11.000000000 59.000000000 1.0000000000
 1603.8750000 12.500000000 16.537000656 3.0000000000 11.000000000 59.000000000 1.0000000000
 1604.0000000 12.967000008 15.989999771 3.0000000000 11.000000000 59.000000000 1.0000000000
 1604.1250000 13.333000183 15.605999947 3.0000000000 11.000000000 59.000000000 1.0000000000
 1604.2500000 13.484000206 15.298999786 3.0000000000 11.000000000 59.000000000 1.0000000000
 1604.3750000 13.560000420 15.178000450  -999.250000 0.1000000015 0.1000000015 0.0000000000
 1604.5000000 13.557999611 15.138999939  -999.250000 0.1000000015 0.1000000015 0.0000000000
 1604.6250000 13.557999611 15.243000031  -999.250000 0.1000000015 0.1000000015 0.0000000000
 1604.7500000 13.510999680 15.342000008  -999.250000 0.1000000015 0.1000000015 0.0000000000
 1604.8750000 12.965999603 15.439999580  -999.250000 0.1000000015 0.1000000015 0.0000000000
 1605.0000000 12.432999611 15.659999847  -999.250000 0.1000000015 0.1000000015 0.0000000000
 1605.1250000 12.003999710 16.150999069  -999.250000 0.1000000015 0.1000000015 0.0000000000
 1605.2500000 11.713999748 16.791999817  -999.250000 0.1000000015 0.1000000015 0.0000000000
 1605.3750000 11.265999794 17.434000015  -999.250000 0.1000000015 0.1000000015 0.0000000000
 1605.5000000 10.805999756 17.902000427  -999.250000 0.1000000015 0.1000000015 0.0000000000
 1605.6250000 10.267999649 18.420999527  -999.250000 0.1000000015 0.1000000015 0.0000000000
 1605.7500000 9.6219997406 18.899000168  -999.250000 0.1000000015 0.1000000015 0.0000000000
 1605.8750000 8.9040002823 19.315999985  -999.250000 0.1000000015 0.1000000015 0.0000000000
 1606.0000000 6.1009998322 19.669000626  -999.250000 0.1000000015 0.1000000015 0.0000000000
 1606.1250000 4.7529997826 19.985000610  -999.250000 0.1000000015 0.1000000015 0.0000000000
 1606.2500000 3.7960000038 20.284000397  -999.250000 0.1000000015 0.1000000015 0.0000000000
 1606.3750000 3.2520000935 20.628000259  -999.250000 0.1000000015 0.1000000015 0.0000000000
 1606.5000000 3.0190000534 20.972999573  -999.250000 0.1000000015 0.1000000015 0.0000000000
 1606.6250000 2.8150000572 21.468999863  -999.250000 0.1000000015 0.1000000015 0.0000000000
 1606.7500000 2.6250000000 21.898000717  -999.250000 0.1000000015 0.1000000015 0.0000000000
 1606.8750000 2.4860000610 22.398000717  -999.250000 0.1000000015 0.1000000015 0.0000000000
 1607.0000000 2.4100000858 22.864999771  -999.250000 0.1000000015 0.1000000015 0.0000000000
 1607.1250000 2.3340001106 23.313999176  -999.250000 0.1000000015 0.1000000015 0.0000000000
 1607.2500000 2.3870000839 23.753000259  -999.250000 0.1000000015 0.1000000015 0.0000000000
 1607.3750000 2.4790000916 24.274999619  -999.250000 0.1000000015 0.1000000015 0.0000000000
 1607.5000000 2.5680000782 24.797000885  -999.250000 0.1000000015 0.1000000015 0.0000000000
 1607.6250000 2.6770000458 25.438999176  -999.250000 0.1000000015 0.1000000015 0.0000000000
 1607.7500000 2.8380000591 26.079999924  -999.250000 0.1000000015 0.1000000015 0.0000000000
 1607.8750000 2.9289999008 26.607999802  -999.250000 0.1000000015 0.1000000015 0.0000000000
 1608.0000000 2.9370000362 27.135000229  -999.250000 0.1000000015 0.1000000015 0.0000000000
 1608.1250000 2.9400000572 27.660999298  -999.250000 0.1000000015 0.1000000015 0.0000000000
 1608.2500000 2.8480000496 28.212999344  -999.250000 0.1000000015 0.1000000015 0.0000000000
 1608.3750000 2.7550001144 28.858999252  -999.250000 0.1000000015 0.1000000015 0.0000000000
 1608.5000000 2.9909999371 29.558000565 3.0000000000 11.000000000 38.000000000 1.0000000000
 1608.6250000 3.2400000095 30.284000397 3.0000000000 11.000000000 38.000000000 1.0000000000
 1608.7500000 3.4340000153 31.225000381 3.0000000000 11.000000000 38.000000000 1.0000000000
 1608.8750000 3.6640000343 32.165000916 3.0000000000 11.000000000 38.000000000 1.0000000000
 1609.0000000 3.8519999981 34.796001434 3.0000000000 11.000000000 38.000000000 1.0000000000
 1609.1250000 4.0809998512 36.737998962 3.0000000000 11.000000000 38.000000000 1.0000000000
 1609.2500000 4.3790001869 37.431999207 3.0000000000 11.000000000 38.000000000 1.0000000000
 1609.3750000 4.6160001755 38.051998138 3.0000000000 11.000000000 38.000000000 1.0000000000
 1609.5000000 4.8540000916 38.506999969 3.0000000000 11.000000000 38.000000000 1.0000000000
 1609.6250000 5.1129999161 38.801998138 3.0000000000 11.000000000 38.000000000 1.0000000000
 1609.7500000 5.4109997749 38.963001251 3.0000000000 11.000000000 38.000000000 1.0000000000
 1609.8750000 5.6139998436 38.972000122 3.0000000000 11.000000000 38.000000000 1.0000000000
 1610.0000000 5.8119997978 38.896999359 3.0000000000 11.000000000 38.000000000 1.0000000000
 1610.1250000 6.0079998970 38.742000580 3.0000000000 11.000000000 38.000000000 1.0000000000
 1610.2500000 6.2329998016 38.520999908 3.0000000000 11.000000000 38.000000000 1.0000000000
 1610.3750000 6.4770002365 38.180000305  -999.250000 0.1000000015 0.1000000015 0.0000000000
 1610.5000000 6.6479997635 37.820999146  -999.250000 0.1000000015 0.1000000015 0.0000000000
 1610.6250000 6.7490000725 37.351001740  -999.250000 0.1000000015 0.1000000015 0.0000000000
 1610.7500000 6.7849998474 36.741001129  -999.250000 0.1000000015 0.1000000015 0.0000000000
 1610.8750000 6.8439998627 36.081001282  -999.250000 0.1000000015 0.1000000015 0.0000000000
