# LAS format log file from PETREL
# Project units are specified as depth units
#==================================================================
~Version information
VERS.   2.0:
WRAP.   NO:
#==================================================================
~Well
STRT .m      1450.0000000 :
STOP .m      1660.0000000 :
STEP .m     0.12500000 :
NULL .        -999.250000 :
COMP.           : COMPANY
WELL.  5-17   : WELL
FLD.            : FIELD
LOC.            : LOCATION
SRVC.           : SERVICE COMPANY
DATE.  2020-03-08 09:25:10   : Log Export Date {yyyy-MM-dd HH:mm:ss}
PROV.           : PROVINCE
UWI.      : UNIQUE WELL ID
API.            : API NUMBER
#==================================================================
~Curve
DEPT .m                   : DEPTH
RT .ohm.m                 : RT
SP .                      : SP
Fluids .                  : Fluids
POR .m3/m3                : POR
PERM .mD                  : PERM
Lith .                    : Lith
~Parameter
#==================================================================
~Ascii
# ...
 1591.3750000 2.3529999256 26.968999863  -999.250000 0.1000000015 0.1000000015 0.0000000000
 1591.5000000 2.3750000000 26.774999619  -999.250000 0.1000000015 0.1000000015 0.0000000000
 1591.6250000 2.3750000000 26.773000717  -999.250000 0.1000000015 0.1000000015 0.0000000000
 1591.7500000 2.3750000000 26.922000885  -999.250000 0.1000000015 0.1000000015 0.0000000000
 1591.8750000 2.3750000000 27.100999832  -999.250000 0.1000000015 0.1000000015 0.0000000000
 1592.0000000 2.3750000000 27.254999161  -999.250000 0.1000000015 0.1000000015 0.0000000000
 1592.1250000 2.3750000000 27.264999390  -999.250000 0.1000000015 0.1000000015 0.0000000000
 1592.2500000 2.3670001030 27.159000397  -999.250000 0.1000000015 0.1000000015 0.0000000000
 1592.3750000 2.3329999447 26.836999893  -999.250000 0.1000000015 0.1000000015 0.0000000000
 1592.5000000 2.2980000973 26.426000595  -999.250000 0.1000000015 0.1000000015 0.0000000000
 1592.6250000 2.3039999008 26.132999420  -999.250000 0.1000000015 0.1000000015 0.0000000000
 1592.7500000 2.3819999695 26.054000854  -999.250000 0.1000000015 0.1000000015 0.0000000000
 1592.8750000 2.4609999657 26.166999817  -999.250000 0.1000000015 0.1000000015 0.0000000000
 1593.0000000 2.4760000706 26.343000412  -999.250000 0.1000000015 0.1000000015 0.0000000000
 1593.1250000 2.4670000076 26.496999741  -999.250000 0.1000000015 0.1000000015 0.0000000000
 1593.2500000 2.4230000973 26.756999969  -999.250000 0.1000000015 0.1000000015 0.0000000000
 1593.3750000 2.3789999485 27.006000519  -999.250000 0.1000000015 0.1000000015 0.0000000000
 1593.5000000 2.4769999981 26.993999481  -999.250000 0.1000000015 0.1000000015 0.0000000000
 1593.6250000 2.5720000267 26.919000626  -999.250000 0.1000000015 0.1000000015 0.0000000000
 1593.7500000 2.4690001011 26.791999817  -999.250000 0.1000000015 0.1000000015 0.0000000000
 1593.8750000 2.3900001049 26.665000916  -999.250000 0.1000000015 0.1000000015 0.0000000000
 1594.0000000 2.4939999580 26.537000656  -999.250000 0.1000000015 0.1000000015 0.0000000000
 1594.1250000 2.5590000153 26.531000137  -999.250000 0.1000000015 0.1000000015 0.0000000000
 1594.2500000 2.4709999561 26.572000504  -999.250000 0.1000000015 0.1000000015 0.0000000000
 1594.3750000 2.3819999695 26.632999420  -999.250000 0.1000000015 0.1000000015 0.0000000000
 1594.5000000 2.3039999008 26.694000244  -999.250000 0.1000000015 0.1000000015 0.0000000000
 1594.6250000 2.2269999981 26.753999710  -999.250000 0.1000000015 0.1000000015 0.0000000000
 1594.7500000 2.2030000687 26.815000534  -999.250000 0.1000000015 0.1000000015 0.0000000000
 1594.8750000 2.2660000324 26.888999939  -999.250000 0.1000000015 0.1000000015 0.0000000000
 1595.0000000 2.2790000439 26.916999817  -999.250000 0.1000000015 0.1000000015 0.0000000000
 1595.1250000 2.2799999714 26.830999374  -999.250000 0.1000000015 0.1000000015 0.0000000000
 1595.2500000 2.3340001106 26.694000244  -999.250000 0.1000000015 0.1000000015 0.0000000000
 1595.3750000 2.5529999733 26.441999435  -999.250000 0.1000000015 0.1000000015 0.0000000000
 1595.5000000 3.1940000057 26.233999252  -999.250000 0.1000000015 0.1000000015 0.0000000000
 1595.6250000 3.8169999123 26.106000900  -999.250000 0.1000000015 0.1000000015 0.0000000000
 1595.7500000 3.2569999695 26.104000092  -999.250000 0.1000000015 0.1000000015 0.0000000000
 1595.8750000 2.7590000629 26.197999954  -999.250000 0.1000000015 0.1000000015 0.0000000000
 1596.0000000 2.6050000191 26.299999237  -999.250000 0.1000000015 0.1000000015 0.0000000000
 1596.1250000 2.4249999523 26.361999512  -999.250000 0.1000000015 0.1000000015 0.0000000000
 1596.2500000 2.2809998989 26.291999817  -999.250000 0.1000000015 0.1000000015 0.0000000000
 1596.3750000 2.2809998989 26.212999344  -999.250000 0.1000000015 0.1000000015 0.0000000000
 1596.5000000 2.2809998989 26.177000046  -999.250000 0.1000000015 0.1000000015 0.0000000000
 1596.6250000 2.2809998989 26.229999542  -999.250000 0.1000000015 0.1000000015 0.0000000000
 1596.7500000 2.2820000648 26.287000656  -999.250000 0.1000000015 0.1000000015 0.0000000000
 1596.8750000 2.2820000648 26.350999832  -999.250000 0.1000000015 0.1000000015 0.0000000000
 1597.0000000 2.3229999542 26.275999069  -999.250000 0.1000000015 0.1000000015 0.0000000000
 1597.1250000 2.4119999409 26.170999527  -999.250000 0.1000000015 0.1000000015 0.0000000000
 1597.2500000 2.4920001030 26.065999985  -999.250000 0.1000000015 0.1000000015 0.0000000000
 1597.3750000 2.5360000134 26.059000015  -999.250000 0.1000000015 0.1000000015 0.0000000000
 1597.5000000 2.5810000896 26.059000015  -999.250000 0.1000000015 0.1000000015 0.0000000000
 1597.6250000 2.4500000477 26.059000015  -999.250000 0.1000000015 0.1000000015 0.0000000000
 1597.7500000 2.3180000782 26.059000015  -999.250000 0.1000000015 0.1000000015 0.0000000000
 1597.8750000 2.3159999847 25.996000290  -999.250000 0.1000000015 0.1000000015 0.0000000000
 1598.0000000 2.3610000610 25.861000061  -999.250000 0.1000000015 0.1000000015 0.0000000000
 1598.1250000 2.4609999657 25.702999115  -999.250000 0.1000000015 0.1000000015 0.0000000000
 1598.2500000 2.5350000858 25.466999054  -999.250000 0.1000000015 0.1000000015 0.0000000000
 1598.3750000 2.3299999237 25.231000900  -999.250000 0.1000000015 0.1000000015 0.0000000000
 1598.5000000 2.3710000515 25.047000885  -999.250000 0.1000000015 0.1000000015 0.0000000000
 1598.6250000 3.0399999619 24.888999939  -999.250000 0.1000000015 0.1000000015 0.0000000000
 1598.7500000 3.7149999142 24.965000153  -999.250000 0.1000000015 0.1000000015 0.0000000000
 1598.8750000 3.4930000305 25.122999191  -999.250000 0.1000000015 0.1000000015 0.0000000000
 1599.0000000 3.1359999180 25.221000671  -999.250000 0.1000000015 0.1000000015 0.0000000000
 1599.1250000 2.7599999905 25.063999176  -999.250000 0.1000000015 0.1000000015 0.0000000000
 1599.2500000 3.1679999828 24.722999573  -999.250000 0.1000000015 0.1000000015 0.0000000000
 1599.3750000 3.5750000477 24.364999771  -999.250000 0.1000000015 0.1000000015 0.0000000000
 1599.5000000 3.6700000763 24.035999298  -999.250000 0.1000000015 0.1000000015 0.0000000000
 1599.6250000 3.3629999161 23.731000900  -999.250000 0.1000000015 0.1000000015 0.0000000000
 1599.7500000 3.2809998989 23.604999542  -999.250000 0.1000000015 0.1000000015 0.0000000000
 1599.8750000 3.5339999199 23.629999161  -999.250000 0.1000000015 0.1000000015 0.0000000000
 1600.0000000 4.0110001564 23.367000580  -999.250000 0.1000000015 0.1000000015 0.0000000000
 1600.1250000 4.1680002213 23.715000153  -999.250000 0.1000000015 0.1000000015 0.0000000000
 1600.2500000 3.7060000896 24.260000229  -999.250000 0.1000000015 0.1000000015 0.0000000000
 1600.3750000 3.3069999218 24.611999512  -999.250000 0.1000000015 0.1000000015 0.0000000000
 1600.5000000 2.9140000343 24.761999130  -999.250000 0.1000000015 0.1000000015 0.0000000000
 1600.6250000 2.7249999046 24.537000656  -999.250000 0.1000000015 0.1000000015 0.0000000000
 1600.7500000 2.6370000839 24.139999390  -999.250000 0.1000000015 0.1000000015 0.0000000000
 1600.8750000 2.7449998856 23.792999268  -999.250000 0.1000000015 0.1000000015 0.0000000000
 1601.0000000 3.1250000000 23.545000076  -999.250000 0.1000000015 0.1000000015 0.0000000000
 1601.1250000 4.1999998093 23.392000198  -999.250000 0.1000000015 0.1000000015 0.0000000000
 1601.2500000 4.6310000420 23.288999557  -999.250000 0.1000000015 0.1000000015 0.0000000000
 1601.3750000 4.8109998703 23.330999374  -999.250000 0.1000000015 0.1000000015 0.0000000000
 1601.5000000 4.9990000725 23.530000687  -999.250000 0.1000000015 0.1000000015 0.0000000000
 1601.6250000 4.1139998436 23.694000244  -999.250000 0.1000000015 0.1000000015 0.0000000000
 1601.7500000 3.3619999886 23.783000946  -999.250000 0.1000000015 0.1000000015 0.0000000000
 1601.8750000 3.0650000572 23.781000137  -999.250000 0.1000000015 0.1000000015 0.0000000000
 1602.0000000 3.7720000744 23.527999878  -999.250000 0.1000000015 0.1000000015 0.0000000000
 1602.1250000 3.5639998913 22.895999908  -999.250000 0.1000000015 0.1000000015 0.0000000000
