# LAS format log file from PETREL
# Project units are specified as depth units
#==================================================================
~Version information
VERS.   2.0:
WRAP.   NO:
#==================================================================
~Well
STRT .m      1450.0000000 :
STOP .m      1720.0000000 :
STEP .m     0.12500000 :
NULL .        -999.250000 :
COMP.           : COMPANY
WELL.  5-17C   : WELL
FLD.            : FIELD
LOC.            : LOCATION
SRVC.           : SERVICE COMPANY
DATE.  2020-03-08 09:25:10   : Log Export Date {yyyy-MM-dd HH:mm:ss}
PROV.           : PROVINCE
UWI.      : UNIQUE WELL ID
API.            : API NUMBER
#==================================================================
~Curve
DEPT .m                   : DEPTH
RT .ohm.m                 : RT
SP .                      : SP
Fluids .                  : Fluids
POR .m3/m3                : POR
PERM .mD                  : PERM
Lith .                    : Lith
~Parameter
#==================================================================
~Ascii
# ...
 1656.6250000 47.757999420 27.176000595 4.0000000000 22.000000000 2394.0000000 1.0000000000
 1656.7500000 47.182998657 27.475999832 4.0000000000 22.000000000 2394.0000000 1.0000000000
 1656.8750000 46.463001251 27.818000793 4.0000000000 22.000000000 2394.0000000 1.0000000000
 1657.0000000 45.713001251 28.099000931 4.0000000000 22.000000000 2394.0000000 1.0000000000
 1657.1250000 44.962001801 28.364999771 4.0000000000 22.000000000 2394.0000000 1.0000000000
 1657.2500000 37.027000427 28.752000809 4.0000000000 22.000000000 2394.0000000 1.0000000000
 1657.3750000 34.120998383 29.201000214 4.0000000000 22.000000000 2394.0000000 1.0000000000
 1657.5000000 32.347999573 29.680000305 4.0000000000 22.000000000 2394.0000000 1.0000000000
 1657.6250000 31.048999786 30.115999222 4.0000000000 22.000000000 2394.0000000 1.0000000000
 1657.7500000 30.319999695 30.646999359 4.0000000000 22.000000000 2394.0000000 1.0000000000
 1657.8750000 29.686000824 31.162000656 4.0000000000 22.000000000 2394.0000000 1.0000000000
 1658.0000000 29.096000671 31.808000565 4.0000000000 22.000000000 2394.0000000 1.0000000000
 1658.1250000 28.361000061 32.514999390 4.0000000000 22.000000000 2394.0000000 1.0000000000
 1658.2500000 27.552000046 33.861000061 4.0000000000 22.000000000 2394.0000000 1.0000000000
 1658.3750000 26.708999634 35.293998718 4.0000000000 22.000000000 2394.0000000 1.0000000000
 1658.5000000 25.851999283 36.116001129 4.0000000000 22.000000000 2394.0000000 1.0000000000
 1658.6250000 24.767000198 36.272998810 4.0000000000 22.000000000 2394.0000000 1.0000000000
 1658.7500000 22.229000092 36.104999542 4.0000000000 22.000000000 2394.0000000 1.0000000000
 1658.8750000 20.096000671 17.552000046 4.0000000000 22.000000000 2394.0000000 1.0000000000
 1659.0000000 18.507999420 8.9149999619 4.0000000000 22.000000000 2394.0000000 1.0000000000
 1659.1250000 17.628999710 5.2010002136 4.0000000000 22.000000000 2394.0000000 1.0000000000
 1659.2500000 16.902999878 3.9769999981 4.0000000000 22.000000000 2394.0000000 1.0000000000
 1659.3750000 16.103000641 4.3020000458 4.0000000000 22.000000000 2394.0000000 1.0000000000
 1659.5000000 15.267999649 4.9190001488 4.0000000000 22.000000000 2394.0000000 1.0000000000
 1659.6250000 14.758000374 5.6890001297 4.0000000000 22.000000000 2394.0000000 1.0000000000
 1659.7500000 14.215999603 6.5229997635 4.0000000000 22.000000000 2394.0000000 1.0000000000
 1659.8750000 13.814000130 7.4640002251 4.0000000000 22.000000000 2394.0000000 1.0000000000
 1660.0000000 13.479999542 8.8819999695 4.0000000000 22.000000000 2394.0000000 1.0000000000
 1660.1250000 13.250000000 12.321000099 4.0000000000 22.000000000 2394.0000000 1.0000000000
 1660.2500000 12.989000320 13.819999695 4.0000000000 22.000000000 2394.0000000 1.0000000000
 1660.3750000 12.552000046 15.366000175 4.0000000000 22.000000000 2394.0000000 1.0000000000
 1660.5000000 12.204999924 16.787000656 4.0000000000 22.000000000 2394.0000000 1.0000000000
 1660.6250000 11.831999779 17.844999313 4.0000000000 22.000000000 2394.0000000 1.0000000000
 1660.7500000 11.350000381 18.854999542 4.0000000000 22.000000000 2394.0000000 1.0000000000
 1660.8750000 10.807000160 19.757999420 4.0000000000 22.000000000 2394.0000000 1.0000000000
 1661.0000000 10.385000229 20.240999222 4.0000000000 22.000000000 2394.0000000 1.0000000000
 1661.1250000 9.8859996796 20.812000275 4.0000000000 22.000000000 2394.0000000 1.0000000000
 1661.2500000 9.5030002594 21.419000626 4.0000000000 22.000000000 2394.0000000 1.0000000000
 1661.3750000 9.2500000000 21.861000061 4.0000000000 22.000000000 2394.0000000 1.0000000000
 1661.5000000 8.8409996033 22.349000931 4.0000000000 22.000000000 2394.0000000 1.0000000000
 1661.6250000 8.4949998856 22.625000000 4.0000000000 22.000000000 2394.0000000 1.0000000000
 1661.7500000 8.1820001602 22.884000778 4.0000000000 22.000000000 2394.0000000 1.0000000000
 1661.8750000 8.0559997559 23.049999237 4.0000000000 22.000000000 2394.0000000 1.0000000000
 1662.0000000 7.8229999542 23.184000015 4.0000000000 22.000000000 2394.0000000 1.0000000000
 1662.1250000 10.862000465 23.271999359 3.0000000000 18.000000000 641.00000000 1.0000000000
 1662.2500000 9.2130002975 23.385000229 3.0000000000 18.000000000 641.00000000 1.0000000000
 1662.3750000 8.2869997025 23.506000519 3.0000000000 18.000000000 641.00000000 1.0000000000
 1662.5000000 7.8099999428 23.531999588 3.0000000000 18.000000000 641.00000000 1.0000000000
 1662.6250000 7.6510000229 23.378000259 3.0000000000 18.000000000 641.00000000 1.0000000000
 1662.7500000 7.5209999084 22.635999680 3.0000000000 18.000000000 641.00000000 1.0000000000
 1662.8750000 7.3429999352 20.638000488 3.0000000000 18.000000000 641.00000000 1.0000000000
 1663.0000000 7.1389999390 17.919000626 3.0000000000 18.000000000 641.00000000 1.0000000000
 1663.1250000 6.9180002213 15.854999542 3.0000000000 18.000000000 641.00000000 1.0000000000
 1663.2500000 6.6970000267 14.458999634 3.0000000000 18.000000000 641.00000000 1.0000000000
 1663.3750000 6.5040001869 13.706000328 3.0000000000 18.000000000 641.00000000 1.0000000000
 1663.5000000 6.2839999199 13.076000214 3.0000000000 18.000000000 641.00000000 1.0000000000
 1663.6250000 6.2529997826 12.508000374 3.0000000000 18.000000000 641.00000000 1.0000000000
 1663.7500000 6.3109998703 12.098999977 3.0000000000 18.000000000 641.00000000 1.0000000000
 1663.8750000 6.5149998665 11.699999809 3.0000000000 18.000000000 641.00000000 1.0000000000
 1664.0000000 6.9650001526 11.159999847 3.0000000000 18.000000000 641.00000000 1.0000000000
 1664.1250000 7.3210000992 10.755000114 3.0000000000 18.000000000 641.00000000 1.0000000000
 1664.2500000 7.5640001297 10.385000229 3.0000000000 18.000000000 641.00000000 1.0000000000
 1664.3750000 7.8379998207 10.015000343 3.0000000000 18.000000000 641.00000000 1.0000000000
 1664.5000000 8.0799999237 9.4119997025 3.0000000000 18.000000000 641.00000000 1.0000000000
 1664.6250000 8.3219995499 9.0550003052 3.0000000000 18.000000000 641.00000000 1.0000000000
 1664.7500000 8.5900001526 8.6750001907 3.0000000000 18.000000000 641.00000000 1.0000000000
 1664.8750000 8.8170003891 8.4899997711 3.0000000000 18.000000000 641.00000000 1.0000000000
 1665.0000000 8.9680004120 8.4659996033 3.0000000000 18.000000000 641.00000000 1.0000000000
 1665.1250000 9.1289997101 8.5649995804  -999.250000 0.1000000015 0.1000000015 0.0000000000
 1665.2500000 9.2939996719 8.6649999619  -999.250000 0.1000000015 0.1000000015 0.0000000000
 1665.3750000 9.4139995575 8.9860000610  -999.250000 0.1000000015 0.1000000015 0.0000000000
 1665.5000000 9.4200000763 9.7910003662  -999.250000 0.1000000015 0.1000000015 0.0000000000
 1665.6250000 9.4209995270 11.012000084  -999.250000 0.1000000015 0.1000000015 0.0000000000
 1665.7500000 9.3350000381 12.173999786  -999.250000 0.1000000015 0.1000000015 0.0000000000
 1665.8750000 9.1280002594 13.022000313 0.0000000000 12.000000000 51.000000000 1.0000000000
 1666.0000000 9.0389995575 13.869999886 0.0000000000 12.000000000 51.000000000 1.0000000000
 1666.1250000 9.1140003204 14.840000153 0.0000000000 12.000000000 51.000000000 1.0000000000
 1666.2500000 10.159999847 15.303000450 0.0000000000 12.000000000 51.000000000 1.0000000000
 1666.3750000 11.204999924 15.765999794 0.0000000000 12.000000000 51.000000000 1.0000000000
 1666.5000000 12.164999962 16.163999557 0.0000000000 12.000000000 51.000000000 1.0000000000
 1666.6250000 13.232999802 16.544000626 0.0000000000 12.000000000 51.000000000 1.0000000000
 1666.7500000 13.696999550 16.702999115 0.0000000000 12.000000000 51.000000000 1.0000000000
 1666.8750000 13.857000351 16.861999512  -999.250000 0.1000000015 0.1000000015 0.0000000000
 1667.0000000 14.015999794 16.996000290  -999.250000 0.1000000015 0.1000000015 0.0000000000
 1667.1250000 14.222999573 17.159000397  -999.250000 0.1000000015 0.1000000015 0.0000000000
 1667.2500000 14.395999908 17.378000259  -999.250000 0.1000000015 0.1000000015 0.0000000000
 1667.3750000 14.536000252 17.618999481  -999.250000 0.1000000015 0.1000000015 0.0000000000
