# LAS format log file from PETREL
# Project units are specified as depth units
#==================================================================
~Version information
VERS.   2.0:
WRAP.   NO:
#==================================================================
~Well
STRT .m      1350.0000000 :
STOP .m      1720.0000000 :
STEP .m     0.12500000 :
NULL .        -999.250000 :
COMP.           : COMPANY
WELL.  5-172C   : WELL
FLD.            : FIELD
LOC.            : LOCATION
SRVC.           : SERVICE COMPANY
DATE.  2020-03-08 09:25:10   : Log Export Date {yyyy-MM-dd HH:mm:ss}
PROV.           : PROVINCE
UWI.      : UNIQUE WELL ID
API.            : API NUMBER
#==================================================================
~Curve
DEPT .m                   : DEPTH
RT .ohm.m                 : RT
SP .                      : SP
Fluids .                  : Fluids
POR .m3/m3                : POR
PERM .mD                  : PERM
Lith .                    : Lith
~Parameter
#==================================================================
~Ascii
# ...
 1469.6250000 1.3400000334 12.512999535  -999.250000 0.1000000015 0.1000000015 0.0000000000
 1469.7500000 1.3400000334 12.536999702  -999.250000 0.1000000015 0.1000000015 0.0000000000
 1469.8750000 1.3409999609 12.560999870  -999.250000 0.1000000015 0.1000000015 0.0000000000
 1470.0000000 1.3409999609 12.585000038  -999.250000 0.1000000015 0.1000000015 0.0000000000
 1470.1250000 1.3409999609 12.592000008  -999.250000 0.1000000015 0.1000000015 0.0000000000
 1470.2500000 1.3750000000 12.598999977  -999.250000 0.1000000015 0.1000000015 0.0000000000
 1470.3750000 1.4149999619 12.600999832  -999.250000 0.1000000015 0.1000000015 0.0000000000
 1470.5000000 1.5010000467 12.602999687  -999.250000 0.1000000015 0.1000000015 0.0000000000
 1470.6250000 1.5549999475 12.604999542  -999.250000 0.1000000015 0.1000000015 0.0000000000
 1470.7500000 1.6139999628 12.605999947  -999.250000 0.1000000015 0.1000000015 0.0000000000
 1470.8750000 1.6599999666 12.607000351  -999.250000 0.1000000015 0.1000000015 0.0000000000
 1471.0000000 1.6809999943 12.607000351  -999.250000 0.1000000015 0.1000000015 0.0000000000
 1471.1250000 1.7170000076 12.607999802  -999.250000 0.1000000015 0.1000000015 0.0000000000
 1471.2500000 1.7330000401 12.607999802  -999.250000 0.1000000015 0.1000000015 0.0000000000
 1471.3750000 1.7779999971 12.607999802  -999.250000 0.1000000015 0.1000000015 0.0000000000
 1471.5000000 1.7869999409 12.609000206  -999.250000 0.1000000015 0.1000000015 0.0000000000
 1471.6250000 1.7899999619 12.609000206  -999.250000 0.1000000015 0.1000000015 0.0000000000
 1471.7500000 1.7910000086 12.609000206  -999.250000 0.1000000015 0.1000000015 0.0000000000
 1471.8750000 1.7619999647 12.649000168  -999.250000 0.1000000015 0.1000000015 0.0000000000
 1472.0000000 1.7150000334 12.689000130  -999.250000 0.1000000015 0.1000000015 0.0000000000
 1472.1250000 1.6200000048 12.699000359  -999.250000 0.1000000015 0.1000000015 0.0000000000
 1472.2500000 1.5490000248 12.708000183  -999.250000 0.1000000015 0.1000000015 0.0000000000
 1472.3750000 1.4869999886 12.718000412  -999.250000 0.1000000015 0.1000000015 0.0000000000
 1472.5000000 1.4379999638 12.753000259  -999.250000 0.1000000015 0.1000000015 0.0000000000
 1472.6250000 1.4119999409 12.786999702  -999.250000 0.1000000015 0.1000000015 0.0000000000
 1472.7500000 1.3999999762 12.821999550  -999.250000 0.1000000015 0.1000000015 0.0000000000
 1472.8750000 1.3969999552 12.828000069  -999.250000 0.1000000015 0.1000000015 0.0000000000
 1473.0000000 1.3949999809 12.835000038  -999.250000 0.1000000015 0.1000000015 0.0000000000
 1473.1250000 1.3949999809 12.836000443  -999.250000 0.1000000015 0.1000000015 0.0000000000
 1473.2500000 1.4210000038 12.838000298  -999.250000 0.1000000015 0.1000000015 0.0000000000
 1473.3750000 1.4639999866 12.840000153  -999.250000 0.1000000015 0.1000000015 0.0000000000
 1473.5000000 1.5169999599 12.876999855  -999.250000 0.1000000015 0.1000000015 0.0000000000
 1473.6250000 1.5759999752 12.913999557  -999.250000 0.1000000015 0.1000000015 0.0000000000
 1473.7500000 1.6809999943 12.951000214  -999.250000 0.1000000015 0.1000000015 0.0000000000
 1473.8750000 1.7669999599 12.954000473  -999.250000 0.1000000015 0.1000000015 0.0000000000
 1474.0000000 1.8799999952 12.984000206  -999.250000 0.1000000015 0.1000000015 0.0000000000
 1474.1250000 1.9750000238 13.012999535  -999.250000 0.1000000015 0.1000000015 0.0000000000
 1474.2500000 2.0520000458 13.043000221  -999.250000 0.1000000015 0.1000000015 0.0000000000
 1474.3750000 2.0759999752 13.053999901  -999.250000 0.1000000015 0.1000000015 0.0000000000
 1474.5000000 2.1199998856 13.064999580  -999.250000 0.1000000015 0.1000000015 0.0000000000
 1474.6250000 2.1050000191 13.067999840  -999.250000 0.1000000015 0.1000000015 0.0000000000
 1474.7500000 2.0650000572 13.069999695  -999.250000 0.1000000015 0.1000000015 0.0000000000
 1474.8750000 2.0120000839 13.071000099  -999.250000 0.1000000015 0.1000000015 0.0000000000
 1475.0000000 1.9090000391 13.071999550  -999.250000 0.1000000015 0.1000000015 0.0000000000
 1475.1250000 1.8329999447 13.072999954  -999.250000 0.1000000015 0.1000000015 0.0000000000
 1475.2500000 1.7569999695 13.072999954  -999.250000 0.1000000015 0.1000000015 0.0000000000
 1475.3750000 1.7050000429 13.074000359  -999.250000 0.1000000015 0.1000000015 0.0000000000
 1475.5000000 1.6540000439 13.074000359  -999.250000 0.1000000015 0.1000000015 0.0000000000
 1475.6250000 1.6210000515 13.074999809  -999.250000 0.1000000015 0.1000000015 0.0000000000
 1475.7500000 1.6059999466 13.074999809  -999.250000 0.1000000015 0.1000000015 0.0000000000
 1475.8750000 1.6289999485 13.074999809  -999.250000 0.1000000015 0.1000000015 0.0000000000
 1476.0000000 1.6410000324 13.076000214  -999.250000 0.1000000015 0.1000000015 0.0000000000
 1476.1250000 1.6449999809 13.031999588  -999.250000 0.1000000015 0.1000000015 0.0000000000
 1476.2500000 1.6469999552 12.989000320  -999.250000 0.1000000015 0.1000000015 0.0000000000
 1476.3750000 1.6840000153 12.935999870  -999.250000 0.1000000015 0.1000000015 0.0000000000
 1476.5000000 1.7380000353 12.883000374  -999.250000 0.1000000015 0.1000000015 0.0000000000
 1476.6250000 1.7710000277 12.835000038  -999.250000 0.1000000015 0.1000000015 0.0000000000
 1476.7500000 1.8190000057 12.786999702  -999.250000 0.1000000015 0.1000000015 0.0000000000
 1476.8750000 1.8760000467 12.737999916  -999.250000 0.1000000015 0.1000000015 0.0000000000
 1477.0000000 1.9210000038 12.657999992  -999.250000 0.1000000015 0.1000000015 0.0000000000
 1477.1250000 1.9639999866 12.578000069  -999.250000 0.1000000015 0.1000000015 0.0000000000
 1477.2500000 2.0160000324 12.550999641  -999.250000 0.1000000015 0.1000000015 0.0000000000
 1477.3750000 2.0390000343 12.524000168  -999.250000 0.1000000015 0.1000000015 0.0000000000
 1477.5000000 2.0460000038 12.463000298  -999.250000 0.1000000015 0.1000000015 0.0000000000
 1477.6250000 2.0920000076 12.402000427  -999.250000 0.1000000015 0.1000000015 0.0000000000
 1477.7500000 2.1380000114 12.489999771  -999.250000 0.1000000015 0.1000000015 0.0000000000
 1477.8750000 2.1429998875 12.583000183  -999.250000 0.1000000015 0.1000000015 0.0000000000
 1478.0000000 2.1459999084 12.977000237  -999.250000 0.1000000015 0.1000000015 0.0000000000
 1478.1250000 2.1470000744 13.395000458  -999.250000 0.1000000015 0.1000000015 0.0000000000
 1478.2500000 2.1480000019 13.628000259  -999.250000 0.1000000015 0.1000000015 0.0000000000
 1478.3750000 2.1480000019 13.861000061  -999.250000 0.1000000015 0.1000000015 0.0000000000
 1478.5000000 2.1480000019 13.939000130  -999.250000 0.1000000015 0.1000000015 0.0000000000
 1478.6250000 2.1480000019 14.027999878  -999.250000 0.1000000015 0.1000000015 0.0000000000
 1478.7500000 2.1480000019 14.119999886  -999.250000 0.1000000015 0.1000000015 0.0000000000
 1478.8750000 2.0989999771 14.211999893  -999.250000 0.1000000015 0.1000000015 0.0000000000
 1479.0000000 2.0989999771 14.378999710  -999.250000 0.1000000015 0.1000000015 0.0000000000
 1479.1250000 2.0499999523 14.545999527  -999.250000 0.1000000015 0.1000000015 0.0000000000
 1479.2500000 2.0000000000 14.645999908  -999.250000 0.1000000015 0.1000000015 0.0000000000
 1479.3750000 1.9509999752 14.777000427  -999.250000 0.1000000015 0.1000000015 0.0000000000
 1479.5000000 1.8890000582 14.828000069  -999.250000 0.1000000015 0.1000000015 0.0000000000
 1479.6250000 1.8409999609 14.878000259  -999.250000 0.1000000015 0.1000000015 0.0000000000
 1479.7500000 1.7719999552 14.984999657  -999.250000 0.1000000015 0.1000000015 0.0000000000
 1479.8750000 1.7039999962 15.081999779  -999.250000 0.1000000015 0.1000000015 0.0000000000
 1480.0000000 1.6419999599 15.178000450  -999.250000 0.1000000015 0.1000000015 0.0000000000
 1480.1250000 1.6139999628 15.371999741  -999.250000 0.1000000015 0.1000000015 0.0000000000
 1480.2500000 1.6050000191 15.534999847  -999.250000 0.1000000015 0.1000000015 0.0000000000
 1480.3750000 1.6380000114 15.682999611  -999.250000 0.1000000015 0.1000000015 0.0000000000
