# LAS format log file from PETREL
# Project units are specified as depth units
#==================================================================
~Version information
VERS.   2.0:
WRAP.   NO:
#==================================================================
~Well
STRT .m      1300.0000000 :
STOP .m      1750.0000000 :
STEP .m     0.12500000 :
NULL .        -999.250000 :
COMP.           : COMPANY
WELL.  5-176   : WELL
FLD.            : FIELD
LOC.            : LOCATION
SRVC.           : SERVICE COMPANY
DATE.  2020-03-08 09:25:10   : Log Export Date {yyyy-MM-dd HH:mm:ss}
PROV.           : PROVINCE
UWI.      : UNIQUE WELL ID
API.            : API NUMBER
#==================================================================
~Curve
DEPT .m                   : DEPTH
RT .ohm.m                 : RT
SP .                      : SP
Fluids .                  : Fluids
POR .m3/m3                : POR
PERM .mD                  : PERM
Lith .                    : Lith
~Parameter
#==================================================================
~Ascii
# ...
 1539.2500000 3.0559999943 29.777000427  -999.250000 0.1000000015 0.1000000015 0.0000000000
 1539.3750000 2.9990000725 29.777999878  -999.250000 0.1000000015 0.1000000015 0.0000000000
 1539.5000000 2.8810000420 29.778999329  -999.250000 0.1000000015 0.1000000015 0.0000000000
 1539.6250000 2.7880001068 29.780000687  -999.250000 0.1000000015 0.1000000015 0.0000000000
 1539.7500000 2.6549999714 29.781000137  -999.250000 0.1000000015 0.1000000015 0.0000000000
 1539.8750000 2.5299999714 29.781999588  -999.250000 0.1000000015 0.1000000015 0.0000000000
 1540.0000000 2.3750000000 29.783000946  -999.250000 0.1000000015 0.1000000015 0.0000000000
 1540.1250000 2.2060000896 29.784000397  -999.250000 0.1000000015 0.1000000015 0.0000000000
 1540.2500000 2.1140000820 29.802999496  -999.250000 0.1000000015 0.1000000015 0.0000000000
 1540.3750000 2.0329999924 29.822000504  -999.250000 0.1000000015 0.1000000015 0.0000000000
 1540.5000000 1.9650000334 29.840000153  -999.250000 0.1000000015 0.1000000015 0.0000000000
 1540.6250000 1.9199999571 29.858999252  -999.250000 0.1000000015 0.1000000015 0.0000000000
 1540.7500000 1.8320000172 29.877000809  -999.250000 0.1000000015 0.1000000015 0.0000000000
 1540.8750000 1.9930000305 29.895999908  -999.250000 0.1000000015 0.1000000015 0.0000000000
 1541.0000000 2.2530000210 29.899000168  -999.250000 0.1000000015 0.1000000015 0.0000000000
 1541.1250000 2.6440000534 29.900999069  -999.250000 0.1000000015 0.1000000015 0.0000000000
 1541.2500000 2.8429999352 29.903999329  -999.250000 0.1000000015 0.1000000015 0.0000000000
 1541.3750000 3.0710000992 29.906000137  -999.250000 0.1000000015 0.1000000015 0.0000000000
 1541.5000000 3.1970000267 29.909000397  -999.250000 0.1000000015 0.1000000015 0.0000000000
 1541.6250000 3.3199999332 29.910999298  -999.250000 0.1000000015 0.1000000015 0.0000000000
 1541.7500000 3.3619999886 29.934999466  -999.250000 0.1000000015 0.1000000015 0.0000000000
 1541.8750000 3.3559999466 29.958000183  -999.250000 0.1000000015 0.1000000015 0.0000000000
 1542.0000000 3.2309999466 29.982000351  -999.250000 0.1000000015 0.1000000015 0.0000000000
 1542.1250000 2.9739999771 30.004999161  -999.250000 0.1000000015 0.1000000015 0.0000000000
 1542.2500000 2.1349999905 30.027999878  -999.250000 0.1000000015 0.1000000015 0.0000000000
 1542.3750000 1.6109999418 30.030000687  -999.250000 0.1000000015 0.1000000015 0.0000000000
 1542.5000000 1.2539999485 30.031000137  -999.250000 0.1000000015 0.1000000015 0.0000000000
 1542.6250000 0.9739999771 30.033000946  -999.250000 0.1000000015 0.1000000015 0.0000000000
 1542.7500000 0.8560000062 30.034000397  -999.250000 0.1000000015 0.1000000015 0.0000000000
 1542.8750000 0.8420000076 30.035999298  -999.250000 0.1000000015 0.1000000015 0.0000000000
 1543.0000000 0.8379999995 30.055999756  -999.250000 0.1000000015 0.1000000015 0.0000000000
 1543.1250000 0.8809999824 30.075000763  -999.250000 0.1000000015 0.1000000015 0.0000000000
 1543.2500000 0.9570000172 30.094999313  -999.250000 0.1000000015 0.1000000015 0.0000000000
 1543.3750000 1.0609999895 30.114999771  -999.250000 0.1000000015 0.1000000015 0.0000000000
 1543.5000000 1.2230000496 30.134000778  -999.250000 0.1000000015 0.1000000015 0.0000000000
 1543.6250000 1.3439999819 30.153999329  -999.250000 0.1000000015 0.1000000015 0.0000000000
 1543.7500000 1.5049999952 30.156000137  -999.250000 0.1000000015 0.1000000015 0.0000000000
 1543.8750000 1.6799999475 30.156999588  -999.250000 0.1000000015 0.1000000015 0.0000000000
 1544.0000000 1.9149999619 30.159000397  -999.250000 0.1000000015 0.1000000015 0.0000000000
 1544.1250000 2.1199998856 30.159999847  -999.250000 0.1000000015 0.1000000015 0.0000000000
 1544.2500000 2.2400000095 30.160999298  -999.250000 0.1000000015 0.1000000015 0.0000000000
 1544.3750000 2.3120000362 30.163000107  -999.250000 0.1000000015 0.1000000015 0.0000000000
 1544.5000000 2.3849999905 30.163999557  -999.250000 0.1000000015 0.1000000015 0.0000000000
 1544.6250000 2.4460000992 30.165000916  -999.250000 0.1000000015 0.1000000015 0.0000000000
 1544.7500000 2.4939999580 30.166000366  -999.250000 0.1000000015 0.1000000015 0.0000000000
 1544.8750000 2.5409998894 30.166999817  -999.250000 0.1000000015 0.1000000015 0.0000000000
 1545.0000000 2.2950000763 30.167999268  -999.250000 0.1000000015 0.1000000015 0.0000000000
 1545.1250000 2.0539999008 30.169000626  -999.250000 0.1000000015 0.1000000015 0.0000000000
 1545.2500000 1.9490000010 30.170000076  -999.250000 0.1000000015 0.1000000015 0.0000000000
 1545.3750000 1.8350000381 30.170999527  -999.250000 0.1000000015 0.1000000015 0.0000000000
 1545.5000000 1.7599999905 30.172000885  -999.250000 0.1000000015 0.1000000015 0.0000000000
 1545.6250000 1.6970000267 30.173000336  -999.250000 0.1000000015 0.1000000015 0.0000000000
 1545.7500000 2.0650000572 30.173999786  -999.250000 0.1000000015 0.1000000015 0.0000000000
 1545.8750000 2.3959999084 30.174999237  -999.250000 0.1000000015 0.1000000015 0.0000000000
 1546.0000000 2.6370000839 30.177000046  -999.250000 0.1000000015 0.1000000015 0.0000000000
 1546.1250000 3.0789999962 30.177999496  -999.250000 0.1000000015 0.1000000015 0.0000000000
 1546.2500000 3.4760000706 30.179000854  -999.250000 0.1000000015 0.1000000015 0.0000000000
 1546.3750000 3.8129999638 30.197000504  -999.250000 0.1000000015 0.1000000015 0.0000000000
 1546.5000000 4.1230001450 30.215000153  -999.250000 0.1000000015 0.1000000015 0.0000000000
 1546.6250000 4.3779997826 30.232999802  -999.250000 0.1000000015 0.1000000015 0.0000000000
 1546.7500000 4.3649997711 30.250999451  -999.250000 0.1000000015 0.1000000015 0.0000000000
 1546.8750000 4.1180000305 30.268999100  -999.250000 0.1000000015 0.1000000015 0.0000000000
 1547.0000000 3.7409999371 30.287000656  -999.250000 0.1000000015 0.1000000015 0.0000000000
 1547.1250000 2.8529999256 30.291000366  -999.250000 0.1000000015 0.1000000015 0.0000000000
 1547.2500000 2.2090001106 30.294000626  -999.250000 0.1000000015 0.1000000015 0.0000000000
 1547.3750000 1.8880000114 30.298000336  -999.250000 0.1000000015 0.1000000015 0.0000000000
 1547.5000000 1.5789999962 30.301000595  -999.250000 0.1000000015 0.1000000015 0.0000000000
 1547.6250000 1.3070000410 30.302999496  -999.250000 0.1000000015 0.1000000015 0.0000000000
 1547.7500000 1.2269999981 30.304000854  -999.250000 0.1000000015 0.1000000015 0.0000000000
 1547.8750000 1.2350000143 30.305999756  -999.250000 0.1000000015 0.1000000015 0.0000000000
 1548.0000000 1.3020000458 30.306999207  -999.250000 0.1000000015 0.1000000015 0.0000000000
 1548.1250000 1.3990000486 30.336000443  -999.250000 0.1000000015 0.1000000015 0.0000000000
 1548.2500000 1.4539999962 30.364999771  -999.250000 0.1000000015 0.1000000015 0.0000000000
 1548.3750000 1.5110000372 30.392999649  -999.250000 0.1000000015 0.1000000015 0.0000000000
 1548.5000000 1.6050000191 30.422000885  -999.250000 0.1000000015 0.1000000015 0.0000000000
 1548.6250000 1.6579999924 30.423999786  -999.250000 0.1000000015 0.1000000015 0.0000000000
 1548.7500000 1.7469999790 30.427000046  -999.250000 0.1000000015 0.1000000015 0.0000000000
 1548.8750000 1.8569999933 30.429000854  -999.250000 0.1000000015 0.1000000015 0.0000000000
 1549.0000000 2.0030000210 30.430000305  -999.250000 0.1000000015 0.1000000015 0.0000000000
 1549.1250000 2.2000000477 30.430999756  -999.250000 0.1000000015 0.1000000015 0.0000000000
 1549.2500000 2.3689999580 30.431999207  -999.250000 0.1000000015 0.1000000015 0.0000000000
 1549.3750000 2.6679999828 30.465999603  -999.250000 0.1000000015 0.1000000015 0.0000000000
 1549.5000000 3.0000000000 30.500000000  -999.250000 0.1000000015 0.1000000015 0.0000000000
 1549.6250000 3.5789999962 30.534000397  -999.250000 0.1000000015 0.1000000015 0.0000000000
 1549.7500000 4.1690001488 30.540000916  -999.250000 0.1000000015 0.1000000015 0.0000000000
 1549.8750000 4.7119998932 30.545000076  -999.250000 0.1000000015 0.1000000015 0.0000000000
 1550.0000000 4.8309998512 30.551000595  -999.250000 0.1000000015 0.1000000015 0.0000000000
