# LAS format log file from PETREL
# Project units are specified as depth units
#==================================================================
~Version information
VERS.   2.0:
WRAP.   NO:
#==================================================================
~Well
STRT .m      1450.0000000 :
STOP .m      1660.0000000 :
STEP .m     0.12500000 :
NULL .        -999.250000 :
COMP.           : COMPANY
WELL.  5-17   : WELL
FLD.            : FIELD
LOC.            : LOCATION
SRVC.           : SERVICE COMPANY
DATE.  2020-03-08 09:25:10   : Log Export Date {yyyy-MM-dd HH:mm:ss}
PROV.           : PROVINCE
UWI.      : UNIQUE WELL ID
API.            : API NUMBER
#==================================================================
~Curve
DEPT .m                   : DEPTH
RT .ohm.m                 : RT
SP .                      : SP
Fluids .                  : Fluids
POR .m3/m3                : POR
PERM .mD                  : PERM
Lith .                    : Lith
~Parameter
#==================================================================
~Ascii
# ...
 1634.8750000 14.463000298 15.427000046 0.0000000000 11.000000000 66.000000000 1.0000000000
 1635.0000000 6.0560002327 15.593000412  -999.250000 0.1000000015 0.1000000015 0.0000000000
 1635.1250000 3.9619998932 15.781999588  -999.250000 0.1000000015 0.1000000015 0.0000000000
 1635.2500000 3.4130001068 15.737000465  -999.250000 0.1000000015 0.1000000015 0.0000000000
 1635.3750000 3.4130001068 15.526000023  -999.250000 0.1000000015 0.1000000015 0.0000000000
 1635.5000000 4.3889999390 15.300999641  -999.250000 0.1000000015 0.1000000015 0.0000000000
 1635.6250000 6.0799999237 14.984999657  -999.250000 0.1000000015 0.1000000015 0.0000000000
 1635.7500000 5.8949999809 14.557000160  -999.250000 0.1000000015 0.1000000015 0.0000000000
 1635.8750000 4.5380001068 13.907999992  -999.250000 0.1000000015 0.1000000015 0.0000000000
 1636.0000000 4.2490000725 12.774000168  -999.250000 0.1000000015 0.1000000015 0.0000000000
 1636.1250000 5.1409997940 11.322999954 4.0000000000 21.000000000 1976.0000000 1.0000000000
 1636.2500000 7.7109999657 9.2069997787 4.0000000000 21.000000000 1976.0000000 1.0000000000
 1636.3750000 14.819999695 7.3550000191 4.0000000000 21.000000000 1976.0000000 1.0000000000
 1636.5000000 26.062000275 6.1570000648 4.0000000000 21.000000000 1976.0000000 1.0000000000
 1636.6250000 25.311000824 5.5760002136 4.0000000000 21.000000000 1976.0000000 1.0000000000
 1636.7500000 24.000999451 5.1250000000 4.0000000000 21.000000000 1976.0000000 1.0000000000
 1636.8750000 21.841999054 4.5910000801 4.0000000000 21.000000000 1976.0000000 1.0000000000
 1637.0000000 18.485000610 4.0329999924 4.0000000000 21.000000000 1976.0000000 1.0000000000
 1637.1250000 23.381000519 3.4159998894 4.0000000000 21.000000000 1976.0000000 1.0000000000
 1637.2500000 28.826999664 2.9430000782 4.0000000000 21.000000000 1976.0000000 1.0000000000
 1637.3750000 28.614999771 2.5980000496 4.0000000000 21.000000000 1976.0000000 1.0000000000
 1637.5000000 31.611999512 2.6329998970 4.0000000000 21.000000000 1976.0000000 1.0000000000
 1637.6250000 34.219001770 3.0069999695 4.0000000000 21.000000000 1976.0000000 1.0000000000
 1637.7500000 35.109001160 3.5329999924 4.0000000000 21.000000000 1976.0000000 1.0000000000
 1637.8750000 33.963001251 4.1560001373 4.0000000000 21.000000000 1976.0000000 1.0000000000
 1638.0000000 20.430999756 4.7360000610 4.0000000000 21.000000000 1976.0000000 1.0000000000
 1638.1250000 16.386999130 5.2719998360 4.0000000000 21.000000000 1976.0000000 1.0000000000
 1638.2500000 14.866000175 5.3889999390 4.0000000000 21.000000000 1976.0000000 1.0000000000
 1638.3750000 17.031000137 4.8189997673 4.0000000000 21.000000000 1976.0000000 1.0000000000
 1638.5000000 16.423999786 4.3340001106 4.0000000000 21.000000000 1976.0000000 1.0000000000
 1638.6250000 15.185999870 3.8399999142 4.0000000000 21.000000000 1976.0000000 1.0000000000
 1638.7500000 22.818000793 3.2650001049 4.0000000000 21.000000000 1976.0000000 1.0000000000
 1638.8750000 27.482000351 2.6340000629 4.0000000000 21.000000000 1976.0000000 1.0000000000
 1639.0000000 30.705999374 2.2400000095 4.0000000000 21.000000000 1976.0000000 1.0000000000
 1639.1250000 30.344999313 2.2780001163 4.0000000000 21.000000000 1976.0000000 1.0000000000
 1639.2500000 27.089000702 2.9019999504 4.0000000000 21.000000000 1976.0000000 1.0000000000
 1639.3750000 24.344999313 3.5250000954 4.0000000000 21.000000000 1976.0000000 1.0000000000
 1639.5000000 24.715999603 4.0850000381 4.0000000000 21.000000000 1976.0000000 1.0000000000
 1639.6250000 21.718999863 4.5840001106 4.0000000000 21.000000000 1976.0000000 1.0000000000
 1639.7500000 14.336000443 4.9140000343 4.0000000000 21.000000000 1976.0000000 1.0000000000
 1639.8750000 12.131999969 4.6430001259 4.0000000000 21.000000000 1976.0000000 1.0000000000
 1640.0000000 14.847999573 4.1690001488 4.0000000000 21.000000000 1976.0000000 1.0000000000
 1640.1250000 23.350999832 3.5420000553 4.0000000000 21.000000000 1976.0000000 1.0000000000
 1640.2500000 25.416999817 2.8759999275 4.0000000000 21.000000000 1976.0000000 1.0000000000
 1640.3750000 28.271999359 2.4549999237 4.0000000000 21.000000000 1976.0000000 1.0000000000
 1640.5000000 29.750000000 2.0969998837 4.0000000000 21.000000000 1976.0000000 1.0000000000
 1640.6250000 30.747999191 2.0169999599 4.0000000000 21.000000000 1976.0000000 1.0000000000
 1640.7500000 29.125000000 2.0069999695 4.0000000000 21.000000000 1976.0000000 1.0000000000
 1640.8750000 27.024999619 2.1029999256 4.0000000000 21.000000000 1976.0000000 1.0000000000
 1641.0000000 21.250999451 2.3640000820 4.0000000000 21.000000000 1976.0000000 1.0000000000
 1641.1250000 21.839000702 2.8389999866 4.0000000000 21.000000000 1976.0000000 1.0000000000
 1641.2500000 23.038999557 3.4630000591 4.0000000000 21.000000000 1976.0000000 1.0000000000
 1641.3750000 21.496999741 4.1440000534 4.0000000000 21.000000000 1976.0000000 1.0000000000
 1641.5000000 16.816999435 5.2350001335 4.0000000000 21.000000000 1976.0000000 1.0000000000
 1641.6250000 13.586999893 5.9359998703 4.0000000000 21.000000000 1976.0000000 1.0000000000
 1641.7500000 15.796999931 6.3020000458 4.0000000000 21.000000000 1976.0000000 1.0000000000
 1641.8750000 18.014999390 6.4289999008 4.0000000000 21.000000000 1976.0000000 1.0000000000
 1642.0000000 18.093999863 6.6820001602 4.0000000000 21.000000000 1976.0000000 1.0000000000
 1642.1250000 16.943000793 7.2290000916 4.0000000000 21.000000000 1976.0000000 1.0000000000
 1642.2500000 12.204999924 7.7740001678 4.0000000000 21.000000000 1976.0000000 1.0000000000
 1642.3750000 14.154999733 7.8800001144 4.0000000000 21.000000000 1976.0000000 1.0000000000
 1642.5000000 19.632999420 7.5120000839 4.0000000000 21.000000000 1976.0000000 1.0000000000
 1642.6250000 24.113000870 7.1820001602 4.0000000000 21.000000000 1976.0000000 1.0000000000
 1642.7500000 27.465999603 7.0229997635 4.0000000000 21.000000000 1976.0000000 1.0000000000
 1642.8750000 21.566999435 7.4770002365 4.0000000000 21.000000000 1976.0000000 1.0000000000
 1643.0000000 14.251000404 7.9450001717 4.0000000000 21.000000000 1976.0000000 1.0000000000
 1643.1250000 11.102999687 8.4090003967 4.0000000000 21.000000000 1976.0000000 1.0000000000
 1643.2500000 18.708000183 7.6680002213 4.0000000000 21.000000000 1976.0000000 1.0000000000
 1643.3750000 23.347999573 6.9580001831 4.0000000000 21.000000000 1976.0000000 1.0000000000
 1643.5000000 32.319000244 6.8969998360 4.0000000000 21.000000000 1976.0000000 1.0000000000
 1643.6250000 34.366001129 7.5599999428 4.0000000000 21.000000000 1976.0000000 1.0000000000
 1643.7500000 30.627000809 8.2239999771 4.0000000000 21.000000000 1976.0000000 1.0000000000
 1643.8750000 25.635000229 8.9639997482 4.0000000000 21.000000000 1976.0000000 1.0000000000
 1644.0000000 16.469999313 9.6579999924 4.0000000000 21.000000000 1976.0000000 1.0000000000
 1644.1250000 5.7319998741 10.204000473 4.0000000000 21.000000000 1976.0000000 1.0000000000
 1644.2500000 6.9930000305 9.9670000076 4.0000000000 21.000000000 1976.0000000 1.0000000000
 1644.3750000 10.295000076 8.3669996262 4.0000000000 21.000000000 1976.0000000 1.0000000000
 1644.5000000 17.763999939 6.8680000305 4.0000000000 21.000000000 1976.0000000 1.0000000000
 1644.6250000 17.962999344 5.9239997864 4.0000000000 21.000000000 1976.0000000 1.0000000000
 1644.7500000 34.548999786 4.8909997940 4.0000000000 21.000000000 1976.0000000 1.0000000000
 1644.8750000 37.786998749 4.0739998817 4.0000000000 21.000000000 1976.0000000 1.0000000000
 1645.0000000 33.499000549 3.3810000420 4.0000000000 21.000000000 1976.0000000 1.0000000000
 1645.1250000 31.118999481 2.8880000114 4.0000000000 21.000000000 1976.0000000 1.0000000000
 1645.2500000 35.090000153 2.6960000992 4.0000000000 21.000000000 1976.0000000 1.0000000000
 1645.3750000 40.090999603 2.6900000572 4.0000000000 21.000000000 1976.0000000 1.0000000000
 1645.5000000 37.173000336 2.7400000095 4.0000000000 21.000000000 1976.0000000 1.0000000000
 1645.6250000 30.143999100 2.9579999447 4.0000000000 21.000000000 1976.0000000 1.0000000000
