# LAS format log file from PETREL
# Project units are specified as depth units
#==================================================================
~Version information
VERS.   2.0:
WRAP.   NO:
#==================================================================
~Well
STRT .m      1385.0000000 :
STOP .m      1720.0000000 :
STEP .m     0.12500000 :
NULL .        -999.250000 :
COMP.           : COMPANY
WELL.  5-17C2   : WELL
FLD.            : FIELD
LOC.            : LOCATION
SRVC.           : SERVICE COMPANY
DATE.  2020-03-08 09:25:10   : Log Export Date {yyyy-MM-dd HH:mm:ss}
PROV.           : PROVINCE
UWI.      : UNIQUE WELL ID
API.            : API NUMBER
#==================================================================
~Curve
DEPT .m                   : DEPTH
RT .ohm.m                 : RT
SP .                      : SP
Fluids .                  : Fluids
POR .m3/m3                : POR
PERM .mD                  : PERM
Lith .                    : Lith
~Parameter
#==================================================================
~Ascii
# ...
 1635.1250000 12.444999695 64.250000000 3.0000000000 12.000000000 57.000000000 1.0000000000
 1635.2500000 11.637000084 64.429000854 3.0000000000 12.000000000 57.000000000 1.0000000000
 1635.3750000 11.244999886 64.527000427 3.0000000000 12.000000000 57.000000000 1.0000000000
 1635.5000000 11.159999847 64.570999146 3.0000000000 12.000000000 57.000000000 1.0000000000
 1635.6250000 11.295000076 64.575996399 3.0000000000 12.000000000 57.000000000 1.0000000000
 1635.7500000 11.510000229 64.564002991 3.0000000000 12.000000000 57.000000000 1.0000000000
 1635.8750000 11.767000198 64.528999329  -999.250000 0.1000000015 0.1000000015 0.0000000000
 1636.0000000 11.901000023 64.491996765  -999.250000 0.1000000015 0.1000000015 0.0000000000
 1636.1250000 11.762999535 64.449996948  -999.250000 0.1000000015 0.1000000015 0.0000000000
 1636.2500000 11.187999725 64.393997192  -999.250000 0.1000000015 0.1000000015 0.0000000000
 1636.3750000 10.192999840 64.304000854  -999.250000 0.1000000015 0.1000000015 0.0000000000
 1636.5000000 8.9519996643 64.156997681  -999.250000 0.1000000015 0.1000000015 0.0000000000
 1636.6250000 7.7560000420 63.948001862  -999.250000 0.1000000015 0.1000000015 0.0000000000
 1636.7500000 6.9029998779 63.655998230  -999.250000 0.1000000015 0.1000000015 0.0000000000
 1636.8750000 6.4720001221 63.299999237 4.0000000000 23.000000000 2345.0000000 1.0000000000
 1637.0000000 6.4320001602 62.897998810 4.0000000000 23.000000000 2345.0000000 1.0000000000
 1637.1250000 6.6329998970 62.488998413 4.0000000000 23.000000000 2345.0000000 1.0000000000
 1637.2500000 6.8649997711 62.083000183 4.0000000000 23.000000000 2345.0000000 1.0000000000
 1637.3750000 7.0500001907 61.689998627 4.0000000000 23.000000000 2345.0000000 1.0000000000
 1637.5000000 7.1900000572 61.328998566 4.0000000000 23.000000000 2345.0000000 1.0000000000
 1637.6250000 7.3350000381 61.013000488 4.0000000000 23.000000000 2345.0000000 1.0000000000
 1637.7500000 7.5000000000 60.755001068 4.0000000000 23.000000000 2345.0000000 1.0000000000
 1637.8750000 7.6849999428 60.541000366 4.0000000000 23.000000000 2345.0000000 1.0000000000
 1638.0000000 7.8750000000 60.368999481 4.0000000000 23.000000000 2345.0000000 1.0000000000
 1638.1250000 8.0670003891 60.215000153 4.0000000000 23.000000000 2345.0000000 1.0000000000
 1638.2500000 8.2329998016 60.083000183 4.0000000000 23.000000000 2345.0000000 1.0000000000
 1638.3750000 8.3940000534 59.966999054 4.0000000000 23.000000000 2345.0000000 1.0000000000
 1638.5000000 8.5520000458 59.866001129 4.0000000000 23.000000000 2345.0000000 1.0000000000
 1638.6250000 8.7390003204 59.780998230 4.0000000000 23.000000000 2345.0000000 1.0000000000
 1638.7500000 8.9840002060 59.706001282 4.0000000000 23.000000000 2345.0000000 1.0000000000
 1638.8750000 9.3450002670 59.637001038 4.0000000000 23.000000000 2345.0000000 1.0000000000
 1639.0000000 9.8769998550 59.551998138 4.0000000000 23.000000000 2345.0000000 1.0000000000
 1639.1250000 10.687999725 59.464000702 4.0000000000 23.000000000 2345.0000000 1.0000000000
 1639.2500000 11.814999580 59.375000000 4.0000000000 23.000000000 2345.0000000 1.0000000000
 1639.3750000 13.314000130 59.299999237 4.0000000000 23.000000000 2345.0000000 1.0000000000
 1639.5000000 15.074999809 59.236999512 4.0000000000 23.000000000 2345.0000000 1.0000000000
 1639.6250000 17.028999329 59.193000793 4.0000000000 23.000000000 2345.0000000 1.0000000000
 1639.7500000 18.849000931 59.162998199 4.0000000000 23.000000000 2345.0000000 1.0000000000
 1639.8750000 20.326999664 59.139999390 4.0000000000 23.000000000 2345.0000000 1.0000000000
 1640.0000000 21.318000793 59.132999420 4.0000000000 23.000000000 2345.0000000 1.0000000000
 1640.1250000 21.920999527 59.143001556 4.0000000000 23.000000000 2345.0000000 1.0000000000
 1640.2500000 22.240999222 59.187999725 4.0000000000 23.000000000 2345.0000000 1.0000000000
 1640.3750000 22.388000488 59.255001068 4.0000000000 23.000000000 2345.0000000 1.0000000000
 1640.5000000 22.469999313 59.347999573 4.0000000000 23.000000000 2345.0000000 1.0000000000
 1640.6250000 22.642000198 59.449001312 4.0000000000 23.000000000 2345.0000000 1.0000000000
 1640.7500000 23.073999405 59.548000336 4.0000000000 23.000000000 2345.0000000 1.0000000000
 1640.8750000 23.812000275 59.641998291 4.0000000000 23.000000000 2345.0000000 1.0000000000
 1641.0000000 24.788999557 59.736000061 4.0000000000 23.000000000 2345.0000000 1.0000000000
 1641.1250000 25.652999878 59.845001221 4.0000000000 23.000000000 2345.0000000 1.0000000000
 1641.2500000 26.266000748 59.951000214 4.0000000000 23.000000000 2345.0000000 1.0000000000
 1641.3750000 26.621000290 60.039001465 4.0000000000 23.000000000 2345.0000000 1.0000000000
 1641.5000000 26.836000443 60.080001831 4.0000000000 23.000000000 2345.0000000 1.0000000000
 1641.6250000 27.009000778 60.085998535 4.0000000000 23.000000000 2345.0000000 1.0000000000
 1641.7500000 27.128000259 60.049999237 4.0000000000 23.000000000 2345.0000000 1.0000000000
 1641.8750000 27.142999649 59.974998474  -999.250000 0.1000000015 0.1000000015 0.0000000000
 1642.0000000 26.825000763 59.863998413  -999.250000 0.1000000015 0.1000000015 0.0000000000
 1642.1250000 25.947999954 59.710998535 4.0000000000 17.000000000 511.00000000 1.0000000000
 1642.2500000 24.568000793 59.514999390 4.0000000000 17.000000000 511.00000000 1.0000000000
 1642.3750000 22.985000610 59.263000488 4.0000000000 17.000000000 511.00000000 1.0000000000
 1642.5000000 21.643999100 58.970001221 4.0000000000 17.000000000 511.00000000 1.0000000000
 1642.6250000 20.812999725 58.636001587 4.0000000000 17.000000000 511.00000000 1.0000000000
 1642.7500000 20.617000580 58.284999847 4.0000000000 17.000000000 511.00000000 1.0000000000
 1642.8750000 20.926000595 57.923999786 4.0000000000 17.000000000 511.00000000 1.0000000000
 1643.0000000 21.589000702 57.566001892 4.0000000000 17.000000000 511.00000000 1.0000000000
 1643.1250000 22.440000534 57.219001770 4.0000000000 17.000000000 511.00000000 1.0000000000
 1643.2500000 23.332000732 56.888999939 4.0000000000 17.000000000 511.00000000 1.0000000000
 1643.3750000 24.141000748 56.592998505 4.0000000000 17.000000000 511.00000000 1.0000000000
 1643.5000000 24.843999863 56.333999634 4.0000000000 17.000000000 511.00000000 1.0000000000
 1643.6250000 25.416999817 56.125000000 4.0000000000 17.000000000 511.00000000 1.0000000000
 1643.7500000 25.948999405 55.944000244 4.0000000000 17.000000000 511.00000000 1.0000000000
 1643.8750000 26.558000565 55.801998138 4.0000000000 17.000000000 511.00000000 1.0000000000
 1644.0000000 27.353000641 55.692001343 4.0000000000 17.000000000 511.00000000 1.0000000000
 1644.1250000 28.316999435 55.622001648 4.0000000000 17.000000000 511.00000000 1.0000000000
 1644.2500000 29.409999847 55.588001251 4.0000000000 17.000000000 511.00000000 1.0000000000
 1644.3750000 30.551000595 55.574001312 4.0000000000 17.000000000 511.00000000 1.0000000000
 1644.5000000 31.885000229 55.574001312 4.0000000000 17.000000000 511.00000000 1.0000000000
 1644.6250000 33.582000732 55.576000214 4.0000000000 17.000000000 511.00000000 1.0000000000
 1644.7500000 35.719001770 55.590000153 4.0000000000 17.000000000 511.00000000 1.0000000000
 1644.8750000 38.509998322 55.604000092 4.0000000000 17.000000000 511.00000000 1.0000000000
 1645.0000000 41.888000488 55.629001617 4.0000000000 17.000000000 511.00000000 1.0000000000
 1645.1250000 45.956001282 55.653999329 4.0000000000 17.000000000 511.00000000 1.0000000000
 1645.2500000 50.375000000 55.676998138 4.0000000000 17.000000000 511.00000000 1.0000000000
 1645.3750000 54.944000244 55.687999725 4.0000000000 17.000000000 511.00000000 1.0000000000
 1645.5000000 58.990001678 55.680999756 4.0000000000 17.000000000 511.00000000 1.0000000000
 1645.6250000 62.210998535 55.671001434 4.0000000000 17.000000000 511.00000000 1.0000000000
 1645.7500000 64.308998108 55.661998749 4.0000000000 17.000000000 511.00000000 1.0000000000
 1645.8750000 64.950996399 55.673000336 4.0000000000 17.000000000 511.00000000 1.0000000000
