# LAS format log file from PETREL
# Project units are specified as depth units
#==================================================================
~Version information
VERS.   2.0:
WRAP.   NO:
#==================================================================
~Well
STRT .m      1350.0000000 :
STOP .m      1730.0000000 :
STEP .m     0.12500000 :
NULL .        -999.250000 :
COMP.           : COMPANY
WELL.  5-172   : WELL
FLD.            : FIELD
LOC.            : LOCATION
SRVC.           : SERVICE COMPANY
DATE.  2020-03-08 09:25:10   : Log Export Date {yyyy-MM-dd HH:mm:ss}
PROV.           : PROVINCE
UWI.      : UNIQUE WELL ID
API.            : API NUMBER
#==================================================================
~Curve
DEPT .m                   : DEPTH
RT .ohm.m                 : RT
SP .                      : SP
Fluids .                  : Fluids
POR .m3/m3                : POR
PERM .mD                  : PERM
Lith .                    : Lith
~Parameter
#==================================================================
~Ascii
# ...
 1447.8750000 1.3359999657 29.162000656  -999.250000 0.1000000015 0.1000000015 0.0000000000
 1448.0000000 1.3339999914 29.166000366  -999.250000 0.1000000015 0.1000000015 0.0000000000
 1448.1250000 1.3170000315 29.170999527  -999.250000 0.1000000015 0.1000000015 0.0000000000
 1448.2500000 1.2990000248 29.174999237  -999.250000 0.1000000015 0.1000000015 0.0000000000
 1448.3750000 1.2810000181 29.179000854  -999.250000 0.1000000015 0.1000000015 0.0000000000
 1448.5000000 1.2630000114 29.184000015  -999.250000 0.1000000015 0.1000000015 0.0000000000
 1448.6250000 1.2439999580 29.187999725  -999.250000 0.1000000015 0.1000000015 0.0000000000
 1448.7500000 1.2259999514 29.193000793  -999.250000 0.1000000015 0.1000000015 0.0000000000
 1448.8750000 1.2070000172 29.197000504  -999.250000 0.1000000015 0.1000000015 0.0000000000
 1449.0000000 1.2050000429 29.201000214  -999.250000 0.1000000015 0.1000000015 0.0000000000
 1449.1250000 1.2029999495 29.205999374  -999.250000 0.1000000015 0.1000000015 0.0000000000
 1449.2500000 1.2039999962 29.209999084  -999.250000 0.1000000015 0.1000000015 0.0000000000
 1449.3750000 1.2050000429 29.215000153  -999.250000 0.1000000015 0.1000000015 0.0000000000
 1449.5000000 1.2070000172 29.218999863  -999.250000 0.1000000015 0.1000000015 0.0000000000
 1449.6250000 1.2089999914 29.222999573  -999.250000 0.1000000015 0.1000000015 0.0000000000
 1449.7500000 1.2109999657 29.228000641  -999.250000 0.1000000015 0.1000000015 0.0000000000
 1449.8750000 1.2130000591 29.232000351  -999.250000 0.1000000015 0.1000000015 0.0000000000
 1450.0000000 1.2309999466 29.236999512  -999.250000 0.1000000015 0.1000000015 0.0000000000
 1450.1250000 1.2480000257 29.240999222  -999.250000 0.1000000015 0.1000000015 0.0000000000
 1450.2500000 1.2649999857 29.245000839  -999.250000 0.1000000015 0.1000000015 0.0000000000
 1450.3750000 1.2699999809 29.316999435  -999.250000 0.1000000015 0.1000000015 0.0000000000
 1450.5000000 1.2719999552 29.346000671  -999.250000 0.1000000015 0.1000000015 0.0000000000
 1450.6250000 1.2749999762 29.361000061  -999.250000 0.1000000015 0.1000000015 0.0000000000
 1450.7500000 1.2769999504 29.375999451  -999.250000 0.1000000015 0.1000000015 0.0000000000
 1450.8750000 1.2799999714 29.381000519  -999.250000 0.1000000015 0.1000000015 0.0000000000
 1451.0000000 1.2819999456 29.385999680  -999.250000 0.1000000015 0.1000000015 0.0000000000
 1451.1250000 1.2840000391 29.389999390  -999.250000 0.1000000015 0.1000000015 0.0000000000
 1451.2500000 1.2860000134 29.395000458  -999.250000 0.1000000015 0.1000000015 0.0000000000
 1451.3750000 1.2699999809 29.399000168  -999.250000 0.1000000015 0.1000000015 0.0000000000
 1451.5000000 1.2539999485 29.403999329  -999.250000 0.1000000015 0.1000000015 0.0000000000
 1451.6250000 1.2510000467 29.298999786  -999.250000 0.1000000015 0.1000000015 0.0000000000
 1451.7500000 1.2480000257 29.301000595  -999.250000 0.1000000015 0.1000000015 0.0000000000
 1451.8750000 1.2489999533 29.302999496  -999.250000 0.1000000015 0.1000000015 0.0000000000
 1452.0000000 1.2500000000 29.218999863  -999.250000 0.1000000015 0.1000000015 0.0000000000
 1452.1250000 1.2510000467 29.097999573  -999.250000 0.1000000015 0.1000000015 0.0000000000
 1452.2500000 1.2530000210 29.093999863  -999.250000 0.1000000015 0.1000000015 0.0000000000
 1452.3750000 1.2549999952 29.094999313  -999.250000 0.1000000015 0.1000000015 0.0000000000
 1452.5000000 1.2569999695 29.097000122  -999.250000 0.1000000015 0.1000000015 0.0000000000
 1452.6250000 1.2589999437 29.100999832  -999.250000 0.1000000015 0.1000000015 0.0000000000
 1452.7500000 1.2610000372 29.104999542  -999.250000 0.1000000015 0.1000000015 0.0000000000
 1452.8750000 1.2630000114 29.108999252  -999.250000 0.1000000015 0.1000000015 0.0000000000
 1453.0000000 1.2649999857 28.989999771  -999.250000 0.1000000015 0.1000000015 0.0000000000
 1453.1250000 1.2669999599 28.888000488  -999.250000 0.1000000015 0.1000000015 0.0000000000
 1453.2500000 1.2690000534 28.787000656  -999.250000 0.1000000015 0.1000000015 0.0000000000
 1453.3750000 1.2719999552 28.785999298  -999.250000 0.1000000015 0.1000000015 0.0000000000
 1453.5000000 1.2740000486 28.729000092  -999.250000 0.1000000015 0.1000000015 0.0000000000
 1453.6250000 1.2760000229 28.701999664  -999.250000 0.1000000015 0.1000000015 0.0000000000
 1453.7500000 1.3009999990 28.695999146  -999.250000 0.1000000015 0.1000000015 0.0000000000
 1453.8750000 1.3259999752 28.690999985  -999.250000 0.1000000015 0.1000000015 0.0000000000
 1454.0000000 1.3309999704 28.693000793  -999.250000 0.1000000015 0.1000000015 0.0000000000
 1454.1250000 1.3339999914 28.697000504  -999.250000 0.1000000015 0.1000000015 0.0000000000
 1454.2500000 1.3359999657 28.700000763  -999.250000 0.1000000015 0.1000000015 0.0000000000
 1454.3750000 1.3700000048 28.704999924  -999.250000 0.1000000015 0.1000000015 0.0000000000
 1454.5000000 1.4589999914 28.708999634  -999.250000 0.1000000015 0.1000000015 0.0000000000
 1454.6250000 1.5319999456 28.714000702  -999.250000 0.1000000015 0.1000000015 0.0000000000
 1454.7500000 1.6089999676 28.718000412  -999.250000 0.1000000015 0.1000000015 0.0000000000
 1454.8750000 1.6859999895 28.722000122  -999.250000 0.1000000015 0.1000000015 0.0000000000
 1455.0000000 1.7410000563 28.726999283  -999.250000 0.1000000015 0.1000000015 0.0000000000
 1455.1250000 1.7949999571 28.731000900  -999.250000 0.1000000015 0.1000000015 0.0000000000
 1455.2500000 1.8470000029 28.690999985  -999.250000 0.1000000015 0.1000000015 0.0000000000
 1455.3750000 1.8999999762 28.649999619  -999.250000 0.1000000015 0.1000000015 0.0000000000
 1455.5000000 1.9450000525 28.642999649  -999.250000 0.1000000015 0.1000000015 0.0000000000
 1455.6250000 1.9889999628 28.635999680  -999.250000 0.1000000015 0.1000000015 0.0000000000
 1455.7500000 2.0460000038 28.639999390  -999.250000 0.1000000015 0.1000000015 0.0000000000
 1455.8750000 2.0629999638 28.643999100  -999.250000 0.1000000015 0.1000000015 0.0000000000
 1456.0000000 2.0669999123 28.648000717  -999.250000 0.1000000015 0.1000000015 0.0000000000
 1456.1250000 2.1019999981 28.722000122  -999.250000 0.1000000015 0.1000000015 0.0000000000
 1456.2500000 2.1429998875 28.875999451  -999.250000 0.1000000015 0.1000000015 0.0000000000
 1456.3750000 2.1640000343 28.996999741  -999.250000 0.1000000015 0.1000000015 0.0000000000
 1456.5000000 2.2009999752 29.117000580  -999.250000 0.1000000015 0.1000000015 0.0000000000
 1456.6250000 2.2190001011 29.194000244  -999.250000 0.1000000015 0.1000000015 0.0000000000
 1456.7500000 2.2260000706 29.284000397  -999.250000 0.1000000015 0.1000000015 0.0000000000
 1456.8750000 2.2309999466 29.333999634  -999.250000 0.1000000015 0.1000000015 0.0000000000
 1457.0000000 2.2339999676 29.413999557  -999.250000 0.1000000015 0.1000000015 0.0000000000
 1457.1250000 2.2360000610 29.458999634  -999.250000 0.1000000015 0.1000000015 0.0000000000
 1457.2500000 2.2379999161 29.556999207  -999.250000 0.1000000015 0.1000000015 0.0000000000
 1457.3750000 2.2400000095 29.684999466  -999.250000 0.1000000015 0.1000000015 0.0000000000
 1457.5000000 2.2230000496 29.715000153  -999.250000 0.1000000015 0.1000000015 0.0000000000
 1457.6250000 2.2049999237 29.815000534  -999.250000 0.1000000015 0.1000000015 0.0000000000
 1457.7500000 2.1989998817 29.767000198  -999.250000 0.1000000015 0.1000000015 0.0000000000
 1457.8750000 2.1549999714 29.750000000  -999.250000 0.1000000015 0.1000000015 0.0000000000
 1458.0000000 2.1530001163 29.747999191  -999.250000 0.1000000015 0.1000000015 0.0000000000
 1458.1250000 2.1530001163 29.750999451  -999.250000 0.1000000015 0.1000000015 0.0000000000
 1458.2500000 2.1549999714 29.698999405  -999.250000 0.1000000015 0.1000000015 0.0000000000
 1458.3750000 2.1570000648 29.648000717  -999.250000 0.1000000015 0.1000000015 0.0000000000
 1458.5000000 2.1870000362 29.705999374  -999.250000 0.1000000015 0.1000000015 0.0000000000
 1458.6250000 2.2520000935 29.764999390  -999.250000 0.1000000015 0.1000000015 0.0000000000
