# LAS format log file from PETREL
# Project units are specified as depth units
#==================================================================
~Version information
VERS.   2.0:
WRAP.   NO:
#==================================================================
~Well
STRT .m      1300.0000000 :
STOP .m      1750.0000000 :
STEP .m     0.12500000 :
NULL .        -999.250000 :
COMP.           : COMPANY
WELL.  5-176   : WELL
FLD.            : FIELD
LOC.            : LOCATION
SRVC.           : SERVICE COMPANY
DATE.  2020-03-08 09:25:10   : Log Export Date {yyyy-MM-dd HH:mm:ss}
PROV.           : PROVINCE
UWI.      : UNIQUE WELL ID
API.            : API NUMBER
#==================================================================
~Curve
DEPT .m                   : DEPTH
RT .ohm.m                 : RT
SP .                      : SP
Fluids .                  : Fluids
POR .m3/m3                : POR
PERM .mD                  : PERM
Lith .                    : Lith
~Parameter
#==================================================================
~Ascii
# ...
 1713.2500000 47.502998352 2.1579999924  -999.250000 0.1000000015 0.1000000015 0.0000000000
 1713.3750000 46.930000305 2.4189999104  -999.250000 0.1000000015 0.1000000015 0.0000000000
 1713.5000000 46.347000122 2.7550001144  -999.250000 0.1000000015 0.1000000015 0.0000000000
 1713.6250000 45.756999969 3.1289999485  -999.250000 0.1000000015 0.1000000015 0.0000000000
 1713.7500000 45.166999817 3.4430000782  -999.250000 0.1000000015 0.1000000015 0.0000000000
 1713.8750000 44.417999268 3.8190000057  -999.250000 0.1000000015 0.1000000015 0.0000000000
 1714.0000000 43.761001587 4.2579998970  -999.250000 0.1000000015 0.1000000015 0.0000000000
 1714.1250000 43.151000977 4.7600002289  -999.250000 0.1000000015 0.1000000015 0.0000000000
 1714.2500000 42.709999084 5.1550002098  -999.250000 0.1000000015 0.1000000015 0.0000000000
 1714.3750000 42.354999542 5.6339998245  -999.250000 0.1000000015 0.1000000015 0.0000000000
 1714.5000000 42.040000916 6.0300002098  -999.250000 0.1000000015 0.1000000015 0.0000000000
 1714.6250000 41.984001160 6.5029997826  -999.250000 0.1000000015 0.1000000015 0.0000000000
 1714.7500000 41.962001801 7.0970001221  -999.250000 0.1000000015 0.1000000015 0.0000000000
 1714.8750000 42.158000946 7.5689997673  -999.250000 0.1000000015 0.1000000015 0.0000000000
 1715.0000000 42.431999207 7.9930000305  -999.250000 0.1000000015 0.1000000015 0.0000000000
 1715.1250000 43.430999756 8.3620004654  -999.250000 0.1000000015 0.1000000015 0.0000000000
 1715.2500000 45.144001007 8.6639995575  -999.250000 0.1000000015 0.1000000015 0.0000000000
 1715.3750000 46.506000519 8.9429998398  -999.250000 0.1000000015 0.1000000015 0.0000000000
 1715.5000000 47.497001648 8.9619998932  -999.250000 0.1000000015 0.1000000015 0.0000000000
 1715.6250000 47.963001251 9.0629997253  -999.250000 0.1000000015 0.1000000015 0.0000000000
 1715.7500000 47.979000092 9.1549997330  -999.250000 0.1000000015 0.1000000015 0.0000000000
 1715.8750000 47.695999146 9.2760000229  -999.250000 0.1000000015 0.1000000015 0.0000000000
 1716.0000000 47.085998535 9.3100004196  -999.250000 0.1000000015 0.1000000015 0.0000000000
 1716.1250000 46.487998962 9.3940000534  -999.250000 0.1000000015 0.1000000015 0.0000000000
 1716.2500000 45.743999481 9.4160003662  -999.250000 0.1000000015 0.1000000015 0.0000000000
 1716.3750000 44.757999420 9.5000000000  -999.250000 0.1000000015 0.1000000015 0.0000000000
 1716.5000000 42.389999390 9.5889997482  -999.250000 0.1000000015 0.1000000015 0.0000000000
 1716.6250000 32.987998962 9.6339998245  -999.250000 0.1000000015 0.1000000015 0.0000000000
 1716.7500000 29.020000458 9.7089996338  -999.250000 0.1000000015 0.1000000015 0.0000000000
 1716.8750000 27.450000763 9.8760004044  -999.250000 0.1000000015 0.1000000015 0.0000000000
 1717.0000000 25.736000061 10.027000427  -999.250000 0.1000000015 0.1000000015 0.0000000000
 1717.1250000 23.972000122 10.197999954  -999.250000 0.1000000015 0.1000000015 0.0000000000
 1717.2500000 22.906000137 10.418000221  -999.250000 0.1000000015 0.1000000015 0.0000000000
 1717.3750000 22.134000778 10.593000412  -999.250000 0.1000000015 0.1000000015 0.0000000000
 1717.5000000 21.363000870 10.772000313  -999.250000 0.1000000015 0.1000000015 0.0000000000
 1717.6250000 20.476999283 10.996999741  -999.250000 0.1000000015 0.1000000015 0.0000000000
 1717.7500000 19.431999207 11.246999741  -999.250000 0.1000000015 0.1000000015 0.0000000000
 1717.8750000 18.694999695 11.449000359  -999.250000 0.1000000015 0.1000000015 0.0000000000
 1718.0000000 17.884000778 11.687000275  -999.250000 0.1000000015 0.1000000015 0.0000000000
 1718.1250000 17.030000687 11.942999840  -999.250000 0.1000000015 0.1000000015 0.0000000000
 1718.2500000 16.333000183 12.208999634  -999.250000 0.1000000015 0.1000000015 0.0000000000
 1718.3750000 15.715999603 12.409000397  -999.250000 0.1000000015 0.1000000015 0.0000000000
 1718.5000000 14.947999954 12.727000237  -999.250000 0.1000000015 0.1000000015 0.0000000000
 1718.6250000 14.468999863 13.012000084  -999.250000 0.1000000015 0.1000000015 0.0000000000
 1718.7500000 14.055000305 13.230999947  -999.250000 0.1000000015 0.1000000015 0.0000000000
 1718.8750000 13.708000183 13.451000214  -999.250000 0.1000000015 0.1000000015 0.0000000000
 1719.0000000 13.578000069 13.722000122 0.0000000000 1.0000000000 0.0000000000 1.0000000000
 1719.1250000 13.331000328 13.993000031 0.0000000000 1.0000000000 0.0000000000 1.0000000000
 1719.2500000 13.298000336 14.265000343 0.0000000000 1.0000000000 0.0000000000 1.0000000000
 1719.3750000 13.286000252 14.536000252 0.0000000000 1.0000000000 0.0000000000 1.0000000000
 1719.5000000 13.282999992 14.807999611 0.0000000000 1.0000000000 0.0000000000 1.0000000000
 1719.6250000 13.529999733 15.079000473 0.0000000000 1.0000000000 0.0000000000 1.0000000000
 1719.7500000 13.727999687 15.350999832 0.0000000000 1.0000000000 0.0000000000 1.0000000000
 1719.8750000 13.925999641 15.543999672 0.0000000000 1.0000000000 0.0000000000 1.0000000000
 1720.0000000 14.184000015 15.699999809 0.0000000000 1.0000000000 0.0000000000 1.0000000000
 1720.1250000 14.395999908 15.803999901 0.0000000000 1.0000000000 0.0000000000 1.0000000000
 1720.2500000 14.598999977 15.927000046 0.0000000000 1.0000000000 0.0000000000 1.0000000000
 1720.3750000 14.798999786 16.059000015 0.0000000000 1.0000000000 0.0000000000 1.0000000000
 1720.5000000 14.998999596 16.156999588 0.0000000000 1.0000000000 0.0000000000 1.0000000000
 1720.6250000 15.274999619 16.250000000 0.0000000000 1.0000000000 0.0000000000 1.0000000000
 1720.7500000 15.291000366 16.297000885 0.0000000000 1.0000000000 0.0000000000 1.0000000000
 1720.8750000 15.505999565 16.358999252 0.0000000000 1.0000000000 0.0000000000 1.0000000000
 1721.0000000 15.786999702 16.420999527 0.0000000000 1.0000000000 0.0000000000 1.0000000000
 1721.1250000 15.987999916 16.506000519 0.0000000000 1.0000000000 0.0000000000 1.0000000000
 1721.2500000 16.474000931 16.593999863 0.0000000000 1.0000000000 0.0000000000 1.0000000000
 1721.3750000 16.802000046 16.631999969 0.0000000000 1.0000000000 0.0000000000 1.0000000000
 1721.5000000 17.246000290 16.669000626  -999.250000  -999.250000  -999.250000  -999.250000
 1721.6250000 16.521999359 16.788999557  -999.250000  -999.250000  -999.250000  -999.250000
 1721.7500000 16.906000137 16.879999161  -999.250000  -999.250000  -999.250000  -999.250000
 1721.8750000 17.353000641 16.971000671  -999.250000  -999.250000  -999.250000  -999.250000
 1722.0000000 17.822000504 17.062000275  -999.250000  -999.250000  -999.250000  -999.250000
 1722.1250000 18.382999420 17.176000595  -999.250000  -999.250000  -999.250000  -999.250000
 1722.2500000 18.864999771 17.215999603  -999.250000  -999.250000  -999.250000  -999.250000
 1722.3750000 19.347999573 17.284999847  -999.250000  -999.250000  -999.250000  -999.250000
 1722.5000000 19.851999283 17.354999542  -999.250000  -999.250000  -999.250000  -999.250000
 1722.6250000 20.725999832 17.441999435  -999.250000  -999.250000  -999.250000  -999.250000
 1722.7500000 21.753000259 17.475000381  -999.250000  -999.250000  -999.250000  -999.250000
 1722.8750000 22.809999466 17.582000732  -999.250000  -999.250000  -999.250000  -999.250000
 1723.0000000 24.150999069 17.712999344  -999.250000  -999.250000  -999.250000  -999.250000
 1723.1250000 25.913000107 17.981000900  -999.250000  -999.250000  -999.250000  -999.250000
 1723.2500000 27.719999313 18.250999451  -999.250000  -999.250000  -999.250000  -999.250000
 1723.3750000 28.639999390 18.676000595  -999.250000  -999.250000  -999.250000  -999.250000
 1723.5000000 29.315999985 19.100000381  -999.250000  -999.250000  -999.250000  -999.250000
 1723.6250000 29.823999405 19.722000122  -999.250000  -999.250000  -999.250000  -999.250000
 1723.7500000 30.121000290 20.399999619  -999.250000  -999.250000  -999.250000  -999.250000
 1723.8750000 30.388999939 21.152000427  -999.250000  -999.250000  -999.250000  -999.250000
 1724.0000000 30.639999390 21.943000793  -999.250000  -999.250000  -999.250000  -999.250000
