# LAS format log file from PETREL
# Project units are specified as depth units
#==================================================================
~Version information
VERS.   2.0:
WRAP.   NO:
#==================================================================
~Well
STRT .m      1450.0000000 :
STOP .m      1720.0000000 :
STEP .m     0.12500000 :
NULL .        -999.250000 :
COMP.           : COMPANY
WELL.  5-17C   : WELL
FLD.            : FIELD
LOC.            : LOCATION
SRVC.           : SERVICE COMPANY
DATE.  2020-03-08 09:25:10   : Log Export Date {yyyy-MM-dd HH:mm:ss}
PROV.           : PROVINCE
UWI.      : UNIQUE WELL ID
API.            : API NUMBER
#==================================================================
~Curve
DEPT .m                   : DEPTH
RT .ohm.m                 : RT
SP .                      : SP
Fluids .                  : Fluids
POR .m3/m3                : POR
PERM .mD                  : PERM
Lith .                    : Lith
~Parameter
#==================================================================
~Ascii
# ...
 1602.2500000 8.8739995956 11.177000046  -999.250000 0.1000000015 0.1000000015 0.0000000000
 1602.3750000 9.4280004501 10.899999619  -999.250000 0.1000000015 0.1000000015 0.0000000000
 1602.5000000 9.9829998016 10.090999603  -999.250000 0.1000000015 0.1000000015 0.0000000000
 1602.6250000 10.407999992 9.2950000763  -999.250000 0.1000000015 0.1000000015 0.0000000000
 1602.7500000 11.034000397 8.8879995346  -999.250000 0.1000000015 0.1000000015 0.0000000000
 1602.8750000 11.767000198 8.6000003815  -999.250000 0.1000000015 0.1000000015 0.0000000000
 1603.0000000 12.555000305 8.5000000000  -999.250000 0.1000000015 0.1000000015 0.0000000000
 1603.1250000 13.309000015 8.3800001144  -999.250000 0.1000000015 0.1000000015 0.0000000000
 1603.2500000 14.100000381 8.2519998550  -999.250000 0.1000000015 0.1000000015 0.0000000000
 1603.3750000 15.331999779 8.2349996567  -999.250000 0.1000000015 0.1000000015 0.0000000000
 1603.5000000 16.788999557 8.2290000916  -999.250000 0.1000000015 0.1000000015 0.0000000000
 1603.6250000 18.354000092 8.2779998779  -999.250000 0.1000000015 0.1000000015 0.0000000000
 1603.7500000 19.469999313 8.3269996643  -999.250000 0.1000000015 0.1000000015 0.0000000000
 1603.8750000 20.847999573 8.4069995880  -999.250000 0.1000000015 0.1000000015 0.0000000000
 1604.0000000 22.225000381 8.5509996414  -999.250000 0.1000000015 0.1000000015 0.0000000000
 1604.1250000 23.452999115 8.6569995880  -999.250000 0.1000000015 0.1000000015 0.0000000000
 1604.2500000 24.474000931 8.7629995346  -999.250000 0.1000000015 0.1000000015 0.0000000000
 1604.3750000 25.665000916 8.9250001907  -999.250000 0.1000000015 0.1000000015 0.0000000000
 1604.5000000 26.948999405 9.0629997253  -999.250000 0.1000000015 0.1000000015 0.0000000000
 1604.6250000 28.708999634 9.1020002365  -999.250000 0.1000000015 0.1000000015 0.0000000000
 1604.7500000 30.999000549 9.1780004501  -999.250000 0.1000000015 0.1000000015 0.0000000000
 1604.8750000 33.805000305 9.2580003738  -999.250000 0.1000000015 0.1000000015 0.0000000000
 1605.0000000 36.611000061 9.2899999619  -999.250000 0.1000000015 0.1000000015 0.0000000000
 1605.1250000 37.210998535 9.3219995499  -999.250000 0.1000000015 0.1000000015 0.0000000000
 1605.2500000 37.667999268 9.4270000458  -999.250000 0.1000000015 0.1000000015 0.0000000000
 1605.3750000 38.125000000 9.3559999466  -999.250000 0.1000000015 0.1000000015 0.0000000000
 1605.5000000 38.502998352 9.3310003281  -999.250000 0.1000000015 0.1000000015 0.0000000000
 1605.6250000 38.816001892 9.1359996796  -999.250000 0.1000000015 0.1000000015 0.0000000000
 1605.7500000 39.298000336 8.8879995346  -999.250000 0.1000000015 0.1000000015 0.0000000000
 1605.8750000 39.533000946 8.7110004425  -999.250000 0.1000000015 0.1000000015 0.0000000000
 1606.0000000 39.791999817 8.5649995804  -999.250000 0.1000000015 0.1000000015 0.0000000000
 1606.1250000 39.995998383 8.5279998779  -999.250000 0.1000000015 0.1000000015 0.0000000000
 1606.2500000 40.381000519 8.5209999084  -999.250000 0.1000000015 0.1000000015 0.0000000000
 1606.3750000 40.706001282 8.6000003815  -999.250000 0.1000000015 0.1000000015 0.0000000000
 1606.5000000 40.933998108 8.8000001907  -999.250000 0.1000000015 0.1000000015 0.0000000000
 1606.6250000 41.185001373 8.9729995728  -999.250000 0.1000000015 0.1000000015 0.0000000000
 1606.7500000 41.449001312 9.1180000305  -999.250000 0.1000000015 0.1000000015 0.0000000000
 1606.8750000 41.566001892 9.2500000000  -999.250000 0.1000000015 0.1000000015 0.0000000000
 1607.0000000 41.611000061 9.5530004501  -999.250000 0.1000000015 0.1000000015 0.0000000000
 1607.1250000 41.483001709 9.8830003738  -999.250000 0.1000000015 0.1000000015 0.0000000000
 1607.2500000 41.417999268 10.241000175  -999.250000 0.1000000015 0.1000000015 0.0000000000
 1607.3750000 41.637001038 10.609999657  -999.250000 0.1000000015 0.1000000015 0.0000000000
 1607.5000000 41.854999542 10.984999657  -999.250000 0.1000000015 0.1000000015 0.0000000000
 1607.6250000 42.668998718 11.267999649  -999.250000 0.1000000015 0.1000000015 0.0000000000
 1607.7500000 43.633998871 11.522999763  -999.250000 0.1000000015 0.1000000015 0.0000000000
 1607.8750000 44.674999237 12.010999680 0.0000000000 5.0000000000 1.0000000000 1.0000000000
 1608.0000000 45.758998871 12.838999748 0.0000000000 5.0000000000 1.0000000000 1.0000000000
 1608.1250000 47.110000610 13.520000458 0.0000000000 5.0000000000 1.0000000000 1.0000000000
 1608.2500000 48.743000031 14.347999573 0.0000000000 5.0000000000 1.0000000000 1.0000000000
 1608.3750000 51.216999054 15.001999855 0.0000000000 5.0000000000 1.0000000000 1.0000000000
 1608.5000000 61.153999329 15.312999725 0.0000000000 5.0000000000 1.0000000000 1.0000000000
 1608.6250000 66.497001648 15.623999596 0.0000000000 5.0000000000 1.0000000000 1.0000000000
 1608.7500000 71.841003418 15.890000343 0.0000000000 5.0000000000 1.0000000000 1.0000000000
 1608.8750000 74.348999023 16.247999191 0.0000000000 5.0000000000 1.0000000000 1.0000000000
 1609.0000000 75.010002136 16.443000793 0.0000000000 5.0000000000 1.0000000000 1.0000000000
 1609.1250000 75.040000916 16.666999817 0.0000000000 5.0000000000 1.0000000000 1.0000000000
 1609.2500000 74.459999084 16.837999344 0.0000000000 5.0000000000 1.0000000000 1.0000000000
 1609.3750000 70.922996521 16.891000748  -999.250000 0.1000000015 0.1000000015 0.0000000000
 1609.5000000 69.074996948 16.917999268  -999.250000 0.1000000015 0.1000000015 0.0000000000
 1609.6250000 67.128997803 16.930000305  -999.250000 0.1000000015 0.1000000015 0.0000000000
 1609.7500000 64.458999634 16.864000320  -999.250000 0.1000000015 0.1000000015 0.0000000000
 1609.8750000 58.047000885 16.841999054  -999.250000 0.1000000015 0.1000000015 0.0000000000
 1610.0000000 53.902999878 16.829999924  -999.250000 0.1000000015 0.1000000015 0.0000000000
 1610.1250000 51.737998962 16.718000412  -999.250000 0.1000000015 0.1000000015 0.0000000000
 1610.2500000 50.624000549 16.606000900  -999.250000 0.1000000015 0.1000000015 0.0000000000
 1610.3750000 49.693000793 16.589000702  -999.250000 0.1000000015 0.1000000015 0.0000000000
 1610.5000000 48.818000793 16.503000259  -999.250000 0.1000000015 0.1000000015 0.0000000000
 1610.6250000 48.585998535 16.416000366  -999.250000 0.1000000015 0.1000000015 0.0000000000
 1610.7500000 48.511001587 16.377000809  -999.250000 0.1000000015 0.1000000015 0.0000000000
 1610.8750000 49.120998383 16.268999100  -999.250000 0.1000000015 0.1000000015 0.0000000000
 1611.0000000 49.914001465 16.159999847  -999.250000 0.1000000015 0.1000000015 0.0000000000
 1611.1250000 50.047000885 16.033000946  -999.250000 0.1000000015 0.1000000015 0.0000000000
 1611.2500000 50.179000854 15.906000137  -999.250000 0.1000000015 0.1000000015 0.0000000000
 1611.3750000 50.208999634 15.815999985  -999.250000 0.1000000015 0.1000000015 0.0000000000
 1611.5000000 50.208999634 15.727999687  -999.250000 0.1000000015 0.1000000015 0.0000000000
 1611.6250000 50.027000427 15.616999626  -999.250000 0.1000000015 0.1000000015 0.0000000000
 1611.7500000 49.179000854 15.522000313  -999.250000 0.1000000015 0.1000000015 0.0000000000
 1611.8750000 48.097999573 15.482000351 4.0000000000 23.000000000 2603.0000000 1.0000000000
 1612.0000000 47.300998688 15.442000389 4.0000000000 23.000000000 2603.0000000 1.0000000000
 1612.1250000 45.494998932 15.362000465 4.0000000000 23.000000000 2603.0000000 1.0000000000
 1612.2500000 34.529998779 15.251000404 4.0000000000 23.000000000 2603.0000000 1.0000000000
 1612.3750000 33.055999756 15.128000259 4.0000000000 23.000000000 2603.0000000 1.0000000000
 1612.5000000 32.151000977 15.032999992 4.0000000000 23.000000000 2603.0000000 1.0000000000
 1612.6250000 31.245000839 14.991999626 4.0000000000 23.000000000 2603.0000000 1.0000000000
 1612.7500000 30.379999161 14.895000458 4.0000000000 23.000000000 2603.0000000 1.0000000000
 1612.8750000 29.665000916 14.805000305 4.0000000000 23.000000000 2603.0000000 1.0000000000
 1613.0000000 29.165000916 14.762999535 4.0000000000 23.000000000 2603.0000000 1.0000000000
