# LAS format log file from PETREL
# Project units are specified as depth units
#==================================================================
~Version information
VERS.   2.0:
WRAP.   NO:
#==================================================================
~Well
STRT .m      1450.0000000 :
STOP .m      1660.0000000 :
STEP .m     0.12500000 :
NULL .        -999.250000 :
COMP.           : COMPANY
WELL.  5-17   : WELL
FLD.            : FIELD
LOC.            : LOCATION
SRVC.           : SERVICE COMPANY
DATE.  2020-03-08 09:25:10   : Log Export Date {yyyy-MM-dd HH:mm:ss}
PROV.           : PROVINCE
UWI.      : UNIQUE WELL ID
API.            : API NUMBER
#==================================================================
~Curve
DEPT .m                   : DEPTH
RT .ohm.m                 : RT
SP .                      : SP
Fluids .                  : Fluids
POR .m3/m3                : POR
PERM .mD                  : PERM
Lith .                    : Lith
~Parameter
#==================================================================
~Ascii
# ...
 1602.2500000 3.0329999924 22.204000473  -999.250000 0.1000000015 0.1000000015 0.0000000000
 1602.3750000 3.6700000763 21.395000458  -999.250000 0.1000000015 0.1000000015 0.0000000000
 1602.5000000 6.6680002213 20.525999069 4.0000000000 20.000000000 1781.0000000 1.0000000000
 1602.6250000 5.6269998550 19.562000275 4.0000000000 20.000000000 1781.0000000 1.0000000000
 1602.7500000 5.0539999008 18.541000366 4.0000000000 20.000000000 1781.0000000 1.0000000000
 1602.8750000 6.0409998894 17.169000626 4.0000000000 20.000000000 1781.0000000 1.0000000000
 1603.0000000 8.0170001984 15.496000290 4.0000000000 20.000000000 1781.0000000 1.0000000000
 1603.1250000 8.1470003128 14.241000175 4.0000000000 20.000000000 1781.0000000 1.0000000000
 1603.2500000 6.6599998474 12.725000381 4.0000000000 20.000000000 1781.0000000 1.0000000000
 1603.3750000 5.6649999619 11.081000328 4.0000000000 20.000000000 1781.0000000 1.0000000000
 1603.5000000 12.250000000 9.5839996338 4.0000000000 20.000000000 1781.0000000 1.0000000000
 1603.6250000 15.729999542 7.9060001373 4.0000000000 20.000000000 1781.0000000 1.0000000000
 1603.7500000 16.613000870 6.4780001640 4.0000000000 20.000000000 1781.0000000 1.0000000000
 1603.8750000 17.048000336 5.0729999542 4.0000000000 20.000000000 1781.0000000 1.0000000000
 1604.0000000 24.729000092 4.2170000076 4.0000000000 20.000000000 1781.0000000 1.0000000000
 1604.1250000 26.431999207 3.7530000210 4.0000000000 20.000000000 1781.0000000 1.0000000000
 1604.2500000 25.544000626 3.5320000648 4.0000000000 20.000000000 1781.0000000 1.0000000000
 1604.3750000 23.822999954 3.2829999924 4.0000000000 20.000000000 1781.0000000 1.0000000000
 1604.5000000 21.700000763 3.2079999447 4.0000000000 20.000000000 1781.0000000 1.0000000000
 1604.6250000 32.789001465 3.2079999447 4.0000000000 20.000000000 1781.0000000 1.0000000000
 1604.7500000 36.407001495 3.2100000381 4.0000000000 20.000000000 1781.0000000 1.0000000000
 1604.8750000 39.347000122 3.3080000877 4.0000000000 20.000000000 1781.0000000 1.0000000000
 1605.0000000 37.314998627 3.5350000858 4.0000000000 20.000000000 1781.0000000 1.0000000000
 1605.1250000 33.355998993 4.0479998589 4.0000000000 20.000000000 1781.0000000 1.0000000000
 1605.2500000 32.745998383 4.7379999161 4.0000000000 20.000000000 1781.0000000 1.0000000000
 1605.3750000 30.895000458 5.5209999084 4.0000000000 20.000000000 1781.0000000 1.0000000000
 1605.5000000 29.572000504 6.2909998894 4.0000000000 20.000000000 1781.0000000 1.0000000000
 1605.6250000 28.097999573 7.0359997749 4.0000000000 20.000000000 1781.0000000 1.0000000000
 1605.7500000 26.940000534 7.6170001030 4.0000000000 20.000000000 1781.0000000 1.0000000000
 1605.8750000 25.148000717 8.2040004730 4.0000000000 20.000000000 1781.0000000 1.0000000000
 1606.0000000 21.690000534 8.3000001907 4.0000000000 20.000000000 1781.0000000 1.0000000000
 1606.1250000 17.958000183 9.0200004578 4.0000000000 20.000000000 1781.0000000 1.0000000000
 1606.2500000 12.975000381 8.8800001144 4.0000000000 20.000000000 1781.0000000 1.0000000000
 1606.3750000 10.562999725 8.7010002136 4.0000000000 20.000000000 1781.0000000 1.0000000000
 1606.5000000 9.6300001144 8.4890003204 4.0000000000 20.000000000 1781.0000000 1.0000000000
 1606.6250000 9.4149999619 8.2639999390 4.0000000000 20.000000000 1781.0000000 1.0000000000
 1606.7500000 10.734999657 8.0699996948 4.0000000000 20.000000000 1781.0000000 1.0000000000
 1606.8750000 12.673999786 8.0690002441 4.0000000000 20.000000000 1781.0000000 1.0000000000
 1607.0000000 13.647000313 8.1239995956 4.0000000000 20.000000000 1781.0000000 1.0000000000
 1607.1250000 12.328000069 8.2130002975 4.0000000000 20.000000000 1781.0000000 1.0000000000
 1607.2500000 10.500000000 8.3570003510 4.0000000000 20.000000000 1781.0000000 1.0000000000
 1607.3750000 9.2500000000 7.7909998894 4.0000000000 20.000000000 1781.0000000 1.0000000000
 1607.5000000 8.9149999619 7.3390002251 4.0000000000 20.000000000 1781.0000000 1.0000000000
 1607.6250000 9.8050003052 7.1710000038 4.0000000000 20.000000000 1781.0000000 1.0000000000
 1607.7500000 11.500000000 7.1890001297 4.0000000000 20.000000000 1781.0000000 1.0000000000
 1607.8750000 14.262999535 6.8709998131 4.0000000000 20.000000000 1781.0000000 1.0000000000
 1608.0000000 19.232999802 6.2519998550 4.0000000000 20.000000000 1781.0000000 1.0000000000
 1608.1250000 27.003000259 5.4229998589 4.0000000000 20.000000000 1781.0000000 1.0000000000
 1608.2500000 40.347000122 5.5110001564 4.0000000000 20.000000000 1781.0000000 1.0000000000
 1608.3750000 63.146999359 5.3559999466 4.0000000000 20.000000000 1781.0000000 1.0000000000
 1608.5000000 77.152000427 5.3340001106 4.0000000000 20.000000000 1781.0000000 1.0000000000
 1608.6250000 109.24400330 5.5970001221 4.0000000000 20.000000000 1781.0000000 1.0000000000
 1608.7500000 121.63400269 5.9520001411 4.0000000000 20.000000000 1781.0000000 1.0000000000
 1608.8750000 139.13400269 6.3130002022 4.0000000000 20.000000000 1781.0000000 1.0000000000
 1609.0000000 136.21299744 6.5520000458 4.0000000000 20.000000000 1781.0000000 1.0000000000
 1609.1250000 122.52300262 6.6329998970 4.0000000000 20.000000000 1781.0000000 1.0000000000
 1609.2500000 129.83500671 6.6310000420 4.0000000000 20.000000000 1781.0000000 1.0000000000
 1609.3750000 138.37199402 6.3420000076 4.0000000000 20.000000000 1781.0000000 1.0000000000
 1609.5000000 120.76499939 5.9219999313 4.0000000000 20.000000000 1781.0000000 1.0000000000
 1609.6250000 49.103000641 5.4749999046 4.0000000000 20.000000000 1781.0000000 1.0000000000
 1609.7500000 28.976999283 5.1409997940 4.0000000000 20.000000000 1781.0000000 1.0000000000
 1609.8750000 19.736999512 4.8229999542 4.0000000000 20.000000000 1781.0000000 1.0000000000
 1610.0000000 17.923000336 4.6290001869 4.0000000000 20.000000000 1781.0000000 1.0000000000
 1610.1250000 21.792999268 4.6440000534 4.0000000000 20.000000000 1781.0000000 1.0000000000
 1610.2500000 25.385999680 5.2589998245 4.0000000000 20.000000000 1781.0000000 1.0000000000
 1610.3750000 28.402999878 5.9039998055 4.0000000000 20.000000000 1781.0000000 1.0000000000
 1610.5000000 26.629999161 6.8200001717 4.0000000000 20.000000000 1781.0000000 1.0000000000
 1610.6250000 21.176000595 7.6189999580 4.0000000000 20.000000000 1781.0000000 1.0000000000
 1610.7500000 19.215000153 8.2770004272 4.0000000000 20.000000000 1781.0000000 1.0000000000
 1610.8750000 17.150999069 8.7620000839 4.0000000000 20.000000000 1781.0000000 1.0000000000
 1611.0000000 15.324000359 8.9949998856 4.0000000000 20.000000000 1781.0000000 1.0000000000
 1611.1250000 17.339000702 8.9420003891 4.0000000000 20.000000000 1781.0000000 1.0000000000
 1611.2500000 18.079999924 8.6239995956 4.0000000000 20.000000000 1781.0000000 1.0000000000
 1611.3750000 15.149999619 8.2279996872 4.0000000000 20.000000000 1781.0000000 1.0000000000
 1611.5000000 12.081999779 7.7729997635 4.0000000000 20.000000000 1781.0000000 1.0000000000
 1611.6250000 13.135999680 7.3090000153 4.0000000000 20.000000000 1781.0000000 1.0000000000
 1611.7500000 13.366000175 6.8629999161 4.0000000000 20.000000000 1781.0000000 1.0000000000
 1611.8750000 13.083999634 6.1810002327 4.0000000000 20.000000000 1781.0000000 1.0000000000
 1612.0000000 14.008999825 5.5089998245 4.0000000000 20.000000000 1781.0000000 1.0000000000
 1612.1250000 17.750999451 5.1500000954 4.0000000000 20.000000000 1781.0000000 1.0000000000
 1612.2500000 18.952999115 5.0120000839 4.0000000000 20.000000000 1781.0000000 1.0000000000
 1612.3750000 19.777000427 5.2140002251 4.0000000000 20.000000000 1781.0000000 1.0000000000
 1612.5000000 21.447000504 5.7600002289 4.0000000000 20.000000000 1781.0000000 1.0000000000
 1612.6250000 22.194999695 6.3670001030 4.0000000000 20.000000000 1781.0000000 1.0000000000
 1612.7500000 20.403999329 6.9219999313 4.0000000000 20.000000000 1781.0000000 1.0000000000
 1612.8750000 19.294000626 7.3499999046 4.0000000000 20.000000000 1781.0000000 1.0000000000
 1613.0000000 18.884000778 7.6589999199 4.0000000000 20.000000000 1781.0000000 1.0000000000
