# LAS format log file from PETREL
# Project units are specified as depth units
#==================================================================
~Version information
VERS.   2.0:
WRAP.   NO:
#==================================================================
~Well
STRT .m      1300.0000000 :
STOP .m      1750.0000000 :
STEP .m     0.12500000 :
NULL .        -999.250000 :
COMP.           : COMPANY
WELL.  5-176   : WELL
FLD.            : FIELD
LOC.            : LOCATION
SRVC.           : SERVICE COMPANY
DATE.  2020-03-08 09:25:10   : Log Export Date {yyyy-MM-dd HH:mm:ss}
PROV.           : PROVINCE
UWI.      : UNIQUE WELL ID
API.            : API NUMBER
#==================================================================
~Curve
DEPT .m                   : DEPTH
RT .ohm.m                 : RT
SP .                      : SP
Fluids .                  : Fluids
POR .m3/m3                : POR
PERM .mD                  : PERM
Lith .                    : Lith
~Parameter
#==================================================================
~Ascii
# ...
 1332.6250000 2.7839999199 35.157001495 1.0000000000 19.000000000 1548.0000000 1.0000000000
 1332.7500000 2.6519999504 34.980998993 1.0000000000 19.000000000 1548.0000000 1.0000000000
 1332.8750000 2.5639998913 34.744998932 1.0000000000 19.000000000 1548.0000000 1.0000000000
 1333.0000000 2.6140000820 34.539001465 1.0000000000 19.000000000 1548.0000000 1.0000000000
 1333.1250000 2.7209999561 34.367000580 1.0000000000 19.000000000 1548.0000000 1.0000000000
 1333.2500000 2.8710000515 34.191001892 1.0000000000 19.000000000 1548.0000000 1.0000000000
 1333.3750000 3.0820000172 34.014999390 1.0000000000 19.000000000 1548.0000000 1.0000000000
 1333.5000000 3.2479999065 33.837001801 1.0000000000 19.000000000 1548.0000000 1.0000000000
 1333.6250000 3.4590001106 33.597999573 1.0000000000 19.000000000 1548.0000000 1.0000000000
 1333.7500000 3.6289999485 33.409999847 1.0000000000 19.000000000 1548.0000000 1.0000000000
 1333.8750000 3.8369998932 33.229000092 1.0000000000 19.000000000 1548.0000000 1.0000000000
 1334.0000000 4.0640001297 33.004001617 1.0000000000 19.000000000 1548.0000000 1.0000000000
 1334.1250000 4.3420000076 32.754001617 1.0000000000 19.000000000 1548.0000000 1.0000000000
 1334.2500000 4.6360001564 32.492000580 1.0000000000 19.000000000 1548.0000000 1.0000000000
 1334.3750000 4.8350000381 32.282001495 1.0000000000 19.000000000 1548.0000000 1.0000000000
 1334.5000000 5.1510000229 32.071998596 1.0000000000 19.000000000 1548.0000000 1.0000000000
 1334.6250000 5.7519998550 31.805999756 1.0000000000 19.000000000 1548.0000000 1.0000000000
 1334.7500000 6.3790001869 31.596000671 1.0000000000 19.000000000 1548.0000000 1.0000000000
 1334.8750000 6.8299999237 31.385000229 1.0000000000 19.000000000 1548.0000000 1.0000000000
 1335.0000000 7.2919998169 31.118000031 1.0000000000 19.000000000 1548.0000000 1.0000000000
 1335.1250000 7.9140000343 30.851999283 1.0000000000 19.000000000 1548.0000000 1.0000000000
 1335.2500000 9.1649999619 30.504999161 1.0000000000 19.000000000 1548.0000000 1.0000000000
 1335.3750000 10.074000359 30.121999741 1.0000000000 19.000000000 1548.0000000 1.0000000000
 1335.5000000 11.012999535 29.833999634 1.0000000000 19.000000000 1548.0000000 1.0000000000
 1335.6250000 11.668000221 29.478000641 1.0000000000 19.000000000 1548.0000000 1.0000000000
 1335.7500000 11.951999664 29.121000290 1.0000000000 19.000000000 1548.0000000 1.0000000000
 1335.8750000 12.289999962 28.740999222 1.0000000000 19.000000000 1548.0000000 1.0000000000
 1336.0000000 12.590000153 28.347999573 1.0000000000 19.000000000 1548.0000000 1.0000000000
 1336.1250000 12.852000237 27.858999252 1.0000000000 19.000000000 1548.0000000 1.0000000000
 1336.2500000 13.114999771 27.336000443 1.0000000000 19.000000000 1548.0000000 1.0000000000
 1336.3750000 13.493000031 26.965999603 1.0000000000 19.000000000 1548.0000000 1.0000000000
 1336.5000000 13.920999527 26.392999649 1.0000000000 19.000000000 1548.0000000 1.0000000000
 1336.6250000 14.248999596 25.746999741 1.0000000000 19.000000000 1548.0000000 1.0000000000
 1336.7500000 14.732999802 25.287000656 1.0000000000 19.000000000 1548.0000000 1.0000000000
 1336.8750000 18.381000519 24.775999069 1.0000000000 19.000000000 1548.0000000 1.0000000000
 1337.0000000 25.805999756 24.350999832 1.0000000000 19.000000000 1548.0000000 1.0000000000
 1337.1250000 28.459999084 24.156000137 1.0000000000 19.000000000 1548.0000000 1.0000000000
 1337.2500000 29.381999969 23.816999435 1.0000000000 19.000000000 1548.0000000 1.0000000000
 1337.3750000 29.680000305 23.534999847 1.0000000000 19.000000000 1548.0000000 1.0000000000
 1337.5000000 29.896999359 23.423000336 1.0000000000 19.000000000 1548.0000000 1.0000000000
 1337.6250000 30.129999161 23.309999466 1.0000000000 19.000000000 1548.0000000 1.0000000000
 1337.7500000 30.343999863 23.295999527 1.0000000000 19.000000000 1548.0000000 1.0000000000
 1337.8750000 30.558000565 23.204999924 1.0000000000 19.000000000 1548.0000000 1.0000000000
 1338.0000000 30.839000702 23.187999725 1.0000000000 19.000000000 1548.0000000 1.0000000000
 1338.1250000 30.826000214 23.260999680 1.0000000000 19.000000000 1548.0000000 1.0000000000
 1338.2500000 30.812999725 23.375000000 1.0000000000 19.000000000 1548.0000000 1.0000000000
 1338.3750000 30.739000320 23.469999313 1.0000000000 19.000000000 1548.0000000 1.0000000000
 1338.5000000 30.635000229 23.590000153 1.0000000000 19.000000000 1548.0000000 1.0000000000
 1338.6250000 30.434000015 23.687999725 1.0000000000 19.000000000 1548.0000000 1.0000000000
 1338.7500000 29.954000473 23.764999390 1.0000000000 19.000000000 1548.0000000 1.0000000000
 1338.8750000 29.596000671 23.841999054 1.0000000000 19.000000000 1548.0000000 1.0000000000
 1339.0000000 28.794000626 24.000000000 1.0000000000 19.000000000 1548.0000000 1.0000000000
 1339.1250000 28.408000946 24.173000336 1.0000000000 19.000000000 1548.0000000 1.0000000000
 1339.2500000 28.127000809 24.298000336 1.0000000000 19.000000000 1548.0000000 1.0000000000
 1339.3750000 27.937000275 24.423999786 1.0000000000 19.000000000 1548.0000000 1.0000000000
 1339.5000000 27.993000031 24.597999573 1.0000000000 19.000000000 1548.0000000 1.0000000000
 1339.6250000 28.204999924 24.777000427 1.0000000000 19.000000000 1548.0000000 1.0000000000
 1339.7500000 28.599000931 24.926000595 1.0000000000 19.000000000 1548.0000000 1.0000000000
 1339.8750000 29.121000290 25.075000763  -999.250000 0.1000000015 0.1000000015 0.0000000000
 1340.0000000 29.354000092 25.306999207  -999.250000 0.1000000015 0.1000000015 0.0000000000
 1340.1250000 29.395999908 25.496000290  -999.250000 0.1000000015 0.1000000015 0.0000000000
 1340.2500000 28.325000763 25.743999481  -999.250000 0.1000000015 0.1000000015 0.0000000000
 1340.3750000 27.681999207 25.951000214  -999.250000 0.1000000015 0.1000000015 0.0000000000
 1340.5000000 27.040000916 26.156999588  -999.250000 0.1000000015 0.1000000015 0.0000000000
 1340.6250000 26.652999878 26.340000153  -999.250000 0.1000000015 0.1000000015 0.0000000000
 1340.7500000 26.187000275 26.593000412  -999.250000 0.1000000015 0.1000000015 0.0000000000
 1340.8750000 25.906999588 26.857000351  -999.250000 0.1000000015 0.1000000015 0.0000000000
 1341.0000000 25.708999634 27.072999954  -999.250000 0.1000000015 0.1000000015 0.0000000000
 1341.1250000 25.639999390 27.288999557  -999.250000 0.1000000015 0.1000000015 0.0000000000
 1341.2500000 25.575000763 27.620000839  -999.250000 0.1000000015 0.1000000015 0.0000000000
 1341.3750000 25.544000626 27.989999771  -999.250000 0.1000000015 0.1000000015 0.0000000000
 1341.5000000 25.530000687 28.295000076  -999.250000 0.1000000015 0.1000000015 0.0000000000
 1341.6250000 25.667999268 28.649000168  -999.250000 0.1000000015 0.1000000015 0.0000000000
 1341.7500000 25.702999115 29.031000137  -999.250000 0.1000000015 0.1000000015 0.0000000000
 1341.8750000 25.395999908 29.277999878  -999.250000 0.1000000015 0.1000000015 0.0000000000
 1342.0000000 24.576999664 29.537000656  -999.250000 0.1000000015 0.1000000015 0.0000000000
 1342.1250000 19.290000916 29.875000000  -999.250000 0.1000000015 0.1000000015 0.0000000000
 1342.2500000 16.346000671 30.173999786  -999.250000 0.1000000015 0.1000000015 0.0000000000
 1342.3750000 14.347000122 30.454000473  -999.250000 0.1000000015 0.1000000015 0.0000000000
 1342.5000000 11.876999855 30.728000641  -999.250000 0.1000000015 0.1000000015 0.0000000000
 1342.6250000 9.0200004578 31.083000183  -999.250000 0.1000000015 0.1000000015 0.0000000000
 1342.7500000 7.2280001640 31.304000854  -999.250000 0.1000000015 0.1000000015 0.0000000000
 1342.8750000 6.4450001717 31.631000519  -999.250000 0.1000000015 0.1000000015 0.0000000000
 1343.0000000 5.6609997749 31.923000336  -999.250000 0.1000000015 0.1000000015 0.0000000000
 1343.1250000 5.2430000305 32.126998901  -999.250000 0.1000000015 0.1000000015 0.0000000000
 1343.2500000 4.9239997864 32.369998932  -999.250000 0.1000000015 0.1000000015 0.0000000000
 1343.3750000 4.6539998055 32.631999969  -999.250000 0.1000000015 0.1000000015 0.0000000000
