# LAS format log file from PETREL
# Project units are specified as depth units
#==================================================================
~Version information
VERS.   2.0:
WRAP.   NO:
#==================================================================
~Well
STRT .m      1350.0000000 :
STOP .m      1720.0000000 :
STEP .m     0.12500000 :
NULL .        -999.250000 :
COMP.           : COMPANY
WELL.  5-172C   : WELL
FLD.            : FIELD
LOC.            : LOCATION
SRVC.           : SERVICE COMPANY
DATE.  2020-03-08 09:25:10   : Log Export Date {yyyy-MM-dd HH:mm:ss}
PROV.           : PROVINCE
UWI.      : UNIQUE WELL ID
API.            : API NUMBER
#==================================================================
~Curve
DEPT .m                   : DEPTH
RT .ohm.m                 : RT
SP .                      : SP
Fluids .                  : Fluids
POR .m3/m3                : POR
PERM .mD                  : PERM
Lith .                    : Lith
~Parameter
#==================================================================
~Ascii
# ...
 1589.2500000 10.380000114 31.108999252  -999.250000 0.1000000015 0.1000000015 0.0000000000
 1589.3750000 10.255000114 31.677000046 3.0000000000 14.000000000 232.00000000 1.0000000000
 1589.5000000 10.107000351 32.470001221 3.0000000000 14.000000000 232.00000000 1.0000000000
 1589.6250000 9.9580001831 33.040000916 3.0000000000 14.000000000 232.00000000 1.0000000000
 1589.7500000 9.7729997635 33.721000671 3.0000000000 14.000000000 232.00000000 1.0000000000
 1589.8750000 9.5869998932 34.119998932 3.0000000000 14.000000000 232.00000000 1.0000000000
 1590.0000000 9.4020004272 34.519001007 3.0000000000 14.000000000 232.00000000 1.0000000000
 1590.1250000 9.2629995346 33.134998322 3.0000000000 14.000000000 232.00000000 1.0000000000
 1590.2500000 9.1389999390 32.051998138 3.0000000000 14.000000000 232.00000000 1.0000000000
 1590.3750000 9.0489997864 31.031000137 3.0000000000 14.000000000 232.00000000 1.0000000000
 1590.5000000 8.9370002747 30.311000824 3.0000000000 14.000000000 232.00000000 1.0000000000
 1590.6250000 8.8500003815 29.332000732 3.0000000000 14.000000000 232.00000000 1.0000000000
 1590.7500000 8.8179998398 28.135999680 3.0000000000 14.000000000 232.00000000 1.0000000000
 1590.8750000 8.7779998779 21.438999176 3.0000000000 14.000000000 232.00000000 1.0000000000
 1591.0000000 8.7379999161 18.398000717 4.0000000000 22.000000000 1830.0000000 1.0000000000
 1591.1250000 8.6510000229 16.114000320 4.0000000000 22.000000000 1830.0000000 1.0000000000
 1591.2500000 8.5979995728 13.925000191 4.0000000000 22.000000000 1830.0000000 1.0000000000
 1591.3750000 8.4989995956 9.4329996109 4.0000000000 22.000000000 1830.0000000 1.0000000000
 1591.5000000 8.4090003967 7.1380000114 4.0000000000 22.000000000 1830.0000000 1.0000000000
 1591.6250000 8.3199996948 6.3200001717 4.0000000000 22.000000000 1830.0000000 1.0000000000
 1591.7500000 8.2760000229 5.8420000076 4.0000000000 22.000000000 1830.0000000 1.0000000000
 1591.8750000 8.2180004120 5.5570001602 4.0000000000 22.000000000 1830.0000000 1.0000000000
 1592.0000000 8.2150001526 5.3680000305 4.0000000000 22.000000000 1830.0000000 1.0000000000
 1592.1250000 8.2810001373 5.1789999008 4.0000000000 22.000000000 1830.0000000 1.0000000000
 1592.2500000 12.263999939 4.9910001755 4.0000000000 22.000000000 1830.0000000 1.0000000000
 1592.3750000 13.923999786 4.9089999199 4.0000000000 22.000000000 1830.0000000 1.0000000000
 1592.5000000 14.503000259 4.8020000458 4.0000000000 22.000000000 1830.0000000 1.0000000000
 1592.6250000 15.069000244 4.6939997673 4.0000000000 22.000000000 1830.0000000 1.0000000000
 1592.7500000 15.692999840 4.6160001755 4.0000000000 22.000000000 1830.0000000 1.0000000000
 1592.8750000 16.510000229 4.5380001068 4.0000000000 22.000000000 1830.0000000 1.0000000000
 1593.0000000 17.388000488 4.4670000076 4.0000000000 22.000000000 1830.0000000 1.0000000000
 1593.1250000 18.122999191 4.3649997711 4.0000000000 22.000000000 1830.0000000 1.0000000000
 1593.2500000 18.743999481 4.2620000839 4.0000000000 22.000000000 1830.0000000 1.0000000000
 1593.3750000 19.190999985 4.1319999695 4.0000000000 22.000000000 1830.0000000 1.0000000000
 1593.5000000 19.714000702 4.0019998550 4.0000000000 22.000000000 1830.0000000 1.0000000000
 1593.6250000 20.318000793 3.9370000362 4.0000000000 22.000000000 1830.0000000 1.0000000000
 1593.7500000 23.551000595 3.8729999065 4.0000000000 22.000000000 1830.0000000 1.0000000000
 1593.8750000 24.688999176 3.8640000820 4.0000000000 22.000000000 1830.0000000 1.0000000000
 1594.0000000 25.337999344 3.7920000553 4.0000000000 22.000000000 1830.0000000 1.0000000000
 1594.1250000 25.600999832 3.7660000324 4.0000000000 22.000000000 1830.0000000 1.0000000000
 1594.2500000 25.760000229 3.7550001144 4.0000000000 22.000000000 1830.0000000 1.0000000000
 1594.3750000 25.863000870 3.7439999580 4.0000000000 22.000000000 1830.0000000 1.0000000000
 1594.5000000 25.937999725 2.0840001106 4.0000000000 22.000000000 1830.0000000 1.0000000000
 1594.6250000 26.086000443 1.3240000010 4.0000000000 22.000000000 1830.0000000 1.0000000000
 1594.7500000 26.285999298 0.9110000134 4.0000000000 22.000000000 1830.0000000 1.0000000000
 1594.8750000 26.551000595 0.4979999959 4.0000000000 22.000000000 1830.0000000 1.0000000000
 1595.0000000 26.847999573 0.2080000043 4.0000000000 22.000000000 1830.0000000 1.0000000000
 1595.1250000 27.030000687 -0.081000000 4.0000000000 22.000000000 1830.0000000 1.0000000000
 1595.2500000 27.257999420 -0.045000002 4.0000000000 22.000000000 1830.0000000 1.0000000000
 1595.3750000 27.437000275 -0.009000000 4.0000000000 22.000000000 1830.0000000 1.0000000000
 1595.5000000 27.614999771 0.0599999987 4.0000000000 22.000000000 1830.0000000 1.0000000000
 1595.6250000 28.055999756 0.3880000114 4.0000000000 22.000000000 1830.0000000 1.0000000000
 1595.7500000 28.559000015 0.9440000057 4.0000000000 22.000000000 1830.0000000 1.0000000000
 1595.8750000 29.023000717 1.3619999886 4.0000000000 22.000000000 1830.0000000 1.0000000000
 1596.0000000 29.322000504 1.8689999580 4.0000000000 22.000000000 1830.0000000 1.0000000000
 1596.1250000 29.885999680 2.5169999599 4.0000000000 22.000000000 1830.0000000 1.0000000000
 1596.2500000 34.657001495 3.1440000534 4.0000000000 22.000000000 1830.0000000 1.0000000000
 1596.3750000 35.366001129 3.7699999809 4.0000000000 22.000000000 1830.0000000 1.0000000000
 1596.5000000 35.602001190 4.2129998207 4.0000000000 22.000000000 1830.0000000 1.0000000000
 1596.6250000 35.784999847 4.6160001755 4.0000000000 22.000000000 1830.0000000 1.0000000000
 1596.7500000 35.904998779 5.0939998627 4.0000000000 22.000000000 1830.0000000 1.0000000000
 1596.8750000 35.951000214 5.4720001221 4.0000000000 22.000000000 1830.0000000 1.0000000000
 1597.0000000 36.143001556 5.6560001373 4.0000000000 22.000000000 1830.0000000 1.0000000000
 1597.1250000 36.349998474 5.8189997673 4.0000000000 22.000000000 1830.0000000 1.0000000000
 1597.2500000 36.497001648 5.9689998627 4.0000000000 22.000000000 1830.0000000 1.0000000000
 1597.3750000 36.769001007 6.1490001678 4.0000000000 22.000000000 1830.0000000 1.0000000000
 1597.5000000 37.026000977 6.3070001602 4.0000000000 22.000000000 1830.0000000 1.0000000000
 1597.6250000 37.396999359 6.3449997902 4.0000000000 22.000000000 1830.0000000 1.0000000000
 1597.7500000 37.769001007 6.4210000038 4.0000000000 22.000000000 1830.0000000 1.0000000000
 1597.8750000 38.143001556 6.3870000839 4.0000000000 22.000000000 1830.0000000 1.0000000000
 1598.0000000 38.516998291 6.3130002022  -999.250000 0.1000000015 0.1000000015 0.0000000000
 1598.1250000 39.276000977 6.1329998970  -999.250000 0.1000000015 0.1000000015 0.0000000000
 1598.2500000 39.664001465 6.0110001564  -999.250000 0.1000000015 0.1000000015 0.0000000000
 1598.3750000 39.804000854 5.8090000153  -999.250000 0.1000000015 0.1000000015 0.0000000000
 1598.5000000 39.881999969 5.4800000191 4.0000000000 23.000000000 2476.0000000 1.0000000000
 1598.6250000 39.952999115 4.9949998856 4.0000000000 23.000000000 2476.0000000 1.0000000000
 1598.7500000 40.019001007 4.3359999657 4.0000000000 23.000000000 2476.0000000 1.0000000000
 1598.8750000 40.083000183 3.6589999199 4.0000000000 23.000000000 2476.0000000 1.0000000000
 1599.0000000 39.799999237 2.9830000401 4.0000000000 23.000000000 2476.0000000 1.0000000000
 1599.1250000 39.276000977 2.1410000324 4.0000000000 23.000000000 2476.0000000 1.0000000000
 1599.2500000 38.772998810 1.7239999771 4.0000000000 23.000000000 2476.0000000 1.0000000000
 1599.3750000 29.326000214 1.3730000257 4.0000000000 23.000000000 2476.0000000 1.0000000000
 1599.5000000 26.565999985 1.0599999428 4.0000000000 23.000000000 2476.0000000 1.0000000000
 1599.6250000 25.549999237 0.7670000196 4.0000000000 23.000000000 2476.0000000 1.0000000000
 1599.7500000 26.701999664 0.6370000243 4.0000000000 23.000000000 2476.0000000 1.0000000000
 1599.8750000 27.632999420 0.5000000000 4.0000000000 23.000000000 2476.0000000 1.0000000000
 1600.0000000 28.813999176 0.4659999907 4.0000000000 23.000000000 2476.0000000 1.0000000000
