# LAS format log file from PETREL
# Project units are specified as depth units
#==================================================================
~Version information
VERS.   2.0:
WRAP.   NO:
#==================================================================
~Well
STRT .m      1350.0000000 :
STOP .m      1720.0000000 :
STEP .m     0.12500000 :
NULL .        -999.250000 :
COMP.           : COMPANY
WELL.  5-172C   : WELL
FLD.            : FIELD
LOC.            : LOCATION
SRVC.           : SERVICE COMPANY
DATE.  2020-03-08 09:25:10   : Log Export Date {yyyy-MM-dd HH:mm:ss}
PROV.           : PROVINCE
UWI.      : UNIQUE WELL ID
API.            : API NUMBER
#==================================================================
~Curve
DEPT .m                   : DEPTH
RT .ohm.m                 : RT
SP .                      : SP
Fluids .                  : Fluids
POR .m3/m3                : POR
PERM .mD                  : PERM
Lith .                    : Lith
~Parameter
#==================================================================
~Ascii
# ...
 1545.7500000 2.6570000648 13.541000366  -999.250000 0.1000000015 0.1000000015 0.0000000000
 1545.8750000 2.9089999199 13.586999893  -999.250000 0.1000000015 0.1000000015 0.0000000000
 1546.0000000 2.7119998932 13.633999825  -999.250000 0.1000000015 0.1000000015 0.0000000000
 1546.1250000 2.5350000858 13.680000305  -999.250000 0.1000000015 0.1000000015 0.0000000000
 1546.2500000 2.3250000477 13.692000389  -999.250000 0.1000000015 0.1000000015 0.0000000000
 1546.3750000 2.0940001011 13.704000473  -999.250000 0.1000000015 0.1000000015 0.0000000000
 1546.5000000 1.8140000105 13.715999603  -999.250000 0.1000000015 0.1000000015 0.0000000000
 1546.6250000 1.7599999905 13.746999741  -999.250000 0.1000000015 0.1000000015 0.0000000000
 1546.7500000 1.7389999628 13.777999878  -999.250000 0.1000000015 0.1000000015 0.0000000000
 1546.8750000 1.7330000401 13.809000015  -999.250000 0.1000000015 0.1000000015 0.0000000000
 1547.0000000 1.7569999695 13.843999863  -999.250000 0.1000000015 0.1000000015 0.0000000000
 1547.1250000 1.7799999714 13.878999710  -999.250000 0.1000000015 0.1000000015 0.0000000000
 1547.2500000 1.8990000486 13.913000107  -999.250000 0.1000000015 0.1000000015 0.0000000000
 1547.3750000 2.0199999809 13.947999954  -999.250000 0.1000000015 0.1000000015 0.0000000000
 1547.5000000 2.1819999218 13.987999916  -999.250000 0.1000000015 0.1000000015 0.0000000000
 1547.6250000 2.3139998913 14.029000282  -999.250000 0.1000000015 0.1000000015 0.0000000000
 1547.7500000 2.4409999847 14.069000244  -999.250000 0.1000000015 0.1000000015 0.0000000000
 1547.8750000 2.5339999199 14.069000244  -999.250000 0.1000000015 0.1000000015 0.0000000000
 1548.0000000 2.6080000401 14.069999695  -999.250000 0.1000000015 0.1000000015 0.0000000000
 1548.1250000 2.1840000153 14.102000237  -999.250000 0.1000000015 0.1000000015 0.0000000000
 1548.2500000 1.9529999495 14.133000374  -999.250000 0.1000000015 0.1000000015 0.0000000000
 1548.3750000 1.7450000048 14.164999962  -999.250000 0.1000000015 0.1000000015 0.0000000000
 1548.5000000 1.6250000000 14.208999634  -999.250000 0.1000000015 0.1000000015 0.0000000000
 1548.6250000 1.5670000315 14.253000259  -999.250000 0.1000000015 0.1000000015 0.0000000000
 1548.7500000 1.5490000248 14.298000336  -999.250000 0.1000000015 0.1000000015 0.0000000000
 1548.8750000 1.5410000086 14.298999786  -999.250000 0.1000000015 0.1000000015 0.0000000000
 1549.0000000 1.5089999437 14.300000191  -999.250000 0.1000000015 0.1000000015 0.0000000000
 1549.1250000 1.4620000124 14.345999718  -999.250000 0.1000000015 0.1000000015 0.0000000000
 1549.2500000 1.4479999542 14.392999649  -999.250000 0.1000000015 0.1000000015 0.0000000000
 1549.3750000 1.4090000391 14.399999619  -999.250000 0.1000000015 0.1000000015 0.0000000000
 1549.5000000 1.3559999466 14.406999588  -999.250000 0.1000000015 0.1000000015 0.0000000000
 1549.6250000 1.3400000334 14.413999557  -999.250000 0.1000000015 0.1000000015 0.0000000000
 1549.7500000 1.5470000505 14.451999664  -999.250000 0.1000000015 0.1000000015 0.0000000000
 1549.8750000 1.7539999485 14.489000320  -999.250000 0.1000000015 0.1000000015 0.0000000000
 1550.0000000 1.9299999475 14.527000427  -999.250000 0.1000000015 0.1000000015 0.0000000000
 1550.1250000 2.1070001125 14.529000282  -999.250000 0.1000000015 0.1000000015 0.0000000000
 1550.2500000 2.4070000648 14.529999733  -999.250000 0.1000000015 0.1000000015 0.0000000000
 1550.3750000 2.6480000019 14.529999733  -999.250000 0.1000000015 0.1000000015 0.0000000000
 1550.5000000 2.8670001030 14.531000137  -999.250000 0.1000000015 0.1000000015 0.0000000000
 1550.6250000 3.1649999619 14.531999588  -999.250000 0.1000000015 0.1000000015 0.0000000000
 1550.7500000 3.3980000019 14.555999756  -999.250000 0.1000000015 0.1000000015 0.0000000000
 1550.8750000 3.5989999771 14.581000328  -999.250000 0.1000000015 0.1000000015 0.0000000000
 1551.0000000 3.7290000916 14.604999542  -999.250000 0.1000000015 0.1000000015 0.0000000000
 1551.1250000 3.8589999676 14.630000114  -999.250000 0.1000000015 0.1000000015 0.0000000000
 1551.2500000 3.8919999599 14.633999825  -999.250000 0.1000000015 0.1000000015 0.0000000000
 1551.3750000 3.9249999523 14.637999535  -999.250000 0.1000000015 0.1000000015 0.0000000000
 1551.5000000 3.7899999619 14.642999649  -999.250000 0.1000000015 0.1000000015 0.0000000000
 1551.6250000 3.6549999714 14.647000313  -999.250000 0.1000000015 0.1000000015 0.0000000000
 1551.7500000 3.3699998856 14.689000130  -999.250000 0.1000000015 0.1000000015 0.0000000000
 1551.8750000 3.0859999657 14.732000351  -999.250000 0.1000000015 0.1000000015 0.0000000000
 1552.0000000 2.7439999580 14.737999916  -999.250000 0.1000000015 0.1000000015 0.0000000000
 1552.1250000 2.4030001163 14.743000031  -999.250000 0.1000000015 0.1000000015 0.0000000000
 1552.2500000 2.3110001087 14.748999596  -999.250000 0.1000000015 0.1000000015 0.0000000000
 1552.3750000 2.2030000687 14.755000114  -999.250000 0.1000000015 0.1000000015 0.0000000000
 1552.5000000 2.1949999332 14.760999680  -999.250000 0.1000000015 0.1000000015 0.0000000000
 1552.6250000 2.1909999847 14.795999527  -999.250000 0.1000000015 0.1000000015 0.0000000000
 1552.7500000 2.1889998913 14.831000328  -999.250000 0.1000000015 0.1000000015 0.0000000000
 1552.8750000 2.1889998913 14.866000175  -999.250000 0.1000000015 0.1000000015 0.0000000000
 1553.0000000 2.1889998913 14.869999886  -999.250000 0.1000000015 0.1000000015 0.0000000000
 1553.1250000 2.1889998913 14.873000145  -999.250000 0.1000000015 0.1000000015 0.0000000000
 1553.2500000 2.1540000439 14.876000404  -999.250000 0.1000000015 0.1000000015 0.0000000000
 1553.3750000 2.0220000744 14.878999710  -999.250000 0.1000000015 0.1000000015 0.0000000000
 1553.5000000 1.8250000477 14.880000114  -999.250000 0.1000000015 0.1000000015 0.0000000000
 1553.6250000 1.6820000410 14.880000114  -999.250000 0.1000000015 0.1000000015 0.0000000000
 1553.7500000 1.5490000248 14.880999565  -999.250000 0.1000000015 0.1000000015 0.0000000000
 1553.8750000 1.4539999962 14.881999969  -999.250000 0.1000000015 0.1000000015 0.0000000000
 1554.0000000 1.3420000076 14.913000107  -999.250000 0.1000000015 0.1000000015 0.0000000000
 1554.1250000 1.2630000114 14.944999695  -999.250000 0.1000000015 0.1000000015 0.0000000000
 1554.2500000 1.1809999943 14.977000237  -999.250000 0.1000000015 0.1000000015 0.0000000000
 1554.3750000 1.1109999418 15.003999710  -999.250000 0.1000000015 0.1000000015 0.0000000000
 1554.5000000 1.1430000067 15.031000137  -999.250000 0.1000000015 0.1000000015 0.0000000000
 1554.6250000 1.2630000114 15.057999611  -999.250000 0.1000000015 0.1000000015 0.0000000000
 1554.7500000 1.4340000153 15.083999634  -999.250000 0.1000000015 0.1000000015 0.0000000000
 1554.8750000 1.6510000229 15.111000061  -999.250000 0.1000000015 0.1000000015 0.0000000000
 1555.0000000 1.8350000381 15.135000229  -999.250000 0.1000000015 0.1000000015 0.0000000000
 1555.1250000 1.9900000095 15.159000397  -999.250000 0.1000000015 0.1000000015 0.0000000000
 1555.2500000 2.1970000267 15.182999611  -999.250000 0.1000000015 0.1000000015 0.0000000000
 1555.3750000 2.3910000324 15.206999779  -999.250000 0.1000000015 0.1000000015 0.0000000000
 1555.5000000 2.5280001163 15.251000404  -999.250000 0.1000000015 0.1000000015 0.0000000000
 1555.6250000 2.6960000992 15.295000076  -999.250000 0.1000000015 0.1000000015 0.0000000000
 1555.7500000 2.9260001183 15.338999748  -999.250000 0.1000000015 0.1000000015 0.0000000000
 1555.8750000 3.2139999866 15.383000374  -999.250000 0.1000000015 0.1000000015 0.0000000000
 1556.0000000 3.4730000496 15.427000046  -999.250000 0.1000000015 0.1000000015 0.0000000000
 1556.1250000 3.7530000210 15.470999718  -999.250000 0.1000000015 0.1000000015 0.0000000000
 1556.2500000 3.7899999619 15.515000343  -999.250000 0.1000000015 0.1000000015 0.0000000000
 1556.3750000 3.8269999027 15.559000015  -999.250000 0.1000000015 0.1000000015 0.0000000000
 1556.5000000 3.6640000343 15.602999687  -999.250000 0.1000000015 0.1000000015 0.0000000000
