# LAS format log file from PETREL
# Project units are specified as depth units
#==================================================================
~Version information
VERS.   2.0:
WRAP.   NO:
#==================================================================
~Well
STRT .m      1350.0000000 :
STOP .m      1720.0000000 :
STEP .m     0.12500000 :
NULL .        -999.250000 :
COMP.           : COMPANY
WELL.  5-172C   : WELL
FLD.            : FIELD
LOC.            : LOCATION
SRVC.           : SERVICE COMPANY
DATE.  2020-03-08 09:25:10   : Log Export Date {yyyy-MM-dd HH:mm:ss}
PROV.           : PROVINCE
UWI.      : UNIQUE WELL ID
API.            : API NUMBER
#==================================================================
~Curve
DEPT .m                   : DEPTH
RT .ohm.m                 : RT
SP .                      : SP
Fluids .                  : Fluids
POR .m3/m3                : POR
PERM .mD                  : PERM
Lith .                    : Lith
~Parameter
#==================================================================
~Ascii
# ...
 1632.7500000 1.0110000372 34.395000458  -999.250000 0.1000000015 0.1000000015 0.0000000000
 1632.8750000 1.0620000362 34.243000031  -999.250000 0.1000000015 0.1000000015 0.0000000000
 1633.0000000 1.1069999933 34.062999725  -999.250000 0.1000000015 0.1000000015 0.0000000000
 1633.1250000 1.1929999590 33.876998901  -999.250000 0.1000000015 0.1000000015 0.0000000000
 1633.2500000 1.2649999857 33.748001099  -999.250000 0.1000000015 0.1000000015 0.0000000000
 1633.3750000 1.2810000181 33.548999786  -999.250000 0.1000000015 0.1000000015 0.0000000000
 1633.5000000 1.3250000477 33.356998444  -999.250000 0.1000000015 0.1000000015 0.0000000000
 1633.6250000 1.3669999838 33.108001709  -999.250000 0.1000000015 0.1000000015 0.0000000000
 1633.7500000 1.4210000038 32.860000610  -999.250000 0.1000000015 0.1000000015 0.0000000000
 1633.8750000 1.4650000334 32.460998535  -999.250000 0.1000000015 0.1000000015 0.0000000000
 1634.0000000 1.4830000401 31.961999893  -999.250000 0.1000000015 0.1000000015 0.0000000000
 1634.1250000 1.4889999628 31.479000092  -999.250000 0.1000000015 0.1000000015 0.0000000000
 1634.2500000 1.4529999495 30.995000839  -999.250000 0.1000000015 0.1000000015 0.0000000000
 1634.3750000 1.4420000315 30.222000122  -999.250000 0.1000000015 0.1000000015 0.0000000000
 1634.5000000 1.3949999809 29.166000366  -999.250000 0.1000000015 0.1000000015 0.0000000000
 1634.6250000 1.3489999771 28.149999619  -999.250000 0.1000000015 0.1000000015 0.0000000000
 1634.7500000 1.3220000267 27.430000305  -999.250000 0.1000000015 0.1000000015 0.0000000000
 1634.8750000 1.2960000038 26.940999985  -999.250000 0.1000000015 0.1000000015 0.0000000000
 1635.0000000 1.2940000296 26.561000824  -999.250000 0.1000000015 0.1000000015 0.0000000000
 1635.1250000 1.2920000553 26.038999557  -999.250000 0.1000000015 0.1000000015 0.0000000000
 1635.2500000 1.3200000525 25.545000076  -999.250000 0.1000000015 0.1000000015 0.0000000000
 1635.3750000 1.3309999704 25.065999985  -999.250000 0.1000000015 0.1000000015 0.0000000000
 1635.5000000 1.3650000095 24.205999374  -999.250000 0.1000000015 0.1000000015 0.0000000000
 1635.6250000 1.3819999695 22.819000244  -999.250000 0.1000000015 0.1000000015 0.0000000000
 1635.7500000 1.4160000086 21.069000244  -999.250000 0.1000000015 0.1000000015 0.0000000000
 1635.8750000 1.4639999866 19.162000656  -999.250000 0.1000000015 0.1000000015 0.0000000000
 1636.0000000 1.5069999695 18.212999344  -999.250000 0.1000000015 0.1000000015 0.0000000000
 1636.1250000 1.5599999428 17.263999939  -999.250000 0.1000000015 0.1000000015 0.0000000000
 1636.2500000 1.6189999580 16.410999298  -999.250000 0.1000000015 0.1000000015 0.0000000000
 1636.3750000 1.7220000029 15.635999680  -999.250000 0.1000000015 0.1000000015 0.0000000000
 1636.5000000 1.7990000248 14.987999916  -999.250000 0.1000000015 0.1000000015 0.0000000000
 1636.6250000 1.8760000467 14.498000145  -999.250000 0.1000000015 0.1000000015 0.0000000000
 1636.7500000 2.0510001183 14.194000244  -999.250000 0.1000000015 0.1000000015 0.0000000000
 1636.8750000 2.2320001125 14.003999710 3.0000000000 11.000000000 77.000000000 1.0000000000
 1637.0000000 2.4030001163 13.991000175 3.0000000000 11.000000000 77.000000000 1.0000000000
 1637.1250000 2.6129999161 13.977000237 3.0000000000 11.000000000 77.000000000 1.0000000000
 1637.2500000 2.8450000286 14.041000366 3.0000000000 11.000000000 77.000000000 1.0000000000
 1637.3750000 3.0889999866 14.123999596 3.0000000000 11.000000000 77.000000000 1.0000000000
 1637.5000000 3.3659999371 14.296999931 3.0000000000 11.000000000 77.000000000 1.0000000000
 1637.6250000 3.5759999752 14.527000427 3.0000000000 11.000000000 77.000000000 1.0000000000
 1637.7500000 3.8310000896 14.729000092 3.0000000000 11.000000000 77.000000000 1.0000000000
 1637.8750000 4.0830001831 14.923000336 3.0000000000 11.000000000 77.000000000 1.0000000000
 1638.0000000 4.2979998589 15.157999992  -999.250000 0.1000000015 0.1000000015 0.0000000000
 1638.1250000 4.6609997749 15.364999771  -999.250000 0.1000000015 0.1000000015 0.0000000000
 1638.2500000 4.8899998665 15.734000206  -999.250000 0.1000000015 0.1000000015 0.0000000000
 1638.3750000 5.0910000801 16.202999115  -999.250000 0.1000000015 0.1000000015 0.0000000000
 1638.5000000 5.2630000114 16.646999359  -999.250000 0.1000000015 0.1000000015 0.0000000000
 1638.6250000 5.4860000610 17.041000366  -999.250000 0.1000000015 0.1000000015 0.0000000000
 1638.7500000 5.8150000572 17.452999115  -999.250000 0.1000000015 0.1000000015 0.0000000000
 1638.8750000 6.0739998817 17.875000000 3.0000000000 15.000000000 189.00000000 1.0000000000
 1639.0000000 6.2430000305 17.934000015 3.0000000000 15.000000000 189.00000000 1.0000000000
 1639.1250000 6.4520001411 17.948999405 3.0000000000 15.000000000 189.00000000 1.0000000000
 1639.2500000 6.7189998627 17.795000076 3.0000000000 15.000000000 189.00000000 1.0000000000
 1639.3750000 6.9749999046 17.475000381 3.0000000000 15.000000000 189.00000000 1.0000000000
 1639.5000000 7.1560001373 17.016000748  -999.250000 0.1000000015 0.1000000015 0.0000000000
 1639.6250000 7.3379998207 16.304000854  -999.250000 0.1000000015 0.1000000015 0.0000000000
 1639.7500000 7.7470002174 13.748000145  -999.250000 0.1000000015 0.1000000015 0.0000000000
 1639.8750000 7.4990000725 12.263999939  -999.250000 0.1000000015 0.1000000015 0.0000000000
 1640.0000000 7.2509999275 10.779999733  -999.250000 0.1000000015 0.1000000015 0.0000000000
 1640.1250000 7.3920001984 9.7760000229  -999.250000 0.1000000015 0.1000000015 0.0000000000
 1640.2500000 7.2859997749 8.7049999237  -999.250000 0.1000000015 0.1000000015 0.0000000000
 1640.3750000 7.2480001450 7.5120000839 4.0000000000 19.000000000 935.00000000 1.0000000000
 1640.5000000 7.0729999542 5.9559998512 4.0000000000 19.000000000 935.00000000 1.0000000000
 1640.6250000 6.8130002022 4.7979998589 4.0000000000 19.000000000 935.00000000 1.0000000000
 1640.7500000 6.5159997940 3.5610001087 4.0000000000 19.000000000 935.00000000 1.0000000000
 1640.8750000 6.3550000191 2.6240000725 4.0000000000 19.000000000 935.00000000 1.0000000000
 1641.0000000 6.1649999619 1.9780000448 4.0000000000 19.000000000 935.00000000 1.0000000000
 1641.1250000 6.0659999847 3.7809998989 4.0000000000 19.000000000 935.00000000 1.0000000000
 1641.2500000 6.0199999809 5.5850000381 4.0000000000 19.000000000 935.00000000 1.0000000000
 1641.3750000 6.0029997826 12.276000023 4.0000000000 19.000000000 935.00000000 1.0000000000
 1641.5000000 6.1669998169 20.662000656 4.0000000000 19.000000000 935.00000000 1.0000000000
 1641.6250000 6.2300000191 23.218999863 4.0000000000 19.000000000 935.00000000 1.0000000000
 1641.7500000 6.4739999771 21.075000763 4.0000000000 19.000000000 935.00000000 1.0000000000
 1641.8750000 6.7230000496 18.315000534 4.0000000000 19.000000000 935.00000000 1.0000000000
 1642.0000000 6.9730000496 16.756000519 4.0000000000 19.000000000 935.00000000 1.0000000000
 1642.1250000 7.2800002098 16.399999619 4.0000000000 19.000000000 935.00000000 1.0000000000
 1642.2500000 7.5250000954 16.233999252 4.0000000000 19.000000000 935.00000000 1.0000000000
 1642.3750000 7.8010001183 16.118000031 4.0000000000 19.000000000 935.00000000 1.0000000000
 1642.5000000 8.0959997177 15.989000320 4.0000000000 19.000000000 935.00000000 1.0000000000
 1642.6250000 8.4010000229 15.885000229 4.0000000000 19.000000000 935.00000000 1.0000000000
 1642.7500000 9.1230001450 15.760999680 4.0000000000 19.000000000 935.00000000 1.0000000000
 1642.8750000 10.164999962 15.626999855 4.0000000000 19.000000000 935.00000000 1.0000000000
 1643.0000000 11.352999687 15.487999916 4.0000000000 19.000000000 935.00000000 1.0000000000
 1643.1250000 12.359999657 15.347000122 4.0000000000 19.000000000 935.00000000 1.0000000000
 1643.2500000 13.366999626 15.118000031 4.0000000000 19.000000000 935.00000000 1.0000000000
 1643.3750000 14.246000290 14.734999657 4.0000000000 19.000000000 935.00000000 1.0000000000
 1643.5000000 15.125000000 14.331999779 4.0000000000 19.000000000 935.00000000 1.0000000000
