# LAS format log file from PETREL
# Project units are specified as depth units
#==================================================================
~Version information
VERS.   2.0:
WRAP.   NO:
#==================================================================
~Well
STRT .m      1300.0000000 :
STOP .m      1750.0000000 :
STEP .m     0.12500000 :
NULL .        -999.250000 :
COMP.           : COMPANY
WELL.  5-176   : WELL
FLD.            : FIELD
LOC.            : LOCATION
SRVC.           : SERVICE COMPANY
DATE.  2020-03-08 09:25:10   : Log Export Date {yyyy-MM-dd HH:mm:ss}
PROV.           : PROVINCE
UWI.      : UNIQUE WELL ID
API.            : API NUMBER
#==================================================================
~Curve
DEPT .m                   : DEPTH
RT .ohm.m                 : RT
SP .                      : SP
Fluids .                  : Fluids
POR .m3/m3                : POR
PERM .mD                  : PERM
Lith .                    : Lith
~Parameter
#==================================================================
~Ascii
# ...
 1561.0000000 2.6289999485 30.188999176  -999.250000 0.1000000015 0.1000000015 0.0000000000
 1561.1250000 2.4739999771 30.190000534  -999.250000 0.1000000015 0.1000000015 0.0000000000
 1561.2500000 2.4000000954 30.190000534  -999.250000 0.1000000015 0.1000000015 0.0000000000
 1561.3750000 2.3489999771 30.190999985  -999.250000 0.1000000015 0.1000000015 0.0000000000
 1561.5000000 2.3499999046 30.191999435  -999.250000 0.1000000015 0.1000000015 0.0000000000
 1561.6250000 2.3519999981 30.193000793  -999.250000 0.1000000015 0.1000000015 0.0000000000
 1561.7500000 2.3519999981 30.194000244  -999.250000 0.1000000015 0.1000000015 0.0000000000
 1561.8750000 2.3139998913 30.236999512  -999.250000 0.1000000015 0.1000000015 0.0000000000
 1562.0000000 2.3029999733 30.280000687  -999.250000 0.1000000015 0.1000000015 0.0000000000
 1562.1250000 2.2669999599 30.291999817  -999.250000 0.1000000015 0.1000000015 0.0000000000
 1562.2500000 2.2160000801 30.304000854  -999.250000 0.1000000015 0.1000000015 0.0000000000
 1562.3750000 2.1140000820 30.353000641  -999.250000 0.1000000015 0.1000000015 0.0000000000
 1562.5000000 1.7960000038 30.402999878  -999.250000 0.1000000015 0.1000000015 0.0000000000
 1562.6250000 1.4769999981 30.413999557  -999.250000 0.1000000015 0.1000000015 0.0000000000
 1562.7500000 1.4040000439 30.424999237  -999.250000 0.1000000015 0.1000000015 0.0000000000
 1562.8750000 1.5119999647 30.488000870  -999.250000 0.1000000015 0.1000000015 0.0000000000
 1563.0000000 1.6859999895 30.503999710  -999.250000 0.1000000015 0.1000000015 0.0000000000
 1563.1250000 1.8630000353 30.520000458  -999.250000 0.1000000015 0.1000000015 0.0000000000
 1563.2500000 2.0399999619 30.535999298  -999.250000 0.1000000015 0.1000000015 0.0000000000
 1563.3750000 2.1089999676 30.542999268  -999.250000 0.1000000015 0.1000000015 0.0000000000
 1563.5000000 2.1380000114 30.548999786  -999.250000 0.1000000015 0.1000000015 0.0000000000
 1563.6250000 2.1870000362 30.600999832  -999.250000 0.1000000015 0.1000000015 0.0000000000
 1563.7500000 2.1329998970 30.652999878  -999.250000 0.1000000015 0.1000000015 0.0000000000
 1563.8750000 2.0759999752 30.662000656  -999.250000 0.1000000015 0.1000000015 0.0000000000
 1564.0000000 1.9390000105 30.665000916  -999.250000 0.1000000015 0.1000000015 0.0000000000
 1564.1250000 1.7840000391 30.669000626  -999.250000 0.1000000015 0.1000000015 0.0000000000
 1564.2500000 1.5800000429 30.672000885  -999.250000 0.1000000015 0.1000000015 0.0000000000
 1564.3750000 1.4340000153 30.673000336  -999.250000 0.1000000015 0.1000000015 0.0000000000
 1564.5000000 1.3550000191 30.673999786  -999.250000 0.1000000015 0.1000000015 0.0000000000
 1564.6250000 1.4190000296 30.674999237  -999.250000 0.1000000015 0.1000000015 0.0000000000
 1564.7500000 1.4830000401 30.638999939  -999.250000 0.1000000015 0.1000000015 0.0000000000
 1564.8750000 1.6380000114 30.601999283  -999.250000 0.1000000015 0.1000000015 0.0000000000
 1565.0000000 1.8430000544 30.565999985  -999.250000 0.1000000015 0.1000000015 0.0000000000
 1565.1250000 2.0439999104 30.565999985  -999.250000 0.1000000015 0.1000000015 0.0000000000
 1565.2500000 2.2449998856 30.566999435  -999.250000 0.1000000015 0.1000000015 0.0000000000
 1565.3750000 2.4230000973 30.568000793  -999.250000 0.1000000015 0.1000000015 0.0000000000
 1565.5000000 2.5639998913 30.569000244  -999.250000 0.1000000015 0.1000000015 0.0000000000
 1565.6250000 2.7039999962 30.569999695  -999.250000 0.1000000015 0.1000000015 0.0000000000
 1565.7500000 2.7939999104 30.570999146  -999.250000 0.1000000015 0.1000000015 0.0000000000
 1565.8750000 2.8759999275 30.572000504  -999.250000 0.1000000015 0.1000000015 0.0000000000
 1566.0000000 2.9760000706 30.607999802  -999.250000 0.1000000015 0.1000000015 0.0000000000
 1566.1250000 3.1150000095 30.645000458  -999.250000 0.1000000015 0.1000000015 0.0000000000
 1566.2500000 3.2430000305 30.680999756  -999.250000 0.1000000015 0.1000000015 0.0000000000
 1566.3750000 3.3640000820 30.684999466  -999.250000 0.1000000015 0.1000000015 0.0000000000
 1566.5000000 3.4839999676 30.688999176  -999.250000 0.1000000015 0.1000000015 0.0000000000
 1566.6250000 3.5699999332 30.690999985  -999.250000 0.1000000015 0.1000000015 0.0000000000
 1566.7500000 3.6010000706 30.693000793  -999.250000 0.1000000015 0.1000000015 0.0000000000
 1566.8750000 3.5680000782 30.726999283  -999.250000 0.1000000015 0.1000000015 0.0000000000
 1567.0000000 3.5290000439 30.761999130  -999.250000 0.1000000015 0.1000000015 0.0000000000
 1567.1250000 3.4769999981 30.795999527  -999.250000 0.1000000015 0.1000000015 0.0000000000
 1567.2500000 3.4030001163 30.802999496  -999.250000 0.1000000015 0.1000000015 0.0000000000
 1567.3750000 3.2320001125 30.809999466  -999.250000 0.1000000015 0.1000000015 0.0000000000
 1567.5000000 2.8610000610 30.812000275  -999.250000 0.1000000015 0.1000000015 0.0000000000
 1567.6250000 2.1150000095 30.813999176  -999.250000 0.1000000015 0.1000000015 0.0000000000
 1567.7500000 1.5690000057 30.815000534  -999.250000 0.1000000015 0.1000000015 0.0000000000
 1567.8750000 1.2719999552 30.816999435  -999.250000 0.1000000015 0.1000000015 0.0000000000
 1568.0000000 1.1579999924 30.818000793  -999.250000 0.1000000015 0.1000000015 0.0000000000
 1568.1250000 1.1859999895 30.819000244  -999.250000 0.1000000015 0.1000000015 0.0000000000
 1568.2500000 1.2359999418 30.819999695  -999.250000 0.1000000015 0.1000000015 0.0000000000
 1568.3750000 1.2929999828 30.820999146  -999.250000 0.1000000015 0.1000000015 0.0000000000
 1568.5000000 1.3339999914 30.822000504  -999.250000 0.1000000015 0.1000000015 0.0000000000
 1568.6250000 1.3880000114 30.822999954  -999.250000 0.1000000015 0.1000000015 0.0000000000
 1568.7500000 1.4290000200 30.823999405  -999.250000 0.1000000015 0.1000000015 0.0000000000
 1568.8750000 1.5210000277 30.825000763  -999.250000 0.1000000015 0.1000000015 0.0000000000
 1569.0000000 1.6019999981 30.826000214  -999.250000 0.1000000015 0.1000000015 0.0000000000
 1569.1250000 1.7410000563 30.826999664  -999.250000 0.1000000015 0.1000000015 0.0000000000
 1569.2500000 1.8660000563 30.827999115  -999.250000 0.1000000015 0.1000000015 0.0000000000
 1569.3750000 1.9859999418 30.829999924  -999.250000 0.1000000015 0.1000000015 0.0000000000
 1569.5000000 2.1770000458 30.830999374  -999.250000 0.1000000015 0.1000000015 0.0000000000
 1569.6250000 2.3989999294 30.832000732  -999.250000 0.1000000015 0.1000000015 0.0000000000
 1569.7500000 2.6329998970 30.833000183  -999.250000 0.1000000015 0.1000000015 0.0000000000
 1569.8750000 2.7969999313 30.833999634  -999.250000 0.1000000015 0.1000000015 0.0000000000
 1570.0000000 3.0120000839 30.834999084  -999.250000 0.1000000015 0.1000000015 0.0000000000
 1570.1250000 3.3859999180 30.836000443  -999.250000 0.1000000015 0.1000000015 0.0000000000
 1570.2500000 3.7720000744 30.836999893  -999.250000 0.1000000015 0.1000000015 0.0000000000
 1570.3750000 4.1110000610 30.808000565  -999.250000 0.1000000015 0.1000000015 0.0000000000
 1570.5000000 4.4600000381 30.778999329  -999.250000 0.1000000015 0.1000000015 0.0000000000
 1570.6250000 4.7270002365 30.750999451  -999.250000 0.1000000015 0.1000000015 0.0000000000
 1570.7500000 5.0729999542 30.746000290  -999.250000 0.1000000015 0.1000000015 0.0000000000
 1570.8750000 5.4260001183 30.742000580  -999.250000 0.1000000015 0.1000000015 0.0000000000
 1571.0000000 5.7810001373 30.738000870  -999.250000 0.1000000015 0.1000000015 0.0000000000
 1571.1250000 5.5529999733 30.732999802  -999.250000 0.1000000015 0.1000000015 0.0000000000
 1571.2500000 4.7639999390 30.709999084  -999.250000 0.1000000015 0.1000000015 0.0000000000
 1571.3750000 3.8959999084 30.687000275  -999.250000 0.1000000015 0.1000000015 0.0000000000
 1571.5000000 3.1819999218 30.663999557  -999.250000 0.1000000015 0.1000000015 0.0000000000
 1571.6250000 2.8340001106 30.641000748  -999.250000 0.1000000015 0.1000000015 0.0000000000
 1571.7500000 2.6040000916 30.638999939  -999.250000 0.1000000015 0.1000000015 0.0000000000
