# LAS format log file from PETREL
# Project units are specified as depth units
#==================================================================
~Version information
VERS.   2.0:
WRAP.   NO:
#==================================================================
~Well
STRT .m      1350.0000000 :
STOP .m      1730.0000000 :
STEP .m     0.12500000 :
NULL .        -999.250000 :
COMP.           : COMPANY
WELL.  5-172   : WELL
FLD.            : FIELD
LOC.            : LOCATION
SRVC.           : SERVICE COMPANY
DATE.  2020-03-08 09:25:10   : Log Export Date {yyyy-MM-dd HH:mm:ss}
PROV.           : PROVINCE
UWI.      : UNIQUE WELL ID
API.            : API NUMBER
#==================================================================
~Curve
DEPT .m                   : DEPTH
RT .ohm.m                 : RT
SP .                      : SP
Fluids .                  : Fluids
POR .m3/m3                : POR
PERM .mD                  : PERM
Lith .                    : Lith
~Parameter
#==================================================================
~Ascii
 1350.0000000 30.420999527 28.802999496  -999.250000 0.1000000015 0.1000000015 0.0000000000
 1350.1250000 3.5529999733 28.274999619  -999.250000 0.1000000015 0.1000000015 0.0000000000
 1350.2500000 3.8489999771 27.736000061  -999.250000 0.1000000015 0.1000000015 0.0000000000
 1350.3750000 4.1240000725 27.381999969  -999.250000 0.1000000015 0.1000000015 0.0000000000
 1350.5000000 4.4819998741 27.077999115  -999.250000 0.1000000015 0.1000000015 0.0000000000
 1350.6250000 4.5970001221 26.774000168  -999.250000 0.1000000015 0.1000000015 0.0000000000
 1350.7500000 4.6409997940 26.299999237  -999.250000 0.1000000015 0.1000000015 0.0000000000
 1350.8750000 4.6649999619 26.073999405  -999.250000 0.1000000015 0.1000000015 0.0000000000
 1351.0000000 4.6779999733 25.760000229  -999.250000 0.1000000015 0.1000000015 0.0000000000
 1351.1250000 4.7610001564 25.528999329  -999.250000 0.1000000015 0.1000000015 0.0000000000
 1351.2500000 4.8130002022 25.406000137  -999.250000 0.1000000015 0.1000000015 0.0000000000
 1351.3750000 4.9120001793 25.205999374  -999.250000 0.1000000015 0.1000000015 0.0000000000
 1351.5000000 5.1789999008 25.042999268  -999.250000 0.1000000015 0.1000000015 0.0000000000
 1351.6250000 5.7779998779 24.716999054  -999.250000 0.1000000015 0.1000000015 0.0000000000
 1351.7500000 6.4250001907 24.537000656  -999.250000 0.1000000015 0.1000000015 0.0000000000
 1351.8750000 6.7589998245 24.374000549 1.0000000000 13.000000000 108.00000000 1.0000000000
 1352.0000000 7.0890002251 24.209999084 1.0000000000 13.000000000 108.00000000 1.0000000000
 1352.1250000 7.4180002213 23.944999695 1.0000000000 13.000000000 108.00000000 1.0000000000
 1352.2500000 7.7810001373 23.676000595 1.0000000000 13.000000000 108.00000000 1.0000000000
 1352.3750000 8.3339996338 23.483999252 1.0000000000 13.000000000 108.00000000 1.0000000000
 1352.5000000 8.6639995575 23.422000885 1.0000000000 13.000000000 108.00000000 1.0000000000
 1352.6250000 8.6280002594 23.416000366 1.0000000000 13.000000000 108.00000000 1.0000000000
 1352.7500000 8.5249996185 23.417999268 1.0000000000 13.000000000 108.00000000 1.0000000000
 1352.8750000 8.4049997330 23.420999527  -999.250000 0.1000000015 0.1000000015 0.0000000000
 1353.0000000 8.3369998932 23.424999237  -999.250000 0.1000000015 0.1000000015 0.0000000000
 1353.1250000 8.3020000458 23.429000854  -999.250000 0.1000000015 0.1000000015 0.0000000000
 1353.2500000 8.2869997025 23.433000565  -999.250000 0.1000000015 0.1000000015 0.0000000000
 1353.3750000 8.3140001297 23.336999893 1.0000000000 12.000000000 121.00000000 1.0000000000
 1353.5000000 8.3620004654 23.330999374 1.0000000000 12.000000000 121.00000000 1.0000000000
 1353.6250000 8.4069995880 23.333000183 1.0000000000 12.000000000 121.00000000 1.0000000000
 1353.7500000 8.4779996872 23.336999893 1.0000000000 12.000000000 121.00000000 1.0000000000
 1353.8750000 8.5590000153 23.340999603 1.0000000000 12.000000000 121.00000000 1.0000000000
 1354.0000000 8.6389999390 23.509000778 1.0000000000 12.000000000 121.00000000 1.0000000000
 1354.1250000 8.8620004654 23.662000656 1.0000000000 12.000000000 121.00000000 1.0000000000
 1354.2500000 9.1809997559 23.697000504 1.0000000000 12.000000000 121.00000000 1.0000000000
 1354.3750000 9.6660003662 23.794000626 1.0000000000 12.000000000 121.00000000 1.0000000000
 1354.5000000 12.300999641 23.930000305 1.0000000000 12.000000000 121.00000000 1.0000000000
 1354.6250000 13.402000427 24.121999741 1.0000000000 12.000000000 121.00000000 1.0000000000
 1354.7500000 13.666000366 24.278999329 1.0000000000 12.000000000 121.00000000 1.0000000000
 1354.8750000 13.741000175 24.379999161 1.0000000000 12.000000000 121.00000000 1.0000000000
 1355.0000000 13.725000381 24.514999390 1.0000000000 12.000000000 121.00000000 1.0000000000
 1355.1250000 13.689000130 24.615999222 1.0000000000 12.000000000 121.00000000 1.0000000000
 1355.2500000 13.649999619 24.638000488 1.0000000000 12.000000000 121.00000000 1.0000000000
 1355.3750000 13.635000229 24.714000702 1.0000000000 12.000000000 121.00000000 1.0000000000
 1355.5000000 13.631999969 24.827999115 1.0000000000 12.000000000 121.00000000 1.0000000000
 1355.6250000 13.633000374 24.930999756 1.0000000000 12.000000000 121.00000000 1.0000000000
 1355.7500000 13.633999825 25.132999420 1.0000000000 12.000000000 121.00000000 1.0000000000
 1355.8750000 13.670999527 25.261999130 1.0000000000 12.000000000 121.00000000 1.0000000000
 1356.0000000 13.744000435 25.475999832 1.0000000000 12.000000000 121.00000000 1.0000000000
 1356.1250000 13.848999977 25.608999252 1.0000000000 12.000000000 121.00000000 1.0000000000
 1356.2500000 14.005000114 25.823999405 1.0000000000 12.000000000 121.00000000 1.0000000000
 1356.3750000 14.708000183 25.958999634 1.0000000000 12.000000000 121.00000000 1.0000000000
 1356.5000000 14.838999748 26.173999786 1.0000000000 12.000000000 121.00000000 1.0000000000
 1356.6250000 14.770999908 26.347999573 1.0000000000 12.000000000 121.00000000 1.0000000000
 1356.7500000 14.664999962 26.464000702 1.0000000000 12.000000000 121.00000000 1.0000000000
 1356.8750000 14.543999672 26.632999420  -999.250000 0.1000000015 0.1000000015 0.0000000000
 1357.0000000 14.423999786 26.759000778  -999.250000 0.1000000015 0.1000000015 0.0000000000
 1357.1250000 14.340000153 26.958000183  -999.250000 0.1000000015 0.1000000015 0.0000000000
 1357.2500000 14.105999947 27.155000687  -999.250000 0.1000000015 0.1000000015 0.0000000000
 1357.3750000 13.821000099 27.297000885  -999.250000 0.1000000015 0.1000000015 0.0000000000
 1357.5000000 13.024000168 27.440000534  -999.250000 0.1000000015 0.1000000015 0.0000000000
 1357.6250000 12.314000130 27.700000763  -999.250000 0.1000000015 0.1000000015 0.0000000000
 1357.7500000 10.380000114 27.875000000  -999.250000 0.1000000015 0.1000000015 0.0000000000
 1357.8750000 8.6110000610 28.049999237  -999.250000 0.1000000015 0.1000000015 0.0000000000
 1358.0000000 6.9010000229 28.197000504  -999.250000 0.1000000015 0.1000000015 0.0000000000
 1358.1250000 5.7430000305 28.343000412  -999.250000 0.1000000015 0.1000000015 0.0000000000
 1358.2500000 5.1290001869 28.489000320  -999.250000 0.1000000015 0.1000000015 0.0000000000
 1358.3750000 4.5149998665 28.525999069  -999.250000 0.1000000015 0.1000000015 0.0000000000
 1358.5000000 4.5110001564 28.179000854  -999.250000 0.1000000015 0.1000000015 0.0000000000
 1358.6250000 4.6469998360 27.493999481  -999.250000 0.1000000015 0.1000000015 0.0000000000
 1358.7500000 5.2509999275 26.600000381  -999.250000 0.1000000015 0.1000000015 0.0000000000
 1358.8750000 5.4829998016 26.006000519  -999.250000 0.1000000015 0.1000000015 0.0000000000
 1359.0000000 5.6890001297 25.410999298  -999.250000 0.1000000015 0.1000000015 0.0000000000
 1359.1250000 5.7519998550 24.680999756  -999.250000 0.1000000015 0.1000000015 0.0000000000
 1359.2500000 5.8140001297 24.048000336  -999.250000 0.1000000015 0.1000000015 0.0000000000
 1359.3750000 5.8210000992 23.466999054  -999.250000 0.1000000015 0.1000000015 0.0000000000
 1359.5000000 5.7610001564 22.979000092  -999.250000 0.1000000015 0.1000000015 0.0000000000
 1359.6250000 5.7010002136 22.392000198  -999.250000 0.1000000015 0.1000000015 0.0000000000
 1359.7500000 5.6250000000 21.990999222  -999.250000 0.1000000015 0.1000000015 0.0000000000
 1359.8750000 5.5590000153 21.861000061  -999.250000 0.1000000015 0.1000000015 0.0000000000
 1360.0000000 5.4549999237 21.731000900  -999.250000 0.1000000015 0.1000000015 0.0000000000
 1360.1250000 5.4359998703 21.874000549  -999.250000 0.1000000015 0.1000000015 0.0000000000
 1360.2500000 5.3559999466 22.099000931  -999.250000 0.1000000015 0.1000000015 0.0000000000
 1360.3750000 5.2919998169 22.301000595  -999.250000 0.1000000015 0.1000000015 0.0000000000
 1360.5000000 5.2119998932 22.472000122  -999.250000 0.1000000015 0.1000000015 0.0000000000
 1360.6250000 5.1999998093 22.659999847  -999.250000 0.1000000015 0.1000000015 0.0000000000
 1360.7500000 5.1570000648 22.790000916  -999.250000 0.1000000015 0.1000000015 0.0000000000
