# LAS format log file from PETREL
# Project units are specified as depth units
#==================================================================
~Version information
VERS.   2.0:
WRAP.   NO:
#==================================================================
~Well
STRT .m      1350.0000000 :
STOP .m      1730.0000000 :
STEP .m     0.12500000 :
NULL .        -999.250000 :
COMP.           : COMPANY
WELL.  5-172   : WELL
FLD.            : FIELD
LOC.            : LOCATION
SRVC.           : SERVICE COMPANY
DATE.  2020-03-08 09:25:10   : Log Export Date {yyyy-MM-dd HH:mm:ss}
PROV.           : PROVINCE
UWI.      : UNIQUE WELL ID
API.            : API NUMBER
#==================================================================
~Curve
DEPT .m                   : DEPTH
RT .ohm.m                 : RT
SP .                      : SP
Fluids .                  : Fluids
POR .m3/m3                : POR
PERM .mD                  : PERM
Lith .                    : Lith
~Parameter
#==================================================================
~Ascii
# ...
 1556.6250000 1.8650000095 30.025999069  -999.250000 0.1000000015 0.1000000015 0.0000000000
 1556.7500000 1.7180000544 29.983999252  -999.250000 0.1000000015 0.1000000015 0.0000000000
 1556.8750000 1.6230000257 29.943000793  -999.250000 0.1000000015 0.1000000015 0.0000000000
 1557.0000000 1.5520000458 29.893999100  -999.250000 0.1000000015 0.1000000015 0.0000000000
 1557.1250000 1.4730000496 29.843999863  -999.250000 0.1000000015 0.1000000015 0.0000000000
 1557.2500000 1.4240000248 29.792999268  -999.250000 0.1000000015 0.1000000015 0.0000000000
 1557.3750000 1.4040000439 29.742000580  -999.250000 0.1000000015 0.1000000015 0.0000000000
 1557.5000000 1.4830000401 29.725000381  -999.250000 0.1000000015 0.1000000015 0.0000000000
 1557.6250000 1.5850000381 29.684999466  -999.250000 0.1000000015 0.1000000015 0.0000000000
 1557.7500000 1.6859999895 29.643999100  -999.250000 0.1000000015 0.1000000015 0.0000000000
 1557.8750000 1.7419999838 29.604000092  -999.250000 0.1000000015 0.1000000015 0.0000000000
 1558.0000000 1.7979999781 29.607999802  -999.250000 0.1000000015 0.1000000015 0.0000000000
 1558.1250000 1.8919999599 29.662000656  -999.250000 0.1000000015 0.1000000015 0.0000000000
 1558.2500000 2.2090001106 29.716999054  -999.250000 0.1000000015 0.1000000015 0.0000000000
 1558.3750000 2.5739998817 29.728000641  -999.250000 0.1000000015 0.1000000015 0.0000000000
 1558.5000000 2.5360000134 29.790000916  -999.250000 0.1000000015 0.1000000015 0.0000000000
 1558.6250000 2.3320000172 29.850999832  -999.250000 0.1000000015 0.1000000015 0.0000000000
 1558.7500000 2.0590000153 29.858999252  -999.250000 0.1000000015 0.1000000015 0.0000000000
 1558.8750000 1.7899999619 29.864999771  -999.250000 0.1000000015 0.1000000015 0.0000000000
 1559.0000000 1.5060000420 29.870000839  -999.250000 0.1000000015 0.1000000015 0.0000000000
 1559.1250000 1.2469999790 29.875000000  -999.250000 0.1000000015 0.1000000015 0.0000000000
 1559.2500000 1.1519999504 29.878999710  -999.250000 0.1000000015 0.1000000015 0.0000000000
 1559.3750000 1.1299999952 29.884000778  -999.250000 0.1000000015 0.1000000015 0.0000000000
 1559.5000000 1.2519999743 29.888000488  -999.250000 0.1000000015 0.1000000015 0.0000000000
 1559.6250000 1.4069999456 29.892999649  -999.250000 0.1000000015 0.1000000015 0.0000000000
 1559.7500000 1.5490000248 29.896999359  -999.250000 0.1000000015 0.1000000015 0.0000000000
 1559.8750000 1.6260000467 29.902000427  -999.250000 0.1000000015 0.1000000015 0.0000000000
 1560.0000000 1.7289999723 29.906000137  -999.250000 0.1000000015 0.1000000015 0.0000000000
 1560.1250000 1.8209999800 29.909999847  -999.250000 0.1000000015 0.1000000015 0.0000000000
 1560.2500000 1.9320000410 29.854999542  -999.250000 0.1000000015 0.1000000015 0.0000000000
 1560.3750000 2.0260000229 29.833999634  -999.250000 0.1000000015 0.1000000015 0.0000000000
 1560.5000000 2.1380000114 29.812999725  -999.250000 0.1000000015 0.1000000015 0.0000000000
 1560.6250000 2.2320001125 29.750999451  -999.250000 0.1000000015 0.1000000015 0.0000000000
 1560.7500000 2.3450000286 29.650999069  -999.250000 0.1000000015 0.1000000015 0.0000000000
 1560.8750000 2.4289999008 29.627000809  -999.250000 0.1000000015 0.1000000015 0.0000000000
 1561.0000000 2.4489998817 29.604000092  -999.250000 0.1000000015 0.1000000015 0.0000000000
 1561.1250000 2.4960000515 29.492000580  -999.250000 0.1000000015 0.1000000015 0.0000000000
 1561.2500000 2.5550000668 29.493999481  -999.250000 0.1000000015 0.1000000015 0.0000000000
 1561.3750000 2.6080000401 29.497999191  -999.250000 0.1000000015 0.1000000015 0.0000000000
 1561.5000000 2.6610000134 29.502000809  -999.250000 0.1000000015 0.1000000015 0.0000000000
 1561.6250000 2.6679999828 29.565999985  -999.250000 0.1000000015 0.1000000015 0.0000000000
 1561.7500000 2.7160000801 29.596000671  -999.250000 0.1000000015 0.1000000015 0.0000000000
 1561.8750000 2.7500000000 29.625999451  -999.250000 0.1000000015 0.1000000015 0.0000000000
 1562.0000000 2.7019999027 29.631999969  -999.250000 0.1000000015 0.1000000015 0.0000000000
 1562.1250000 2.6889998913 29.638000488  -999.250000 0.1000000015 0.1000000015 0.0000000000
 1562.2500000 2.6510000229 29.642000198  -999.250000 0.1000000015 0.1000000015 0.0000000000
 1562.3750000 2.5629999638 29.646999359  -999.250000 0.1000000015 0.1000000015 0.0000000000
 1562.5000000 2.5810000896 29.650999069  -999.250000 0.1000000015 0.1000000015 0.0000000000
 1562.6250000 2.5109999180 29.750999451  -999.250000 0.1000000015 0.1000000015 0.0000000000
 1562.7500000 2.4909999371 29.850000381  -999.250000 0.1000000015 0.1000000015 0.0000000000
 1562.8750000 2.4909999371 29.979999542  -999.250000 0.1000000015 0.1000000015 0.0000000000
 1563.0000000 2.4920001030 29.999000549  -999.250000 0.1000000015 0.1000000015 0.0000000000
 1563.1250000 2.4939999580 30.055000305  -999.250000 0.1000000015 0.1000000015 0.0000000000
 1563.2500000 2.4960000515 30.111000061  -999.250000 0.1000000015 0.1000000015 0.0000000000
 1563.3750000 2.4979999065 30.125000000  -999.250000 0.1000000015 0.1000000015 0.0000000000
 1563.5000000 2.4489998817 30.138999939  -999.250000 0.1000000015 0.1000000015 0.0000000000
 1563.6250000 2.3410000801 30.200000763  -999.250000 0.1000000015 0.1000000015 0.0000000000
 1563.7500000 2.1670000553 30.260999680  -999.250000 0.1000000015 0.1000000015 0.0000000000
 1563.8750000 2.0539999008 30.267999649  -999.250000 0.1000000015 0.1000000015 0.0000000000
 1564.0000000 1.9370000362 30.274000168  -999.250000 0.1000000015 0.1000000015 0.0000000000
 1564.1250000 1.8179999590 30.278999329  -999.250000 0.1000000015 0.1000000015 0.0000000000
 1564.2500000 1.7740000486 30.319000244  -999.250000 0.1000000015 0.1000000015 0.0000000000
 1564.3750000 1.7339999676 30.360000610  -999.250000 0.1000000015 0.1000000015 0.0000000000
 1564.5000000 1.6809999943 30.399999619  -999.250000 0.1000000015 0.1000000015 0.0000000000
 1564.6250000 1.6679999828 30.408000946  -999.250000 0.1000000015 0.1000000015 0.0000000000
 1564.7500000 1.6690000296 30.415000916  -999.250000 0.1000000015 0.1000000015 0.0000000000
 1564.8750000 1.6710000038 30.500000000  -999.250000 0.1000000015 0.1000000015 0.0000000000
 1565.0000000 1.7309999466 30.576000214  -999.250000 0.1000000015 0.1000000015 0.0000000000
 1565.1250000 1.8079999685 30.652000427  -999.250000 0.1000000015 0.1000000015 0.0000000000
 1565.2500000 1.9090000391 30.729000092  -999.250000 0.1000000015 0.1000000015 0.0000000000
 1565.3750000 2.0250000954 30.836000443  -999.250000 0.1000000015 0.1000000015 0.0000000000
 1565.5000000 2.1199998856 30.943000793  -999.250000 0.1000000015 0.1000000015 0.0000000000
 1565.6250000 2.1640000343 31.027999878  -999.250000 0.1000000015 0.1000000015 0.0000000000
 1565.7500000 2.1819999218 31.113000870  -999.250000 0.1000000015 0.1000000015 0.0000000000
 1565.8750000 2.1199998856 31.167999268  -999.250000 0.1000000015 0.1000000015 0.0000000000
 1566.0000000 2.0590000153 31.222999573  -999.250000 0.1000000015 0.1000000015 0.0000000000
 1566.1250000 1.9989999533 31.238000870  -999.250000 0.1000000015 0.1000000015 0.0000000000
 1566.2500000 1.8530000448 31.252000809  -999.250000 0.1000000015 0.1000000015 0.0000000000
 1566.3750000 1.7730000019 31.267000198  -999.250000 0.1000000015 0.1000000015 0.0000000000
 1566.5000000 1.6749999523 31.273000717  -999.250000 0.1000000015 0.1000000015 0.0000000000
 1566.6250000 1.5959999561 31.278999329  -999.250000 0.1000000015 0.1000000015 0.0000000000
 1566.7500000 1.5440000296 31.285999298  -999.250000 0.1000000015 0.1000000015 0.0000000000
 1566.8750000 1.4989999533 31.290000916  -999.250000 0.1000000015 0.1000000015 0.0000000000
 1567.0000000 1.4479999542 31.295000076  -999.250000 0.1000000015 0.1000000015 0.0000000000
 1567.1250000 1.4040000439 31.298999786  -999.250000 0.1000000015 0.1000000015 0.0000000000
 1567.2500000 1.3600000143 31.304000854  -999.250000 0.1000000015 0.1000000015 0.0000000000
 1567.3750000 1.3309999704 31.308000565  -999.250000 0.1000000015 0.1000000015 0.0000000000
