# LAS format log file from PETREL
# Project units are specified as depth units
#==================================================================
~Version information
VERS.   2.0:
WRAP.   NO:
#==================================================================
~Well
STRT .m      1385.0000000 :
STOP .m      1720.0000000 :
STEP .m     0.12500000 :
NULL .        -999.250000 :
COMP.           : COMPANY
WELL.  5-17C2   : WELL
FLD.            : FIELD
LOC.            : LOCATION
SRVC.           : SERVICE COMPANY
DATE.  2020-03-08 09:25:10   : Log Export Date {yyyy-MM-dd HH:mm:ss}
PROV.           : PROVINCE
UWI.      : UNIQUE WELL ID
API.            : API NUMBER
#==================================================================
~Curve
DEPT .m                   : DEPTH
RT .ohm.m                 : RT
SP .                      : SP
Fluids .                  : Fluids
POR .m3/m3                : POR
PERM .mD                  : PERM
Lith .                    : Lith
~Parameter
#==================================================================
~Ascii
# ...
 1580.7500000 1.8090000153 64.469001770  -999.250000 0.1000000015 0.1000000015 0.0000000000
 1580.8750000 1.8140000105 64.412002563  -999.250000 0.1000000015 0.1000000015 0.0000000000
 1581.0000000 1.8209999800 64.370002747  -999.250000 0.1000000015 0.1000000015 0.0000000000
 1581.1250000 1.8530000448 64.333999634  -999.250000 0.1000000015 0.1000000015 0.0000000000
 1581.2500000 1.9349999428 64.319999695  -999.250000 0.1000000015 0.1000000015 0.0000000000
 1581.3750000 2.0499999523 64.317001343 0.0000000000 4.0000000000 1.0000000000 1.0000000000
 1581.5000000 2.2119998932 64.333000183 0.0000000000 4.0000000000 1.0000000000 1.0000000000
 1581.6250000 2.3800001144 64.363998413 0.0000000000 4.0000000000 1.0000000000 1.0000000000
 1581.7500000 2.5320000648 64.419998169 0.0000000000 4.0000000000 1.0000000000 1.0000000000
 1581.8750000 2.6849999428 64.492996216 0.0000000000 4.0000000000 1.0000000000 1.0000000000
 1582.0000000 2.7820000648 64.561996460 0.0000000000 4.0000000000 1.0000000000 1.0000000000
 1582.1250000 2.8159999847 64.628997803 0.0000000000 4.0000000000 1.0000000000 1.0000000000
 1582.2500000 2.8359999657 64.694000244 0.0000000000 4.0000000000 1.0000000000 1.0000000000
 1582.3750000 2.8190000057 64.783996582 0.0000000000 4.0000000000 1.0000000000 1.0000000000
 1582.5000000 2.7520000935 64.890998840  -999.250000 0.1000000015 0.1000000015 0.0000000000
 1582.6250000 2.6510000229 65.017997742  -999.250000 0.1000000015 0.1000000015 0.0000000000
 1582.7500000 2.5969998837 65.138000488  -999.250000 0.1000000015 0.1000000015 0.0000000000
 1582.8750000 2.5559999943 65.244003296  -999.250000 0.1000000015 0.1000000015 0.0000000000
 1583.0000000 2.5000000000 65.327003479  -999.250000 0.1000000015 0.1000000015 0.0000000000
 1583.1250000 2.4419999123 65.394996643  -999.250000 0.1000000015 0.1000000015 0.0000000000
 1583.2500000 2.4159998894 65.452003479  -999.250000 0.1000000015 0.1000000015 0.0000000000
 1583.3750000 2.4010000229 65.486000061  -999.250000 0.1000000015 0.1000000015 0.0000000000
 1583.5000000 2.3989999294 65.504997253  -999.250000 0.1000000015 0.1000000015 0.0000000000
 1583.6250000 2.4059998989 65.500999451  -999.250000 0.1000000015 0.1000000015 0.0000000000
 1583.7500000 2.4260001183 65.490997314  -999.250000 0.1000000015 0.1000000015 0.0000000000
 1583.8750000 2.4400000572 65.469001770  -999.250000 0.1000000015 0.1000000015 0.0000000000
 1584.0000000 2.4470000267 65.441001892  -999.250000 0.1000000015 0.1000000015 0.0000000000
 1584.1250000 2.4579999447 65.413002014  -999.250000 0.1000000015 0.1000000015 0.0000000000
 1584.2500000 2.4869999886 65.380996704  -999.250000 0.1000000015 0.1000000015 0.0000000000
 1584.3750000 2.5250000954 65.346000671  -999.250000 0.1000000015 0.1000000015 0.0000000000
 1584.5000000 2.5739998817 65.301002502  -999.250000 0.1000000015 0.1000000015 0.0000000000
 1584.6250000 2.6119999886 65.265998840  -999.250000 0.1000000015 0.1000000015 0.0000000000
 1584.7500000 2.6429998875 65.232002258  -999.250000 0.1000000015 0.1000000015 0.0000000000
 1584.8750000 2.6489999294 65.214996338  -999.250000 0.1000000015 0.1000000015 0.0000000000
 1585.0000000 2.6340000629 65.200996399  -999.250000 0.1000000015 0.1000000015 0.0000000000
 1585.1250000 2.6019999981 65.190002441  -999.250000 0.1000000015 0.1000000015 0.0000000000
 1585.2500000 2.5610001087 65.175003052  -999.250000 0.1000000015 0.1000000015 0.0000000000
 1585.3750000 2.5109999180 65.151000977  -999.250000 0.1000000015 0.1000000015 0.0000000000
 1585.5000000 2.4330000877 65.132003784  -999.250000 0.1000000015 0.1000000015 0.0000000000
 1585.6250000 2.3410000801 65.113998413  -999.250000 0.1000000015 0.1000000015 0.0000000000
 1585.7500000 2.2530000210 65.109001160  -999.250000 0.1000000015 0.1000000015 0.0000000000
 1585.8750000 2.1870000362 65.097999573  -999.250000 0.1000000015 0.1000000015 0.0000000000
 1586.0000000 2.1310000420 65.089996338  -999.250000 0.1000000015 0.1000000015 0.0000000000
 1586.1250000 2.0629999638 65.079002380  -999.250000 0.1000000015 0.1000000015 0.0000000000
 1586.2500000 2.0130000114 65.070999146  -999.250000 0.1000000015 0.1000000015 0.0000000000
 1586.3750000 1.9800000191 65.069999695  -999.250000 0.1000000015 0.1000000015 0.0000000000
 1586.5000000 1.9639999866 65.071998596  -999.250000 0.1000000015 0.1000000015 0.0000000000
 1586.6250000 1.9429999590 65.077003479  -999.250000 0.1000000015 0.1000000015 0.0000000000
 1586.7500000 1.9099999666 65.066001892  -999.250000 0.1000000015 0.1000000015 0.0000000000
 1586.8750000 1.8780000210 65.041999817  -999.250000 0.1000000015 0.1000000015 0.0000000000
 1587.0000000 1.8619999886 64.986000061  -999.250000 0.1000000015 0.1000000015 0.0000000000
 1587.1250000 1.8569999933 64.907997131  -999.250000 0.1000000015 0.1000000015 0.0000000000
 1587.2500000 1.8539999723 64.805999756  -999.250000 0.1000000015 0.1000000015 0.0000000000
 1587.3750000 1.8480000496 64.695999146  -999.250000 0.1000000015 0.1000000015 0.0000000000
 1587.5000000 1.8300000429 64.597000122  -999.250000 0.1000000015 0.1000000015 0.0000000000
 1587.6250000 1.8079999685 64.519996643  -999.250000 0.1000000015 0.1000000015 0.0000000000
 1587.7500000 1.7660000324 64.476997375  -999.250000 0.1000000015 0.1000000015 0.0000000000
 1587.8750000 1.7500000000 64.454002380  -999.250000 0.1000000015 0.1000000015 0.0000000000
 1588.0000000 1.7829999924 64.457000732  -999.250000 0.1000000015 0.1000000015 0.0000000000
 1588.1250000 1.8459999561 64.460998535  -999.250000 0.1000000015 0.1000000015 0.0000000000
 1588.2500000 1.9010000229 64.468002319  -999.250000 0.1000000015 0.1000000015 0.0000000000
 1588.3750000 2.0009999275 64.473999023 3.0000000000 10.000000000 62.000000000 1.0000000000
 1588.5000000 2.1840000153 64.492996216 3.0000000000 10.000000000 62.000000000 1.0000000000
 1588.6250000 2.4300000668 64.521003723 3.0000000000 10.000000000 62.000000000 1.0000000000
 1588.7500000 2.7190001011 64.554000854 3.0000000000 10.000000000 62.000000000 1.0000000000
 1588.8750000 3.0929999352 64.603996277 3.0000000000 10.000000000 62.000000000 1.0000000000
 1589.0000000 3.4900000095 64.670997620 3.0000000000 10.000000000 62.000000000 1.0000000000
 1589.1250000 3.8589999676 64.765998840 3.0000000000 10.000000000 62.000000000 1.0000000000
 1589.2500000 4.0689997673 64.879997253 3.0000000000 10.000000000 62.000000000 1.0000000000
 1589.3750000 4.0850000381 65.021003723  -999.250000 0.1000000015 0.1000000015 0.0000000000
 1589.5000000 3.9240000248 65.167999268  -999.250000 0.1000000015 0.1000000015 0.0000000000
 1589.6250000 3.6500000954 65.309997559  -999.250000 0.1000000015 0.1000000015 0.0000000000
 1589.7500000 3.3259999752 65.430000305  -999.250000 0.1000000015 0.1000000015 0.0000000000
 1589.8750000 2.9920001030 65.513999939  -999.250000 0.1000000015 0.1000000015 0.0000000000
 1590.0000000 2.6800000668 65.567001343  -999.250000 0.1000000015 0.1000000015 0.0000000000
 1590.1250000 2.3880000114 65.597999573  -999.250000 0.1000000015 0.1000000015 0.0000000000
 1590.2500000 2.1129999161 65.626998901  -999.250000 0.1000000015 0.1000000015 0.0000000000
 1590.3750000 1.8609999418 65.651000977  -999.250000 0.1000000015 0.1000000015 0.0000000000
 1590.5000000 1.6660000086 65.679000854  -999.250000 0.1000000015 0.1000000015 0.0000000000
 1590.6250000 1.5390000343 65.688003540  -999.250000 0.1000000015 0.1000000015 0.0000000000
 1590.7500000 1.4980000257 65.688003540  -999.250000 0.1000000015 0.1000000015 0.0000000000
 1590.8750000 1.5319999456 65.688003540  -999.250000 0.1000000015 0.1000000015 0.0000000000
 1591.0000000 1.5839999914 65.681999207  -999.250000 0.1000000015 0.1000000015 0.0000000000
 1591.1250000 1.6330000162 65.680000305  -999.250000 0.1000000015 0.1000000015 0.0000000000
 1591.2500000 1.6799999475 65.674003601  -999.250000 0.1000000015 0.1000000015 0.0000000000
 1591.3750000 1.7530000210 65.678001404  -999.250000 0.1000000015 0.1000000015 0.0000000000
 1591.5000000 1.8559999466 65.674003601  -999.250000 0.1000000015 0.1000000015 0.0000000000
