# LAS format log file from PETREL
# Project units are specified as depth units
#==================================================================
~Version information
VERS.   2.0:
WRAP.   NO:
#==================================================================
~Well
STRT .m      1350.0000000 :
STOP .m      1730.0000000 :
STEP .m     0.12500000 :
NULL .        -999.250000 :
COMP.           : COMPANY
WELL.  5-172   : WELL
FLD.            : FIELD
LOC.            : LOCATION
SRVC.           : SERVICE COMPANY
DATE.  2020-03-08 09:25:10   : Log Export Date {yyyy-MM-dd HH:mm:ss}
PROV.           : PROVINCE
UWI.      : UNIQUE WELL ID
API.            : API NUMBER
#==================================================================
~Curve
DEPT .m                   : DEPTH
RT .ohm.m                 : RT
SP .                      : SP
Fluids .                  : Fluids
POR .m3/m3                : POR
PERM .mD                  : PERM
Lith .                    : Lith
~Parameter
#==================================================================
~Ascii
# ...
 1578.3750000 1.6440000534 31.697000504  -999.250000 0.1000000015 0.1000000015 0.0000000000
 1578.5000000 1.6770000458 31.700000763  -999.250000 0.1000000015 0.1000000015 0.0000000000
 1578.6250000 1.6900000572 31.704000473  -999.250000 0.1000000015 0.1000000015 0.0000000000
 1578.7500000 1.7209999561 31.708000183  -999.250000 0.1000000015 0.1000000015 0.0000000000
 1578.8750000 1.7519999743 31.712999344  -999.250000 0.1000000015 0.1000000015 0.0000000000
 1579.0000000 1.8300000429 31.716999054  -999.250000 0.1000000015 0.1000000015 0.0000000000
 1579.1250000 1.9019999504 31.722000122  -999.250000 0.1000000015 0.1000000015 0.0000000000
 1579.2500000 1.9570000172 31.815000534  -999.250000 0.1000000015 0.1000000015 0.0000000000
 1579.3750000 2.0169999599 31.836000443  -999.250000 0.1000000015 0.1000000015 0.0000000000
 1579.5000000 2.0789999962 31.843999863  -999.250000 0.1000000015 0.1000000015 0.0000000000
 1579.6250000 2.1429998875 31.853000641  -999.250000 0.1000000015 0.1000000015 0.0000000000
 1579.7500000 2.1919999123 31.857999802  -999.250000 0.1000000015 0.1000000015 0.0000000000
 1579.8750000 2.2290000916 31.861999512  -999.250000 0.1000000015 0.1000000015 0.0000000000
 1580.0000000 2.2669999599 31.867000580  -999.250000 0.1000000015 0.1000000015 0.0000000000
 1580.1250000 2.2950000763 31.871000290  -999.250000 0.1000000015 0.1000000015 0.0000000000
 1580.2500000 2.3229999542 31.875000000  -999.250000 0.1000000015 0.1000000015 0.0000000000
 1580.3750000 2.3550000191 31.879999161  -999.250000 0.1000000015 0.1000000015 0.0000000000
 1580.5000000 2.3949999809 31.805000305  -999.250000 0.1000000015 0.1000000015 0.0000000000
 1580.6250000 2.4179999828 31.719999313  -999.250000 0.1000000015 0.1000000015 0.0000000000
 1580.7500000 2.4619998932 31.693000793  -999.250000 0.1000000015 0.1000000015 0.0000000000
 1580.8750000 2.4769999981 31.639999390  -999.250000 0.1000000015 0.1000000015 0.0000000000
 1581.0000000 2.5179998875 31.587999344  -999.250000 0.1000000015 0.1000000015 0.0000000000
 1581.1250000 2.5329999924 31.570999146  -999.250000 0.1000000015 0.1000000015 0.0000000000
 1581.2500000 2.5409998894 31.570999146  -999.250000 0.1000000015 0.1000000015 0.0000000000
 1581.3750000 2.5090000629 31.573999405  -999.250000 0.1000000015 0.1000000015 0.0000000000
 1581.5000000 2.4709999561 31.530000687  -999.250000 0.1000000015 0.1000000015 0.0000000000
 1581.6250000 2.4040000439 31.486000061  -999.250000 0.1000000015 0.1000000015 0.0000000000
 1581.7500000 2.3410000801 31.478000641  -999.250000 0.1000000015 0.1000000015 0.0000000000
 1581.8750000 2.3150000572 31.478000641  -999.250000 0.1000000015 0.1000000015 0.0000000000
 1582.0000000 2.2479999065 31.481000900  -999.250000 0.1000000015 0.1000000015 0.0000000000
 1582.1250000 2.1510000229 31.485000610  -999.250000 0.1000000015 0.1000000015 0.0000000000
 1582.2500000 2.0659999847 31.556999207  -999.250000 0.1000000015 0.1000000015 0.0000000000
 1582.3750000 1.9950000048 31.586000443  -999.250000 0.1000000015 0.1000000015 0.0000000000
 1582.5000000 1.9309999943 31.670999527  -999.250000 0.1000000015 0.1000000015 0.0000000000
 1582.6250000 1.8240000010 31.711999893  -999.250000 0.1000000015 0.1000000015 0.0000000000
 1582.7500000 1.7269999981 31.729999542  -999.250000 0.1000000015 0.1000000015 0.0000000000
 1582.8750000 1.6299999952 31.738000870  -999.250000 0.1000000015 0.1000000015 0.0000000000
 1583.0000000 1.5970000029 31.677999496 3.0000000000 10.000000000 38.000000000 1.0000000000
 1583.1250000 1.5850000381 31.579000473 3.0000000000 10.000000000 38.000000000 1.0000000000
 1583.2500000 1.5579999685 31.540000916 3.0000000000 10.000000000 38.000000000 1.0000000000
 1583.3750000 1.5310000181 31.436000824 3.0000000000 10.000000000 38.000000000 1.0000000000
 1583.5000000 1.5310000181 31.424999237 3.0000000000 10.000000000 38.000000000 1.0000000000
 1583.6250000 1.6629999876 31.332000732 3.0000000000 10.000000000 38.000000000 1.0000000000
 1583.7500000 1.7640000582 31.205999374 3.0000000000 10.000000000 38.000000000 1.0000000000
 1583.8750000 1.9830000401 31.115999222 3.0000000000 10.000000000 38.000000000 1.0000000000
 1584.0000000 2.2279999256 30.992000580 3.0000000000 10.000000000 38.000000000 1.0000000000
 1584.1250000 2.5350000858 30.937000275 3.0000000000 10.000000000 38.000000000 1.0000000000
 1584.2500000 3.0699999332 30.881999969 3.0000000000 10.000000000 38.000000000 1.0000000000
 1584.3750000 3.6489999294 30.688999176 3.0000000000 10.000000000 38.000000000 1.0000000000
 1584.5000000 4.1170001030 30.385999680 4.0000000000 17.000000000 506.00000000 1.0000000000
 1584.6250000 4.8220000267 29.716999054 4.0000000000 17.000000000 506.00000000 1.0000000000
 1584.7500000 5.3720002174 29.215000153 4.0000000000 17.000000000 506.00000000 1.0000000000
 1584.8750000 5.8759999275 28.898000717 4.0000000000 17.000000000 506.00000000 1.0000000000
 1585.0000000 6.3550000191 28.524999619 4.0000000000 17.000000000 506.00000000 1.0000000000
 1585.1250000 6.7259998322 28.229000092 4.0000000000 17.000000000 506.00000000 1.0000000000
 1585.2500000 7.1490001678 27.868999481 4.0000000000 17.000000000 506.00000000 1.0000000000
 1585.3750000 7.6449999809 27.388999939 4.0000000000 17.000000000 506.00000000 1.0000000000
 1585.5000000 7.9349999428 27.079000473 4.0000000000 17.000000000 506.00000000 1.0000000000
 1585.6250000 8.4469995499 26.791999817 4.0000000000 17.000000000 506.00000000 1.0000000000
 1585.7500000 9.0179996490 26.417999268 4.0000000000 17.000000000 506.00000000 1.0000000000
 1585.8750000 9.5290002823 26.087999344 4.0000000000 17.000000000 506.00000000 1.0000000000
 1586.0000000 10.213999748 25.756999969 4.0000000000 17.000000000 506.00000000 1.0000000000
 1586.1250000 11.081999779 25.365999222 4.0000000000 17.000000000 506.00000000 1.0000000000
 1586.2500000 11.963999748 24.829999924 4.0000000000 17.000000000 506.00000000 1.0000000000
 1586.3750000 12.906999588 24.222000122 4.0000000000 17.000000000 506.00000000 1.0000000000
 1586.5000000 13.604999542 23.659000397  -999.250000 0.1000000015 0.1000000015 0.0000000000
 1586.6250000 14.178999901 22.975999832  -999.250000 0.1000000015 0.1000000015 0.0000000000
 1586.7500000 14.907999992 22.298999786  -999.250000 0.1000000015 0.1000000015 0.0000000000
 1586.8750000 15.166999817 21.624000549  -999.250000 0.1000000015 0.1000000015 0.0000000000
 1587.0000000 15.427000046 20.861000061  -999.250000 0.1000000015 0.1000000015 0.0000000000
 1587.1250000 15.597999573 20.066999435  -999.250000 0.1000000015 0.1000000015 0.0000000000
 1587.2500000 15.664999962 18.731000900  -999.250000 0.1000000015 0.1000000015 0.0000000000
 1587.3750000 15.560000420 17.819000244  -999.250000 0.1000000015 0.1000000015 0.0000000000
 1587.5000000 14.060999870 16.908000946  -999.250000 0.1000000015 0.1000000015 0.0000000000
 1587.6250000 12.197999954 16.284000397  -999.250000 0.1000000015 0.1000000015 0.0000000000
 1587.7500000 10.333999634 15.875000000  -999.250000 0.1000000015 0.1000000015 0.0000000000
 1587.8750000 8.9180002213 15.465999603  -999.250000 0.1000000015 0.1000000015 0.0000000000
 1588.0000000 8.3789997101 15.123999596  -999.250000 0.1000000015 0.1000000015 0.0000000000
 1588.1250000 7.8400001526 14.946000099  -999.250000 0.1000000015 0.1000000015 0.0000000000
 1588.2500000 7.4019999504 14.873000145  -999.250000 0.1000000015 0.1000000015 0.0000000000
 1588.3750000 7.0170001984 14.798999786  -999.250000 0.1000000015 0.1000000015 0.0000000000
 1588.5000000 6.6469998360 14.798000336  -999.250000 0.1000000015 0.1000000015 0.0000000000
 1588.6250000 6.2529997826 14.800999641  -999.250000 0.1000000015 0.1000000015 0.0000000000
 1588.7500000 5.8880000114 14.869000435  -999.250000 0.1000000015 0.1000000015 0.0000000000
 1588.8750000 5.4369997978 15.072999954  -999.250000 0.1000000015 0.1000000015 0.0000000000
 1589.0000000 4.8159999847 15.315999985  -999.250000 0.1000000015 0.1000000015 0.0000000000
 1589.1250000 4.1230001450 15.657999992  -999.250000 0.1000000015 0.1000000015 0.0000000000
