# LAS format log file from PETREL
# Project units are specified as depth units
#==================================================================
~Version information
VERS.   2.0:
WRAP.   NO:
#==================================================================
~Well
STRT .m      1450.0000000 :
STOP .m      1660.0000000 :
STEP .m     0.12500000 :
NULL .        -999.250000 :
COMP.           : COMPANY
WELL.  5-17   : WELL
FLD.            : FIELD
LOC.            : LOCATION
SRVC.           : SERVICE COMPANY
DATE.  2020-03-08 09:25:10   : Log Export Date {yyyy-MM-dd HH:mm:ss}
PROV.           : PROVINCE
UWI.      : UNIQUE WELL ID
API.            : API NUMBER
#==================================================================
~Curve
DEPT .m                   : DEPTH
RT .ohm.m                 : RT
SP .                      : SP
Fluids .                  : Fluids
POR .m3/m3                : POR
PERM .mD                  : PERM
Lith .                    : Lith
~Parameter
#==================================================================
~Ascii
# ...
 1580.5000000 2.6429998875 27.797000885  -999.250000 0.1000000015 0.1000000015 0.0000000000
 1580.6250000 2.4460000992 28.069999695  -999.250000 0.1000000015 0.1000000015 0.0000000000
 1580.7500000 2.4119999409 28.030000687  -999.250000 0.1000000015 0.1000000015 0.0000000000
 1580.8750000 2.3780000210 27.990999222  -999.250000 0.1000000015 0.1000000015 0.0000000000
 1581.0000000 2.3840000629 27.954000473  -999.250000 0.1000000015 0.1000000015 0.0000000000
 1581.1250000 2.4289999008 27.919000626  -999.250000 0.1000000015 0.1000000015 0.0000000000
 1581.2500000 2.5060000420 27.884000778  -999.250000 0.1000000015 0.1000000015 0.0000000000
 1581.3750000 2.6619999409 27.891000748  -999.250000 0.1000000015 0.1000000015 0.0000000000
 1581.5000000 2.7439999580 27.917999268  -999.250000 0.1000000015 0.1000000015 0.0000000000
 1581.6250000 2.7000000477 27.944000244  -999.250000 0.1000000015 0.1000000015 0.0000000000
 1581.7500000 2.6410000324 27.969999313  -999.250000 0.1000000015 0.1000000015 0.0000000000
 1581.8750000 2.4869999886 28.028999329  -999.250000 0.1000000015 0.1000000015 0.0000000000
 1582.0000000 2.3629999161 28.091999054  -999.250000 0.1000000015 0.1000000015 0.0000000000
 1582.1250000 2.3629999161 28.156000137  -999.250000 0.1000000015 0.1000000015 0.0000000000
 1582.2500000 2.3629999161 28.197000504  -999.250000 0.1000000015 0.1000000015 0.0000000000
 1582.3750000 2.4479999542 28.229000092  -999.250000 0.1000000015 0.1000000015 0.0000000000
 1582.5000000 2.5820000172 28.260999680  -999.250000 0.1000000015 0.1000000015 0.0000000000
 1582.6250000 2.6800000668 28.235000610  -999.250000 0.1000000015 0.1000000015 0.0000000000
 1582.7500000 2.7249999046 28.149000168  -999.250000 0.1000000015 0.1000000015 0.0000000000
 1582.8750000 2.7550001144 28.062999725  -999.250000 0.1000000015 0.1000000015 0.0000000000
 1583.0000000 2.7100000381 27.976999283  -999.250000 0.1000000015 0.1000000015 0.0000000000
 1583.1250000 2.6659998894 27.891000748  -999.250000 0.1000000015 0.1000000015 0.0000000000
 1583.2500000 2.5810000896 27.805000305  -999.250000 0.1000000015 0.1000000015 0.0000000000
 1583.3750000 2.4930000305 27.718999863  -999.250000 0.1000000015 0.1000000015 0.0000000000
 1583.5000000 2.5550000668 27.608999252  -999.250000 0.1000000015 0.1000000015 0.0000000000
 1583.6250000 2.6889998913 27.468999863  -999.250000 0.1000000015 0.1000000015 0.0000000000
 1583.7500000 2.7239999771 27.329000473  -999.250000 0.1000000015 0.1000000015 0.0000000000
 1583.8750000 2.6349999905 27.238000870  -999.250000 0.1000000015 0.1000000015 0.0000000000
 1584.0000000 2.5729999542 27.186000824  -999.250000 0.1000000015 0.1000000015 0.0000000000
 1584.1250000 2.6180000305 27.225999832  -999.250000 0.1000000015 0.1000000015 0.0000000000
 1584.2500000 2.6630001068 27.315999985  -999.250000 0.1000000015 0.1000000015 0.0000000000
 1584.3750000 2.7929999828 27.343000412  -999.250000 0.1000000015 0.1000000015 0.0000000000
 1584.5000000 2.9279999733 27.280000687  -999.250000 0.1000000015 0.1000000015 0.0000000000
 1584.6250000 3.5109999180 27.107000351  -999.250000 0.1000000015 0.1000000015 0.0000000000
 1584.7500000 4.2369999886 26.909999847  -999.250000 0.1000000015 0.1000000015 0.0000000000
 1584.8750000 5.3790001869 26.763000488  -999.250000 0.1000000015 0.1000000015 0.0000000000
 1585.0000000 5.3509998322 26.763000488  -999.250000 0.1000000015 0.1000000015 0.0000000000
 1585.1250000 4.8020000458 26.902000427  -999.250000 0.1000000015 0.1000000015 0.0000000000
 1585.2500000 3.2039999962 27.114000320  -999.250000 0.1000000015 0.1000000015 0.0000000000
 1585.3750000 2.6250000000 27.166999817  -999.250000 0.1000000015 0.1000000015 0.0000000000
 1585.5000000 2.8129999638 27.068000793  -999.250000 0.1000000015 0.1000000015 0.0000000000
 1585.6250000 3.0929999352 26.857999802  -999.250000 0.1000000015 0.1000000015 0.0000000000
 1585.7500000 3.3640000820 26.806999207  -999.250000 0.1000000015 0.1000000015 0.0000000000
 1585.8750000 3.2520000935 26.930000305  -999.250000 0.1000000015 0.1000000015 0.0000000000
 1586.0000000 2.6449999809 27.167999268  -999.250000 0.1000000015 0.1000000015 0.0000000000
 1586.1250000 2.4319999218 27.406999588  -999.250000 0.1000000015 0.1000000015 0.0000000000
 1586.2500000 2.3420000076 27.548000336  -999.250000 0.1000000015 0.1000000015 0.0000000000
 1586.3750000 2.2980000973 27.653999329  -999.250000 0.1000000015 0.1000000015 0.0000000000
 1586.5000000 2.3289999962 27.672000885  -999.250000 0.1000000015 0.1000000015 0.0000000000
 1586.6250000 2.5079998970 27.672000885  -999.250000 0.1000000015 0.1000000015 0.0000000000
 1586.7500000 2.6559998989 27.672000885  -999.250000 0.1000000015 0.1000000015 0.0000000000
 1586.8750000 2.5529999733 27.672000885  -999.250000 0.1000000015 0.1000000015 0.0000000000
 1587.0000000 2.4579999447 27.672000885  -999.250000 0.1000000015 0.1000000015 0.0000000000
 1587.1250000 2.4019999504 27.673000336  -999.250000 0.1000000015 0.1000000015 0.0000000000
 1587.2500000 2.3459999561 27.676000595  -999.250000 0.1000000015 0.1000000015 0.0000000000
 1587.3750000 2.2890000343 27.708000183  -999.250000 0.1000000015 0.1000000015 0.0000000000
 1587.5000000 2.2869999409 27.739999771  -999.250000 0.1000000015 0.1000000015 0.0000000000
 1587.6250000 2.3129999638 27.770999908  -999.250000 0.1000000015 0.1000000015 0.0000000000
 1587.7500000 2.3389999866 27.708999634  -999.250000 0.1000000015 0.1000000015 0.0000000000
 1587.8750000 2.3650000095 27.638000488  -999.250000 0.1000000015 0.1000000015 0.0000000000
 1588.0000000 2.3699998856 27.565000534  -999.250000 0.1000000015 0.1000000015 0.0000000000
 1588.1250000 2.3699998856 27.430000305  -999.250000 0.1000000015 0.1000000015 0.0000000000
 1588.2500000 2.3699998856 27.295000076  -999.250000 0.1000000015 0.1000000015 0.0000000000
 1588.3750000 2.3710000515 27.333000183  -999.250000 0.1000000015 0.1000000015 0.0000000000
 1588.5000000 2.3959999084 27.412000656  -999.250000 0.1000000015 0.1000000015 0.0000000000
 1588.6250000 2.4219999313 27.481000900  -999.250000 0.1000000015 0.1000000015 0.0000000000
 1588.7500000 2.4479999542 27.520999908  -999.250000 0.1000000015 0.1000000015 0.0000000000
 1588.8750000 2.4709999561 27.559999466  -999.250000 0.1000000015 0.1000000015 0.0000000000
 1589.0000000 2.4709999561 27.572000504  -999.250000 0.1000000015 0.1000000015 0.0000000000
 1589.1250000 2.4709999561 27.572000504  -999.250000 0.1000000015 0.1000000015 0.0000000000
 1589.2500000 2.4709999561 27.572000504  -999.250000 0.1000000015 0.1000000015 0.0000000000
 1589.3750000 2.4639999866 27.638000488  -999.250000 0.1000000015 0.1000000015 0.0000000000
 1589.5000000 2.4379999638 27.716999054  -999.250000 0.1000000015 0.1000000015 0.0000000000
 1589.6250000 2.4119999409 27.794000626  -999.250000 0.1000000015 0.1000000015 0.0000000000
 1589.7500000 2.3870000839 27.864000320  -999.250000 0.1000000015 0.1000000015 0.0000000000
 1589.8750000 2.3729999065 27.934999466  -999.250000 0.1000000015 0.1000000015 0.0000000000
 1590.0000000 2.3729999065 27.608999252  -999.250000 0.1000000015 0.1000000015 0.0000000000
 1590.1250000 2.3729999065 27.597999573  -999.250000 0.1000000015 0.1000000015 0.0000000000
 1590.2500000 2.3729999065 27.596000671  -999.250000 0.1000000015 0.1000000015 0.0000000000
 1590.3750000 2.3440001011 27.593999863  -999.250000 0.1000000015 0.1000000015 0.0000000000
 1590.5000000 2.3129999638 27.591999054  -999.250000 0.1000000015 0.1000000015 0.0000000000
 1590.6250000 2.2820000648 27.611000061  -999.250000 0.1000000015 0.1000000015 0.0000000000
 1590.7500000 2.2739999294 27.660999298  -999.250000 0.1000000015 0.1000000015 0.0000000000
 1590.8750000 2.2739999294 27.684999466  -999.250000 0.1000000015 0.1000000015 0.0000000000
 1591.0000000 2.2739999294 27.659999847  -999.250000 0.1000000015 0.1000000015 0.0000000000
 1591.1250000 2.2909998894 27.525999069  -999.250000 0.1000000015 0.1000000015 0.0000000000
 1591.2500000 2.3220000267 27.281999588  -999.250000 0.1000000015 0.1000000015 0.0000000000
