# LAS format log file from PETREL
# Project units are specified as depth units
#==================================================================
~Version information
VERS.   2.0:
WRAP.   NO:
#==================================================================
~Well
STRT .m      1350.0000000 :
STOP .m      1720.0000000 :
STEP .m     0.12500000 :
NULL .        -999.250000 :
COMP.           : COMPANY
WELL.  5-172C   : WELL
FLD.            : FIELD
LOC.            : LOCATION
SRVC.           : SERVICE COMPANY
DATE.  2020-03-08 09:25:10   : Log Export Date {yyyy-MM-dd HH:mm:ss}
PROV.           : PROVINCE
UWI.      : UNIQUE WELL ID
API.            : API NUMBER
#==================================================================
~Curve
DEPT .m                   : DEPTH
RT .ohm.m                 : RT
SP .                      : SP
Fluids .                  : Fluids
POR .m3/m3                : POR
PERM .mD                  : PERM
Lith .                    : Lith
~Parameter
#==================================================================
~Ascii
# ...
 1426.1250000 0.3790000081 13.470000267  -999.250000 0.1000000015 0.1000000015 0.0000000000
 1426.2500000 0.3810000122 13.491999626  -999.250000 0.1000000015 0.1000000015 0.0000000000
 1426.3750000 0.3829999864 13.498999596  -999.250000 0.1000000015 0.1000000015 0.0000000000
 1426.5000000 0.3860000074 13.505000114  -999.250000 0.1000000015 0.1000000015 0.0000000000
 1426.6250000 0.3880000114 13.506999969  -999.250000 0.1000000015 0.1000000015 0.0000000000
 1426.7500000 0.3910000026 13.506999969  -999.250000 0.1000000015 0.1000000015 0.0000000000
 1426.8750000 0.3910000026 13.508000374  -999.250000 0.1000000015 0.1000000015 0.0000000000
 1427.0000000 0.3910000026 13.508000374  -999.250000 0.1000000015 0.1000000015 0.0000000000
 1427.1250000 0.3919999897 13.508999825  -999.250000 0.1000000015 0.1000000015 0.0000000000
 1427.2500000 0.3919999897 13.508999825  -999.250000 0.1000000015 0.1000000015 0.0000000000
 1427.3750000 0.3919999897 13.508999825  -999.250000 0.1000000015 0.1000000015 0.0000000000
 1427.5000000 0.3930000067 13.510000229  -999.250000 0.1000000015 0.1000000015 0.0000000000
 1427.6250000 0.4029999971 13.510000229  -999.250000 0.1000000015 0.1000000015 0.0000000000
 1427.7500000 0.4129999876 13.564000130  -999.250000 0.1000000015 0.1000000015 0.0000000000
 1427.8750000 0.4239999950 13.618000031  -999.250000 0.1000000015 0.1000000015 0.0000000000
 1428.0000000 0.4339999855 13.623000145  -999.250000 0.1000000015 0.1000000015 0.0000000000
 1428.1250000 0.4359999895 13.682999611  -999.250000 0.1000000015 0.1000000015 0.0000000000
 1428.2500000 0.4379999936 13.750000000  -999.250000 0.1000000015 0.1000000015 0.0000000000
 1428.3750000 0.4399999976 13.817999840  -999.250000 0.1000000015 0.1000000015 0.0000000000
 1428.5000000 0.4410000145 13.833999634  -999.250000 0.1000000015 0.1000000015 0.0000000000
 1428.6250000 0.4429999888 13.850999832  -999.250000 0.1000000015 0.1000000015 0.0000000000
 1428.7500000 0.4560000002 13.852999687  -999.250000 0.1000000015 0.1000000015 0.0000000000
 1428.8750000 0.4699999988 13.812999725  -999.250000 0.1000000015 0.1000000015 0.0000000000
 1429.0000000 0.4830000103 13.772000313  -999.250000 0.1000000015 0.1000000015 0.0000000000
 1429.1250000 0.4950000048 13.762999535  -999.250000 0.1000000015 0.1000000015 0.0000000000
 1429.2500000 0.5080000162 13.753000259  -999.250000 0.1000000015 0.1000000015 0.0000000000
 1429.3750000 0.5210000277 13.744000435  -999.250000 0.1000000015 0.1000000015 0.0000000000
 1429.5000000 0.5329999924 13.704999924  -999.250000 0.1000000015 0.1000000015 0.0000000000
 1429.6250000 0.5469999909 13.666999817  -999.250000 0.1000000015 0.1000000015 0.0000000000
 1429.7500000 0.5609999895 13.609000206  -999.250000 0.1000000015 0.1000000015 0.0000000000
 1429.8750000 0.5740000010 13.550000191  -999.250000 0.1000000015 0.1000000015 0.0000000000
 1430.0000000 0.5879999995 13.534999847  -999.250000 0.1000000015 0.1000000015 0.0000000000
 1430.1250000 0.6050000191 13.520000458  -999.250000 0.1000000015 0.1000000015 0.0000000000
 1430.2500000 0.6230000257 13.454999924  -999.250000 0.1000000015 0.1000000015 0.0000000000
 1430.3750000 0.6399999857 13.387000084  -999.250000 0.1000000015 0.1000000015 0.0000000000
 1430.5000000 0.6529999971 13.317999840  -999.250000 0.1000000015 0.1000000015 0.0000000000
 1430.6250000 0.6660000086 13.295999527  -999.250000 0.1000000015 0.1000000015 0.0000000000
 1430.7500000 0.6790000200 13.293000221  -999.250000 0.1000000015 0.1000000015 0.0000000000
 1430.8750000 0.6919999719 13.291999817  -999.250000 0.1000000015 0.1000000015 0.0000000000
 1431.0000000 0.7039999962 13.291999817  -999.250000 0.1000000015 0.1000000015 0.0000000000
 1431.1250000 0.7170000076 13.291999817  -999.250000 0.1000000015 0.1000000015 0.0000000000
 1431.2500000 0.7289999723 13.293000221  -999.250000 0.1000000015 0.1000000015 0.0000000000
 1431.3750000 0.7419999838 13.362999916  -999.250000 0.1000000015 0.1000000015 0.0000000000
 1431.5000000 0.7659999728 13.387000084  -999.250000 0.1000000015 0.1000000015 0.0000000000
 1431.6250000 0.7900000215 13.395999908  -999.250000 0.1000000015 0.1000000015 0.0000000000
 1431.7500000 0.8140000105 13.404000282  -999.250000 0.1000000015 0.1000000015 0.0000000000
 1431.8750000 0.8379999995 13.406999588  -999.250000 0.1000000015 0.1000000015 0.0000000000
 1432.0000000 0.8529999852 13.458000183  -999.250000 0.1000000015 0.1000000015 0.0000000000
 1432.1250000 0.8679999709 13.510000229  -999.250000 0.1000000015 0.1000000015 0.0000000000
 1432.2500000 0.8830000162 13.517000198  -999.250000 0.1000000015 0.1000000015 0.0000000000
 1432.3750000 0.8859999776 13.519000053  -999.250000 0.1000000015 0.1000000015 0.0000000000
 1432.5000000 0.8889999986 13.522000313  -999.250000 0.1000000015 0.1000000015 0.0000000000
 1432.6250000 0.8909999728 13.569000244  -999.250000 0.1000000015 0.1000000015 0.0000000000
 1432.7500000 0.8939999938 13.616000175  -999.250000 0.1000000015 0.1000000015 0.0000000000
 1432.8750000 0.9039999843 13.625000000  -999.250000 0.1000000015 0.1000000015 0.0000000000
 1433.0000000 0.9129999876 13.633999825  -999.250000 0.1000000015 0.1000000015 0.0000000000
 1433.1250000 0.9219999909 13.637000084  -999.250000 0.1000000015 0.1000000015 0.0000000000
 1433.2500000 0.9309999943 13.638999939  -999.250000 0.1000000015 0.1000000015 0.0000000000
 1433.3750000 0.9409999847 13.640000343  -999.250000 0.1000000015 0.1000000015 0.0000000000
 1433.5000000 0.9419999719 13.682000160  -999.250000 0.1000000015 0.1000000015 0.0000000000
 1433.6250000 0.9440000057 13.725000381  -999.250000 0.1000000015 0.1000000015 0.0000000000
 1433.7500000 0.9459999800 13.736000061  -999.250000 0.1000000015 0.1000000015 0.0000000000
 1433.8750000 0.9470000267 13.746999741  -999.250000 0.1000000015 0.1000000015 0.0000000000
 1434.0000000 0.9599999785 13.750000000  -999.250000 0.1000000015 0.1000000015 0.0000000000
 1434.1250000 0.9729999900 13.753000259  -999.250000 0.1000000015 0.1000000015 0.0000000000
 1434.2500000 0.9860000014 13.755000114  -999.250000 0.1000000015 0.1000000015 0.0000000000
 1434.3750000 0.9950000048 13.755999565  -999.250000 0.1000000015 0.1000000015 0.0000000000
 1434.5000000 1.0039999485 13.755999565  -999.250000 0.1000000015 0.1000000015 0.0000000000
 1434.6250000 1.0130000114 13.756999969  -999.250000 0.1000000015 0.1000000015 0.0000000000
 1434.7500000 1.0219999552 13.793000221  -999.250000 0.1000000015 0.1000000015 0.0000000000
 1434.8750000 1.0310000181 13.829999924  -999.250000 0.1000000015 0.1000000015 0.0000000000
 1435.0000000 1.0399999619 13.866000175  -999.250000 0.1000000015 0.1000000015 0.0000000000
 1435.1250000 1.0529999733 13.869999886  -999.250000 0.1000000015 0.1000000015 0.0000000000
 1435.2500000 1.0659999847 13.869999886  -999.250000 0.1000000015 0.1000000015 0.0000000000
 1435.3750000 1.0789999962 13.871000290  -999.250000 0.1000000015 0.1000000015 0.0000000000
 1435.5000000 1.0920000076 13.871999741  -999.250000 0.1000000015 0.1000000015 0.0000000000
 1435.6250000 1.0939999819 13.873000145  -999.250000 0.1000000015 0.1000000015 0.0000000000
 1435.7500000 1.0959999561 13.873000145  -999.250000 0.1000000015 0.1000000015 0.0000000000
 1435.8750000 1.0970000029 13.873999596  -999.250000 0.1000000015 0.1000000015 0.0000000000
 1436.0000000 1.0989999771 13.873999596  -999.250000 0.1000000015 0.1000000015 0.0000000000
 1436.1250000 1.1109999418 13.873999596  -999.250000 0.1000000015 0.1000000015 0.0000000000
 1436.2500000 1.1239999533 13.826999664  -999.250000 0.1000000015 0.1000000015 0.0000000000
 1436.3750000 1.1360000372 13.779999733  -999.250000 0.1000000015 0.1000000015 0.0000000000
 1436.5000000 1.1480000019 13.725000381  -999.250000 0.1000000015 0.1000000015 0.0000000000
 1436.6250000 1.1660000086 13.670000076  -999.250000 0.1000000015 0.1000000015 0.0000000000
 1436.7500000 1.1829999685 13.565999985  -999.250000 0.1000000015 0.1000000015 0.0000000000
 1436.8750000 1.2009999752 13.463000298  -999.250000 0.1000000015 0.1000000015 0.0000000000
