# LAS format log file from PETREL
# Project units are specified as depth units
#==================================================================
~Version information
VERS.   2.0:
WRAP.   NO:
#==================================================================
~Well
STRT .m      1350.0000000 :
STOP .m      1730.0000000 :
STEP .m     0.12500000 :
NULL .        -999.250000 :
COMP.           : COMPANY
WELL.  5-172   : WELL
FLD.            : FIELD
LOC.            : LOCATION
SRVC.           : SERVICE COMPANY
DATE.  2020-03-08 09:25:10   : Log Export Date {yyyy-MM-dd HH:mm:ss}
PROV.           : PROVINCE
UWI.      : UNIQUE WELL ID
API.            : API NUMBER
#==================================================================
~Curve
DEPT .m                   : DEPTH
RT .ohm.m                 : RT
SP .                      : SP
Fluids .                  : Fluids
POR .m3/m3                : POR
PERM .mD                  : PERM
Lith .                    : Lith
~Parameter
#==================================================================
~Ascii
# ...
 1393.5000000 33.077999115 18.066999435 1.0000000000 21.000000000 1947.0000000 1.0000000000
 1393.6250000 33.143001556 17.868000031 1.0000000000 21.000000000 1947.0000000 1.0000000000
 1393.7500000 33.087001801 17.538000107 1.0000000000 21.000000000 1947.0000000 1.0000000000
 1393.8750000 32.951999664 17.326000214 1.0000000000 21.000000000 1947.0000000 1.0000000000
 1394.0000000 32.763999939 17.159999847 1.0000000000 21.000000000 1947.0000000 1.0000000000
 1394.1250000 32.168998718 16.982000351 1.0000000000 21.000000000 1947.0000000 1.0000000000
 1394.2500000 31.808000565 16.749000549 1.0000000000 21.000000000 1947.0000000 1.0000000000
 1394.3750000 31.540000916 16.489999771 1.0000000000 21.000000000 1947.0000000 1.0000000000
 1394.5000000 31.343999863 16.371999741 1.0000000000 21.000000000 1947.0000000 1.0000000000
 1394.6250000 31.149000168 16.156000137 1.0000000000 21.000000000 1947.0000000 1.0000000000
 1394.7500000 30.912000656 15.998999596 1.0000000000 21.000000000 1947.0000000 1.0000000000
 1394.8750000 30.819000244 15.940999985 1.0000000000 21.000000000 1947.0000000 1.0000000000
 1395.0000000 30.725999832 15.883000374 1.0000000000 21.000000000 1947.0000000 1.0000000000
 1395.1250000 30.790000916 16.010999680 1.0000000000 21.000000000 1947.0000000 1.0000000000
 1395.2500000 30.929000854 16.180000305 1.0000000000 21.000000000 1947.0000000 1.0000000000
 1395.3750000 31.239999771 16.337999344 1.0000000000 21.000000000 1947.0000000 1.0000000000
 1395.5000000 31.506000519 16.489999771 1.0000000000 21.000000000 1947.0000000 1.0000000000
 1395.6250000 31.816999435 16.606000900 1.0000000000 21.000000000 1947.0000000 1.0000000000
 1395.7500000 31.743000031 16.738000870 1.0000000000 21.000000000 1947.0000000 1.0000000000
 1395.8750000 31.579000473 16.910999298 1.0000000000 21.000000000 1947.0000000 1.0000000000
 1396.0000000 31.368000031 16.999000549 1.0000000000 21.000000000 1947.0000000 1.0000000000
 1396.1250000 31.194999695 17.094999313 1.0000000000 21.000000000 1947.0000000 1.0000000000
 1396.2500000 31.021999359 17.135999680 1.0000000000 21.000000000 1947.0000000 1.0000000000
 1396.3750000 30.964000702 17.177000046 1.0000000000 21.000000000 1947.0000000 1.0000000000
 1396.5000000 30.726999283 17.183000565 1.0000000000 21.000000000 1947.0000000 1.0000000000
 1396.6250000 30.371999741 17.187999725 1.0000000000 21.000000000 1947.0000000 1.0000000000
 1396.7500000 30.017000198 17.281000137 1.0000000000 21.000000000 1947.0000000 1.0000000000
 1396.8750000 29.771999359 17.309000015 1.0000000000 21.000000000 1947.0000000 1.0000000000
 1397.0000000 29.527999878 17.402000427 1.0000000000 21.000000000 1947.0000000 1.0000000000
 1397.1250000 28.951999664 17.430999756 1.0000000000 21.000000000 1947.0000000 1.0000000000
 1397.2500000 28.482000351 17.523000717 1.0000000000 21.000000000 1947.0000000 1.0000000000
 1397.3750000 27.951999664 17.552999496 1.0000000000 21.000000000 1947.0000000 1.0000000000
 1397.5000000 27.384000778 17.559999466 1.0000000000 21.000000000 1947.0000000 1.0000000000
 1397.6250000 26.968999863 17.565999985 1.0000000000 21.000000000 1947.0000000 1.0000000000
 1397.7500000 26.628999710 17.569999695 1.0000000000 21.000000000 1947.0000000 1.0000000000
 1397.8750000 26.409000397 17.575000763 1.0000000000 21.000000000 1947.0000000 1.0000000000
 1398.0000000 26.205999374 17.579000473 1.0000000000 21.000000000 1947.0000000 1.0000000000
 1398.1250000 26.121000290 17.583999634 1.0000000000 21.000000000 1947.0000000 1.0000000000
 1398.2500000 25.898000717 17.587999344 1.0000000000 21.000000000 1947.0000000 1.0000000000
 1398.3750000 25.697000504 17.591999054 1.0000000000 21.000000000 1947.0000000 1.0000000000
 1398.5000000 25.628999710 17.597000122 1.0000000000 21.000000000 1947.0000000 1.0000000000
 1398.6250000 25.455999374 17.655000687 1.0000000000 21.000000000 1947.0000000 1.0000000000
 1398.7500000 25.396999359 17.714000702 1.0000000000 21.000000000 1947.0000000 1.0000000000
 1398.8750000 25.562999725 17.937000275 1.0000000000 21.000000000 1947.0000000 1.0000000000
 1399.0000000 25.631999969 18.160999298 1.0000000000 21.000000000 1947.0000000 1.0000000000
 1399.1250000 25.889999390 18.337999344 1.0000000000 21.000000000 1947.0000000 1.0000000000
 1399.2500000 26.517000198 18.516000748 1.0000000000 21.000000000 1947.0000000 1.0000000000
 1399.3750000 27.330999374 18.708000183 1.0000000000 21.000000000 1947.0000000 1.0000000000
 1399.5000000 28.023000717 18.868000031 1.0000000000 21.000000000 1947.0000000 1.0000000000
 1399.6250000 29.054000854 19.041999817 1.0000000000 21.000000000 1947.0000000 1.0000000000
 1399.7500000 30.045000076 19.215999603 1.0000000000 21.000000000 1947.0000000 1.0000000000
 1399.8750000 30.736999512 19.391000748 1.0000000000 21.000000000 1947.0000000 1.0000000000
 1400.0000000 32.304000854 19.565000534 1.0000000000 21.000000000 1947.0000000 1.0000000000
 1400.1250000 33.938999176 19.687000275 1.0000000000 21.000000000 1947.0000000 1.0000000000
 1400.2500000 34.939998627 19.809000015 1.0000000000 21.000000000 1947.0000000 1.0000000000
 1400.3750000 35.926998138 19.927000046 1.0000000000 21.000000000 1947.0000000 1.0000000000
 1400.5000000 36.904998779 20.045000076 1.0000000000 21.000000000 1947.0000000 1.0000000000
 1400.6250000 37.477001190 20.163000107 1.0000000000 21.000000000 1947.0000000 1.0000000000
 1400.7500000 38.090999603 20.281000137 1.0000000000 21.000000000 1947.0000000 1.0000000000
 1400.8750000 38.726001740 20.534999847 1.0000000000 21.000000000 1947.0000000 1.0000000000
 1401.0000000 39.183998108 20.729000092 1.0000000000 21.000000000 1947.0000000 1.0000000000
 1401.1250000 39.550998688 20.885999680 1.0000000000 21.000000000 1947.0000000 1.0000000000
 1401.2500000 40.025001526 21.079000473 1.0000000000 21.000000000 1947.0000000 1.0000000000
 1401.3750000 40.588001251 21.347999573 1.0000000000 21.000000000 1947.0000000 1.0000000000
 1401.5000000 41.008998871 21.580999374 1.0000000000 21.000000000 1947.0000000 1.0000000000
 1401.6250000 41.271999359 21.813999176 1.0000000000 21.000000000 1947.0000000 1.0000000000
 1401.7500000 41.381999969 22.031999588 1.0000000000 21.000000000 1947.0000000 1.0000000000
 1401.8750000 41.577999115 22.291000366 1.0000000000 21.000000000 1947.0000000 1.0000000000
 1402.0000000 41.661998749 22.502000809 1.0000000000 21.000000000 1947.0000000 1.0000000000
 1402.1250000 41.917999268 22.701999664 1.0000000000 21.000000000 1947.0000000 1.0000000000
 1402.2500000 42.090999603 22.875000000 1.0000000000 21.000000000 1947.0000000 1.0000000000
 1402.3750000 42.161998749 23.113000870 1.0000000000 21.000000000 1947.0000000 1.0000000000
 1402.5000000 42.205001831 23.319000244 1.0000000000 21.000000000 1947.0000000 1.0000000000
 1402.6250000 42.230998993 23.492000580 1.0000000000 21.000000000 1947.0000000 1.0000000000
 1402.7500000 42.248001099 23.648000717 1.0000000000 21.000000000 1947.0000000 1.0000000000
 1402.8750000 42.096000671 23.857999802 1.0000000000 21.000000000 1947.0000000 1.0000000000
 1403.0000000 42.055999756 24.058000565 1.0000000000 21.000000000 1947.0000000 1.0000000000
 1403.1250000 41.881000519 24.257999420 1.0000000000 21.000000000 1947.0000000 1.0000000000
 1403.2500000 41.816001892 24.452999115 1.0000000000 21.000000000 1947.0000000 1.0000000000
 1403.3750000 41.648998260 24.606000900 1.0000000000 21.000000000 1947.0000000 1.0000000000
 1403.5000000 41.222000122 24.823999405 1.0000000000 21.000000000 1947.0000000 1.0000000000
 1403.6250000 40.466999054 24.965999603 1.0000000000 21.000000000 1947.0000000 1.0000000000
 1403.7500000 39.668998718 25.138000488 1.0000000000 21.000000000 1947.0000000 1.0000000000
 1403.8750000 38.605998993 25.309999466 1.0000000000 21.000000000 1947.0000000 1.0000000000
 1404.0000000 36.994998932 25.415000916  -999.250000 0.1000000015 0.1000000015 0.0000000000
 1404.1250000 29.108999252 25.590000153  -999.250000 0.1000000015 0.1000000015 0.0000000000
 1404.2500000 21.222999573 25.711999893  -999.250000 0.1000000015 0.1000000015 0.0000000000
