# LAS format log file from PETREL
# Project units are specified as depth units
#==================================================================
~Version information
VERS.   2.0:
WRAP.   NO:
#==================================================================
~Well
STRT .m      1350.0000000 :
STOP .m      1730.0000000 :
STEP .m     0.12500000 :
NULL .        -999.250000 :
COMP.           : COMPANY
WELL.  5-172   : WELL
FLD.            : FIELD
LOC.            : LOCATION
SRVC.           : SERVICE COMPANY
DATE.  2020-03-08 09:25:10   : Log Export Date {yyyy-MM-dd HH:mm:ss}
PROV.           : PROVINCE
UWI.      : UNIQUE WELL ID
API.            : API NUMBER
#==================================================================
~Curve
DEPT .m                   : DEPTH
RT .ohm.m                 : RT
SP .                      : SP
Fluids .                  : Fluids
POR .m3/m3                : POR
PERM .mD                  : PERM
Lith .                    : Lith
~Parameter
#==================================================================
~Ascii
# ...
 1469.6250000 1.9780000448 30.983999252  -999.250000 0.1000000015 0.1000000015 0.0000000000
 1469.7500000 1.9919999838 30.966999054  -999.250000 0.1000000015 0.1000000015 0.0000000000
 1469.8750000 2.0309998989 30.965000153  -999.250000 0.1000000015 0.1000000015 0.0000000000
 1470.0000000 2.0869998932 30.968999863  -999.250000 0.1000000015 0.1000000015 0.0000000000
 1470.1250000 2.0980000496 30.972999573  -999.250000 0.1000000015 0.1000000015 0.0000000000
 1470.2500000 2.1329998970 30.976999283  -999.250000 0.1000000015 0.1000000015 0.0000000000
 1470.3750000 2.1440000534 30.982000351  -999.250000 0.1000000015 0.1000000015 0.0000000000
 1470.5000000 2.1549999714 30.986000061  -999.250000 0.1000000015 0.1000000015 0.0000000000
 1470.6250000 2.1589999199 30.899000168  -999.250000 0.1000000015 0.1000000015 0.0000000000
 1470.7500000 2.1610000134 30.888000488  -999.250000 0.1000000015 0.1000000015 0.0000000000
 1470.8750000 2.1640000343 30.886999130  -999.250000 0.1000000015 0.1000000015 0.0000000000
 1471.0000000 2.1659998894 30.785999298  -999.250000 0.1000000015 0.1000000015 0.0000000000
 1471.1250000 2.1679999828 30.781999588  -999.250000 0.1000000015 0.1000000015 0.0000000000
 1471.2500000 2.1389999390 30.784999847  -999.250000 0.1000000015 0.1000000015 0.0000000000
 1471.3750000 2.1310000420 30.704000473  -999.250000 0.1000000015 0.1000000015 0.0000000000
 1471.5000000 2.1089999676 30.690000534  -999.250000 0.1000000015 0.1000000015 0.0000000000
 1471.6250000 2.0869998932 30.686000824  -999.250000 0.1000000015 0.1000000015 0.0000000000
 1471.7500000 2.0799999237 30.617000580  -999.250000 0.1000000015 0.1000000015 0.0000000000
 1471.8750000 2.0810000896 30.590999603  -999.250000 0.1000000015 0.1000000015 0.0000000000
 1472.0000000 2.1070001125 30.583999634  -999.250000 0.1000000015 0.1000000015 0.0000000000
 1472.1250000 2.1329998970 30.586999893  -999.250000 0.1000000015 0.1000000015 0.0000000000
 1472.2500000 2.1150000095 30.523000717  -999.250000 0.1000000015 0.1000000015 0.0000000000
 1472.3750000 2.0980000496 30.503000259  -999.250000 0.1000000015 0.1000000015 0.0000000000
 1472.5000000 2.0529999733 30.443000793  -999.250000 0.1000000015 0.1000000015 0.0000000000
 1472.6250000 1.9969999790 30.382999420  -999.250000 0.1000000015 0.1000000015 0.0000000000
 1472.7500000 1.9969999790 30.384000778  -999.250000 0.1000000015 0.1000000015 0.0000000000
 1472.8750000 2.0239999294 30.385000229  -999.250000 0.1000000015 0.1000000015 0.0000000000
 1473.0000000 2.0690000057 30.388999939  -999.250000 0.1000000015 0.1000000015 0.0000000000
 1473.1250000 2.1140000820 30.392999649  -999.250000 0.1000000015 0.1000000015 0.0000000000
 1473.2500000 2.1679999828 30.396999359  -999.250000 0.1000000015 0.1000000015 0.0000000000
 1473.3750000 2.2630000114 30.402000427  -999.250000 0.1000000015 0.1000000015 0.0000000000
 1473.5000000 2.2899999619 30.406000137  -999.250000 0.1000000015 0.1000000015 0.0000000000
 1473.6250000 2.3289999962 30.409999847  -999.250000 0.1000000015 0.1000000015 0.0000000000
 1473.7500000 2.3800001144 30.415000916  -999.250000 0.1000000015 0.1000000015 0.0000000000
 1473.8750000 2.3989999294 30.510000229  -999.250000 0.1000000015 0.1000000015 0.0000000000
 1474.0000000 2.4400000572 30.530000687  -999.250000 0.1000000015 0.1000000015 0.0000000000
 1474.1250000 2.4600000381 30.538999557  -999.250000 0.1000000015 0.1000000015 0.0000000000
 1474.2500000 2.4909999371 30.545999527  -999.250000 0.1000000015 0.1000000015 0.0000000000
 1474.3750000 2.5209999084 30.617000580  -999.250000 0.1000000015 0.1000000015 0.0000000000
 1474.5000000 2.4939999580 30.642000198  -999.250000 0.1000000015 0.1000000015 0.0000000000
 1474.6250000 2.4590001106 30.666999817  -999.250000 0.1000000015 0.1000000015 0.0000000000
 1474.7500000 2.4210000038 30.777000427  -999.250000 0.1000000015 0.1000000015 0.0000000000
 1474.8750000 2.3840000629 30.877000809  -999.250000 0.1000000015 0.1000000015 0.0000000000
 1475.0000000 2.3610000610 30.902999878  -999.250000 0.1000000015 0.1000000015 0.0000000000
 1475.1250000 2.3369998932 30.955999374  -999.250000 0.1000000015 0.1000000015 0.0000000000
 1475.2500000 2.3080000877 31.010000229  -999.250000 0.1000000015 0.1000000015 0.0000000000
 1475.3750000 2.2730000019 31.027000427  -999.250000 0.1000000015 0.1000000015 0.0000000000
 1475.5000000 2.2260000706 31.045000076  -999.250000 0.1000000015 0.1000000015 0.0000000000
 1475.6250000 2.2049999237 31.051000595  -999.250000 0.1000000015 0.1000000015 0.0000000000
 1475.7500000 2.1710000038 31.055999756  -999.250000 0.1000000015 0.1000000015 0.0000000000
 1475.8750000 2.1559998989 31.061000824  -999.250000 0.1000000015 0.1000000015 0.0000000000
 1476.0000000 2.1510000229 31.065000534  -999.250000 0.1000000015 0.1000000015 0.0000000000
 1476.1250000 2.1189999580 31.069999695  -999.250000 0.1000000015 0.1000000015 0.0000000000
 1476.2500000 2.1129999161 31.073999405  -999.250000 0.1000000015 0.1000000015 0.0000000000
 1476.3750000 2.1059999466 31.079000473  -999.250000 0.1000000015 0.1000000015 0.0000000000
 1476.5000000 2.1070001125 31.083000183  -999.250000 0.1000000015 0.1000000015 0.0000000000
 1476.6250000 2.1089999676 31.086999893  -999.250000 0.1000000015 0.1000000015 0.0000000000
 1476.7500000 2.1110000610 31.091999054  -999.250000 0.1000000015 0.1000000015 0.0000000000
 1476.8750000 2.1129999161 31.096000671  -999.250000 0.1000000015 0.1000000015 0.0000000000
 1477.0000000 2.0959999561 31.100999832  -999.250000 0.1000000015 0.1000000015 0.0000000000
 1477.1250000 2.0780000687 31.104999542  -999.250000 0.1000000015 0.1000000015 0.0000000000
 1477.2500000 2.0739998817 31.108999252  -999.250000 0.1000000015 0.1000000015 0.0000000000
 1477.3750000 2.0739998817 31.114000320  -999.250000 0.1000000015 0.1000000015 0.0000000000
 1477.5000000 2.0750000477 31.118000031  -999.250000 0.1000000015 0.1000000015 0.0000000000
 1477.6250000 2.0940001011 31.122999191  -999.250000 0.1000000015 0.1000000015 0.0000000000
 1477.7500000 2.1140000820 31.127000809  -999.250000 0.1000000015 0.1000000015 0.0000000000
 1477.8750000 2.1229999065 31.131000519  -999.250000 0.1000000015 0.1000000015 0.0000000000
 1478.0000000 2.1280000210 31.135999680  -999.250000 0.1000000015 0.1000000015 0.0000000000
 1478.1250000 2.1319999695 31.139999390  -999.250000 0.1000000015 0.1000000015 0.0000000000
 1478.2500000 2.1349999905 31.145000458  -999.250000 0.1000000015 0.1000000015 0.0000000000
 1478.3750000 2.1380000114 31.149000168  -999.250000 0.1000000015 0.1000000015 0.0000000000
 1478.5000000 2.1400001049 31.152999878  -999.250000 0.1000000015 0.1000000015 0.0000000000
 1478.6250000 2.1010000706 31.158000946  -999.250000 0.1000000015 0.1000000015 0.0000000000
 1478.7500000 2.0610001087 31.162000656  -999.250000 0.1000000015 0.1000000015 0.0000000000
 1478.8750000 2.0490000248 31.166999817  -999.250000 0.1000000015 0.1000000015 0.0000000000
 1479.0000000 2.0139999390 31.170999527  -999.250000 0.1000000015 0.1000000015 0.0000000000
 1479.1250000 2.0030000210 31.174999237  -999.250000 0.1000000015 0.1000000015 0.0000000000
 1479.2500000 1.9539999962 31.180000305  -999.250000 0.1000000015 0.1000000015 0.0000000000
 1479.3750000 1.9309999943 31.184000015  -999.250000 0.1000000015 0.1000000015 0.0000000000
 1479.5000000 1.9069999456 31.188999176  -999.250000 0.1000000015 0.1000000015 0.0000000000
 1479.6250000 1.9090000391 31.242000580  -999.250000 0.1000000015 0.1000000015 0.0000000000
 1479.7500000 1.9099999666 31.295000076  -999.250000 0.1000000015 0.1000000015 0.0000000000
 1479.8750000 1.9429999590 31.313999176  -999.250000 0.1000000015 0.1000000015 0.0000000000
 1480.0000000 1.9579999447 31.319999695  -999.250000 0.1000000015 0.1000000015 0.0000000000
 1480.1250000 1.9639999866 31.396999359  -999.250000 0.1000000015 0.1000000015 0.0000000000
 1480.2500000 2.0020000935 31.472999573  -999.250000 0.1000000015 0.1000000015 0.0000000000
 1480.3750000 2.0139999390 31.548999786  -999.250000 0.1000000015 0.1000000015 0.0000000000
