# LAS format log file from PETREL
# Project units are specified as depth units
#==================================================================
~Version information
VERS.   2.0:
WRAP.   NO:
#==================================================================
~Well
STRT .m      1350.0000000 :
STOP .m      1720.0000000 :
STEP .m     0.12500000 :
NULL .        -999.250000 :
COMP.           : COMPANY
WELL.  5-172C   : WELL
FLD.            : FIELD
LOC.            : LOCATION
SRVC.           : SERVICE COMPANY
DATE.  2020-03-08 09:25:10   : Log Export Date {yyyy-MM-dd HH:mm:ss}
PROV.           : PROVINCE
UWI.      : UNIQUE WELL ID
API.            : API NUMBER
#==================================================================
~Curve
DEPT .m                   : DEPTH
RT .ohm.m                 : RT
SP .                      : SP
Fluids .                  : Fluids
POR .m3/m3                : POR
PERM .mD                  : PERM
Lith .                    : Lith
~Parameter
#==================================================================
~Ascii
# ...
 1654.5000000 43.368999481 17.054000854 4.0000000000 23.000000000 1924.0000000 1.0000000000
 1654.6250000 44.833999634 16.995000839 4.0000000000 23.000000000 1924.0000000 1.0000000000
 1654.7500000 45.277999878 16.908000946 4.0000000000 23.000000000 1924.0000000 1.0000000000
 1654.8750000 45.722000122 16.700000763 4.0000000000 23.000000000 1924.0000000 1.0000000000
 1655.0000000 45.691001892 16.507999420 4.0000000000 23.000000000 1924.0000000 1.0000000000
 1655.1250000 45.683998108 16.260000229 4.0000000000 23.000000000 1924.0000000 1.0000000000
 1655.2500000 45.488998413 15.987000465 4.0000000000 23.000000000 1924.0000000 1.0000000000
 1655.3750000 45.284999847 15.758999825 4.0000000000 23.000000000 1924.0000000 1.0000000000
 1655.5000000 45.080001831 15.531000137 4.0000000000 23.000000000 1924.0000000 1.0000000000
 1655.6250000 44.651000977 15.317999840 4.0000000000 23.000000000 1924.0000000 1.0000000000
 1655.7500000 44.380001068 15.142999649 4.0000000000 23.000000000 1924.0000000 1.0000000000
 1655.8750000 44.089000702 14.902999878 4.0000000000 23.000000000 1924.0000000 1.0000000000
 1656.0000000 43.594001770 14.732999802 4.0000000000 23.000000000 1924.0000000 1.0000000000
 1656.1250000 43.331001282 14.562999725 4.0000000000 23.000000000 1924.0000000 1.0000000000
 1656.2500000 42.960998535 14.394000053 4.0000000000 23.000000000 1924.0000000 1.0000000000
 1656.3750000 42.955001831 14.185999870 4.0000000000 23.000000000 1924.0000000 1.0000000000
 1656.5000000 43.143001556 14.012000084 4.0000000000 23.000000000 1924.0000000 1.0000000000
 1656.6250000 43.645999908 13.857999802 4.0000000000 23.000000000 1924.0000000 1.0000000000
 1656.7500000 43.877998352 13.968000412 4.0000000000 23.000000000 1924.0000000 1.0000000000
 1656.8750000 43.943000793 14.428999901 4.0000000000 23.000000000 1924.0000000 1.0000000000
 1657.0000000 43.946998596 14.866000175 4.0000000000 23.000000000 1924.0000000 1.0000000000
 1657.1250000 43.951000214 15.227999687 4.0000000000 23.000000000 1924.0000000 1.0000000000
 1657.2500000 43.951999664 15.623000145 4.0000000000 23.000000000 1924.0000000 1.0000000000
 1657.3750000 43.952999115 15.953000069 4.0000000000 23.000000000 1924.0000000 1.0000000000
 1657.5000000 43.765998840 16.176000595 4.0000000000 23.000000000 1924.0000000 1.0000000000
 1657.6250000 43.492000580 16.516000748 4.0000000000 23.000000000 1924.0000000 1.0000000000
 1657.7500000 43.242000580 16.913999557 4.0000000000 23.000000000 1924.0000000 1.0000000000
 1657.8750000 42.993000031 17.312000275 4.0000000000 23.000000000 1924.0000000 1.0000000000
 1658.0000000 42.783000946 17.708999634 4.0000000000 23.000000000 1924.0000000 1.0000000000
 1658.1250000 42.501998901 18.131999969 4.0000000000 23.000000000 1924.0000000 1.0000000000
 1658.2500000 42.252998352 18.469999313 4.0000000000 23.000000000 1924.0000000 1.0000000000
 1658.3750000 42.002998352 18.784999847 4.0000000000 23.000000000 1924.0000000 1.0000000000
 1658.5000000 41.791999817 19.083000183 4.0000000000 23.000000000 1924.0000000 1.0000000000
 1658.6250000 41.512001038 19.309000015 4.0000000000 23.000000000 1924.0000000 1.0000000000
 1658.7500000 41.203998566 19.493000031 4.0000000000 23.000000000 1924.0000000 1.0000000000
 1658.8750000 40.895999908 19.490999222 4.0000000000 23.000000000 1924.0000000 1.0000000000
 1659.0000000 40.770999908 19.420000076 4.0000000000 23.000000000 1924.0000000 1.0000000000
 1659.1250000 40.583000183 19.389999390 4.0000000000 23.000000000 1924.0000000 1.0000000000
 1659.2500000 40.506000519 19.101999283 4.0000000000 23.000000000 1924.0000000 1.0000000000
 1659.3750000 40.481998444 18.658000946 4.0000000000 23.000000000 1924.0000000 1.0000000000
 1659.5000000 40.298000336 18.228000641 4.0000000000 23.000000000 1924.0000000 1.0000000000
 1659.6250000 40.241001129 18.021999359 4.0000000000 23.000000000 1924.0000000 1.0000000000
 1659.7500000 39.779998779 17.833000183 4.0000000000 23.000000000 1924.0000000 1.0000000000
 1659.8750000 39.318000793 17.724000931 4.0000000000 23.000000000 1924.0000000 1.0000000000
 1660.0000000 38.575000763 17.556999207 4.0000000000 23.000000000 1924.0000000 1.0000000000
 1660.1250000 37.737998962 17.403999329 4.0000000000 23.000000000 1924.0000000 1.0000000000
 1660.2500000 37.324001312 17.294000626 4.0000000000 23.000000000 1924.0000000 1.0000000000
 1660.3750000 36.963001251 17.243999481 4.0000000000 23.000000000 1924.0000000 1.0000000000
 1660.5000000 36.631999969 17.136999130 4.0000000000 23.000000000 1924.0000000 1.0000000000
 1660.6250000 36.314998627 17.061000824 4.0000000000 23.000000000 1924.0000000 1.0000000000
 1660.7500000 36.092998505 16.954000473 4.0000000000 23.000000000 1924.0000000 1.0000000000
 1660.8750000 35.812999725 16.822999954 4.0000000000 23.000000000 1924.0000000 1.0000000000
 1661.0000000 35.596000671 16.691999435  -999.250000 0.1000000015 0.1000000015 0.0000000000
 1661.1250000 35.541000366 16.667999268  -999.250000 0.1000000015 0.1000000015 0.0000000000
 1661.2500000 35.694999695 16.569999695  -999.250000 0.1000000015 0.1000000015 0.0000000000
 1661.3750000 36.042999268 16.552000046 3.0000000000 12.000000000 303.00000000 1.0000000000
 1661.5000000 36.298999786 16.545000076 3.0000000000 12.000000000 303.00000000 1.0000000000
 1661.6250000 36.428001404 16.749000549 3.0000000000 12.000000000 303.00000000 1.0000000000
 1661.7500000 36.745998383 17.027999878 3.0000000000 12.000000000 303.00000000 1.0000000000
 1661.8750000 37.215000153 17.385000229 3.0000000000 12.000000000 303.00000000 1.0000000000
 1662.0000000 39.178001404 17.756999969 3.0000000000 12.000000000 303.00000000 1.0000000000
 1662.1250000 42.522998810 18.082000732 3.0000000000 12.000000000 303.00000000 1.0000000000
 1662.2500000 43.379001617 18.295999527 3.0000000000 12.000000000 303.00000000 1.0000000000
 1662.3750000 44.286998749 18.190999985 4.0000000000 25.000000000 2932.0000000 1.0000000000
 1662.5000000 44.970001221 17.961999893 4.0000000000 25.000000000 2932.0000000 1.0000000000
 1662.6250000 45.747001648 17.556999207 4.0000000000 25.000000000 2932.0000000 1.0000000000
 1662.7500000 46.612998962 17.055999756 4.0000000000 25.000000000 2932.0000000 1.0000000000
 1662.8750000 47.916000366 15.817999840 4.0000000000 25.000000000 2932.0000000 1.0000000000
 1663.0000000 49.715000153 15.050999641 4.0000000000 25.000000000 2932.0000000 1.0000000000
 1663.1250000 51.151000977 14.284000397 4.0000000000 25.000000000 2932.0000000 1.0000000000
 1663.2500000 52.929000854 13.637000084 4.0000000000 25.000000000 2932.0000000 1.0000000000
 1663.3750000 54.334999084 12.888999939 4.0000000000 25.000000000 2932.0000000 1.0000000000
 1663.5000000 54.811000824 12.328000069 4.0000000000 25.000000000 2932.0000000 1.0000000000
 1663.6250000 54.633998871 11.765999794 4.0000000000 25.000000000 2932.0000000 1.0000000000
 1663.7500000 54.457000732 11.284000397 4.0000000000 25.000000000 2932.0000000 1.0000000000
 1663.8750000 53.231998444 11.024000168 4.0000000000 25.000000000 2932.0000000 1.0000000000
 1664.0000000 51.050998688 10.831999779 4.0000000000 25.000000000 2932.0000000 1.0000000000
 1664.1250000 49.029998779 11.145000458 4.0000000000 25.000000000 2932.0000000 1.0000000000
 1664.2500000 46.929000854 11.513999939 4.0000000000 25.000000000 2932.0000000 1.0000000000
 1664.3750000 44.590000153 12.109000206 4.0000000000 25.000000000 2932.0000000 1.0000000000
 1664.5000000 42.618000031 12.682999611 4.0000000000 25.000000000 2932.0000000 1.0000000000
 1664.6250000 42.099998474 13.251000404 4.0000000000 25.000000000 2932.0000000 1.0000000000
 1664.7500000 41.526000977 13.692999840 4.0000000000 25.000000000 2932.0000000 1.0000000000
 1664.8750000 41.216999054 14.338000298  -999.250000 0.1000000015 0.1000000015 0.0000000000
 1665.0000000 40.908000946 15.182000160  -999.250000 0.1000000015 0.1000000015 0.0000000000
 1665.1250000 40.673000336 16.125000000  -999.250000 0.1000000015 0.1000000015 0.0000000000
 1665.2500000 40.396999359 17.108999252  -999.250000 0.1000000015 0.1000000015 0.0000000000
