# LAS format log file from PETREL
# Project units are specified as depth units
#==================================================================
~Version information
VERS.   2.0:
WRAP.   NO:
#==================================================================
~Well
STRT .m      1385.0000000 :
STOP .m      1720.0000000 :
STEP .m     0.12500000 :
NULL .        -999.250000 :
COMP.           : COMPANY
WELL.  5-17C2   : WELL
FLD.            : FIELD
LOC.            : LOCATION
SRVC.           : SERVICE COMPANY
DATE.  2020-03-08 09:25:10   : Log Export Date {yyyy-MM-dd HH:mm:ss}
PROV.           : PROVINCE
UWI.      : UNIQUE WELL ID
API.            : API NUMBER
#==================================================================
~Curve
DEPT .m                   : DEPTH
RT .ohm.m                 : RT
SP .                      : SP
Fluids .                  : Fluids
POR .m3/m3                : POR
PERM .mD                  : PERM
Lith .                    : Lith
~Parameter
#==================================================================
~Ascii
# ...
 1624.2500000 10.588999748 62.395999908 4.0000000000 15.000000000 199.00000000 1.0000000000
 1624.3750000 10.883000374 62.671001434 4.0000000000 15.000000000 199.00000000 1.0000000000
 1624.5000000 11.251000404 62.958000183 4.0000000000 15.000000000 199.00000000 1.0000000000
 1624.6250000 11.697999954 63.259998322 4.0000000000 15.000000000 199.00000000 1.0000000000
 1624.7500000 12.147999763 63.560001373 4.0000000000 15.000000000 199.00000000 1.0000000000
 1624.8750000 12.572999954 63.833000183  -999.250000 0.1000000015 0.1000000015 0.0000000000
 1625.0000000 12.878000259 64.075996399  -999.250000 0.1000000015 0.1000000015 0.0000000000
 1625.1250000 13.017000198 64.297996521  -999.250000 0.1000000015 0.1000000015 0.0000000000
 1625.2500000 13.006999969 64.489997864  -999.250000 0.1000000015 0.1000000015 0.0000000000
 1625.3750000 12.902000427 64.668998718  -999.250000 0.1000000015 0.1000000015 0.0000000000
 1625.5000000 12.748999596 64.834999084  -999.250000 0.1000000015 0.1000000015 0.0000000000
 1625.6250000 12.496999741 64.990997314  -999.250000 0.1000000015 0.1000000015 0.0000000000
 1625.7500000 12.079999924 65.103996277  -999.250000 0.1000000015 0.1000000015 0.0000000000
 1625.8750000 11.458000183 65.155998230  -999.250000 0.1000000015 0.1000000015 0.0000000000
 1626.0000000 10.774999619 65.114997864  -999.250000 0.1000000015 0.1000000015 0.0000000000
 1626.1250000 10.119999886 64.970001221 0.0000000000 8.0000000000 5.0000000000 1.0000000000
 1626.2500000 9.5369997025 64.761001587 0.0000000000 8.0000000000 5.0000000000 1.0000000000
 1626.3750000 8.9930000305 64.517997742 0.0000000000 8.0000000000 5.0000000000 1.0000000000
 1626.5000000 8.5050001144 64.255996704 0.0000000000 8.0000000000 5.0000000000 1.0000000000
 1626.6250000 8.1759996414 63.951999664 0.0000000000 8.0000000000 5.0000000000 1.0000000000
 1626.7500000 7.9970002174 63.612998962 0.0000000000 8.0000000000 5.0000000000 1.0000000000
 1626.8750000 7.8400001526 63.257999420  -999.250000 0.1000000015 0.1000000015 0.0000000000
 1627.0000000 7.6040000916 62.917999268  -999.250000 0.1000000015 0.1000000015 0.0000000000
 1627.1250000 7.2039999962 62.589000702  -999.250000 0.1000000015 0.1000000015 0.0000000000
 1627.2500000 6.6110000610 62.258998871  -999.250000 0.1000000015 0.1000000015 0.0000000000
 1627.3750000 5.9140000343 61.928001404  -999.250000 0.1000000015 0.1000000015 0.0000000000
 1627.5000000 5.3810000420 61.574001312 4.0000000000 19.000000000 1301.0000000 1.0000000000
 1627.6250000 5.1760001183 61.188999176 4.0000000000 19.000000000 1301.0000000 1.0000000000
 1627.7500000 5.3239998817 60.770999908 4.0000000000 19.000000000 1301.0000000 1.0000000000
 1627.8750000 5.6700000763 60.373001099 4.0000000000 19.000000000 1301.0000000 1.0000000000
 1628.0000000 6.0910000801 60.028999329 4.0000000000 19.000000000 1301.0000000 1.0000000000
 1628.1250000 6.3930001259 59.778999329 4.0000000000 19.000000000 1301.0000000 1.0000000000
 1628.2500000 6.5879998207 59.632999420 4.0000000000 19.000000000 1301.0000000 1.0000000000
 1628.3750000 6.7680001259 59.585998535 4.0000000000 19.000000000 1301.0000000 1.0000000000
 1628.5000000 6.9869999886 59.620998383 4.0000000000 19.000000000 1301.0000000 1.0000000000
 1628.6250000 7.2340002060 59.715000153 4.0000000000 19.000000000 1301.0000000 1.0000000000
 1628.7500000 7.4400000572 59.847000122 4.0000000000 19.000000000 1301.0000000 1.0000000000
 1628.8750000 7.5999999046 59.979000092 4.0000000000 19.000000000 1301.0000000 1.0000000000
 1629.0000000 7.7220001221 60.111000061 4.0000000000 19.000000000 1301.0000000 1.0000000000
 1629.1250000 7.8709998131 60.231998444 4.0000000000 19.000000000 1301.0000000 1.0000000000
 1629.2500000 8.0989999771 60.340000153 4.0000000000 19.000000000 1301.0000000 1.0000000000
 1629.3750000 8.4479999542 60.419998169 4.0000000000 19.000000000 1301.0000000 1.0000000000
 1629.5000000 8.8800001144 60.464000702 4.0000000000 19.000000000 1301.0000000 1.0000000000
 1629.6250000 9.3690004349 60.479999542 4.0000000000 19.000000000 1301.0000000 1.0000000000
 1629.7500000 9.9130001068 60.476001740 4.0000000000 19.000000000 1301.0000000 1.0000000000
 1629.8750000 10.361000061 60.463001251  -999.250000 0.1000000015 0.1000000015 0.0000000000
 1630.0000000 10.741000175 60.426998138  -999.250000 0.1000000015 0.1000000015 0.0000000000
 1630.1250000 11.135000229 60.375999451 4.0000000000 15.000000000 245.00000000 1.0000000000
 1630.2500000 11.701999664 60.293998718 4.0000000000 15.000000000 245.00000000 1.0000000000
 1630.3750000 12.385000229 60.183998108 4.0000000000 15.000000000 245.00000000 1.0000000000
 1630.5000000 13.046999931 60.035999298 4.0000000000 15.000000000 245.00000000 1.0000000000
 1630.6250000 13.543000221 59.854000092 4.0000000000 15.000000000 245.00000000 1.0000000000
 1630.7500000 13.786999702 59.646999359 4.0000000000 15.000000000 245.00000000 1.0000000000
 1630.8750000 13.717000008 59.425998688 4.0000000000 15.000000000 245.00000000 1.0000000000
 1631.0000000 13.392000198 59.220001221 4.0000000000 15.000000000 245.00000000 1.0000000000
 1631.1250000 13.001999855 59.026000977 4.0000000000 15.000000000 245.00000000 1.0000000000
 1631.2500000 12.715999603 58.855998993 4.0000000000 15.000000000 245.00000000 1.0000000000
 1631.3750000 12.590000153 58.703998566 4.0000000000 15.000000000 245.00000000 1.0000000000
 1631.5000000 12.545999527 58.581001282 4.0000000000 15.000000000 245.00000000 1.0000000000
 1631.6250000 12.475999832 58.487998962 4.0000000000 15.000000000 245.00000000 1.0000000000
 1631.7500000 12.343999863 58.430999756 4.0000000000 15.000000000 245.00000000 1.0000000000
 1631.8750000 12.199000359 58.402000427 4.0000000000 15.000000000 245.00000000 1.0000000000
 1632.0000000 12.085000038 58.388999939 4.0000000000 15.000000000 245.00000000 1.0000000000
 1632.1250000 12.012999535 58.388000488 4.0000000000 15.000000000 245.00000000 1.0000000000
 1632.2500000 11.972999573 58.386001587 4.0000000000 15.000000000 245.00000000 1.0000000000
 1632.3750000 11.977000237 58.395999908 4.0000000000 15.000000000 245.00000000 1.0000000000
 1632.5000000 12.043000221 58.419998169 4.0000000000 15.000000000 245.00000000 1.0000000000
 1632.6250000 12.230999947 58.485000610 4.0000000000 15.000000000 245.00000000 1.0000000000
 1632.7500000 12.565999985 58.598999023 4.0000000000 15.000000000 245.00000000 1.0000000000
 1632.8750000 13.090999603 58.771999359 4.0000000000 15.000000000 245.00000000 1.0000000000
 1633.0000000 13.692999840 59.021999359 4.0000000000 15.000000000 245.00000000 1.0000000000
 1633.1250000 14.303000450 59.340000153 4.0000000000 15.000000000 245.00000000 1.0000000000
 1633.2500000 14.777000427 59.702999115 4.0000000000 15.000000000 245.00000000 1.0000000000
 1633.3750000 15.088000298 60.058998108 4.0000000000 15.000000000 245.00000000 1.0000000000
 1633.5000000 15.253000259 60.389999390 4.0000000000 15.000000000 245.00000000 1.0000000000
 1633.6250000 15.381999969 60.681999207 4.0000000000 15.000000000 245.00000000 1.0000000000
 1633.7500000 15.526000023 60.952999115 4.0000000000 15.000000000 245.00000000 1.0000000000
 1633.8750000 15.720999718 61.201000214 4.0000000000 15.000000000 245.00000000 1.0000000000
 1634.0000000 15.989999771 61.424999237 4.0000000000 15.000000000 245.00000000 1.0000000000
 1634.1250000 16.301000595 61.644001007 4.0000000000 15.000000000 245.00000000 1.0000000000
 1634.2500000 16.566999435 61.881000519 4.0000000000 15.000000000 245.00000000 1.0000000000
 1634.3750000 16.739000320 62.166000366  -999.250000 0.1000000015 0.1000000015 0.0000000000
 1634.5000000 16.712999344 62.493000031  -999.250000 0.1000000015 0.1000000015 0.0000000000
 1634.6250000 16.371999741 62.873001099  -999.250000 0.1000000015 0.1000000015 0.0000000000
 1634.7500000 15.647999763 63.271999359  -999.250000 0.1000000015 0.1000000015 0.0000000000
 1634.8750000 14.682000160 63.658000946  -999.250000 0.1000000015 0.1000000015 0.0000000000
 1635.0000000 13.524000168 63.992000580  -999.250000 0.1000000015 0.1000000015 0.0000000000
