# LAS format log file from PETREL
# Project units are specified as depth units
#==================================================================
~Version information
VERS.   2.0:
WRAP.   NO:
#==================================================================
~Well
STRT .m      1450.0000000 :
STOP .m      1720.0000000 :
STEP .m     0.12500000 :
NULL .        -999.250000 :
COMP.           : COMPANY
WELL.  5-17C   : WELL
FLD.            : FIELD
LOC.            : LOCATION
SRVC.           : SERVICE COMPANY
DATE.  2020-03-08 09:25:10   : Log Export Date {yyyy-MM-dd HH:mm:ss}
PROV.           : PROVINCE
UWI.      : UNIQUE WELL ID
API.            : API NUMBER
#==================================================================
~Curve
DEPT .m                   : DEPTH
RT .ohm.m                 : RT
SP .                      : SP
Fluids .                  : Fluids
POR .m3/m3                : POR
PERM .mD                  : PERM
Lith .                    : Lith
~Parameter
#==================================================================
~Ascii
# ...
 1569.6250000 2.2669999599 22.794000626  -999.250000  -999.250000  -999.250000  -999.250000
 1569.7500000 2.2439999580 22.429000854  -999.250000  -999.250000  -999.250000  -999.250000
 1569.8750000 2.2200000286 22.045000076  -999.250000  -999.250000  -999.250000  -999.250000
 1570.0000000 2.2149999142 21.656000137  -999.250000  -999.250000  -999.250000  -999.250000
 1570.1250000 2.1789999008 21.134000778  -999.250000  -999.250000  -999.250000  -999.250000
 1570.2500000 2.2039999962 20.541000366  -999.250000  -999.250000  -999.250000  -999.250000
 1570.3750000 2.2509999275 20.117000580  -999.250000  -999.250000  -999.250000  -999.250000
 1570.5000000 2.3220000267 19.645000458  -999.250000  -999.250000  -999.250000  -999.250000
 1570.6250000 2.4170000553 19.146999359  -999.250000  -999.250000  -999.250000  -999.250000
 1570.7500000 2.4679999352 18.635999680  -999.250000  -999.250000  -999.250000  -999.250000
 1570.8750000 2.5520000458 18.242000580  -999.250000  -999.250000  -999.250000  -999.250000
 1571.0000000 2.6779999733 17.783000946  -999.250000  -999.250000  -999.250000  -999.250000
 1571.1250000 2.8039999008 17.290000916  -999.250000  -999.250000  -999.250000  -999.250000
 1571.2500000 2.9590001106 16.700000763  -999.250000  -999.250000  -999.250000  -999.250000
 1571.3750000 3.1140000820 16.226999283  -999.250000  -999.250000  -999.250000  -999.250000
 1571.5000000 3.2780001163 15.656999588 4.0000000000 24.000000000 3214.0000000 1.0000000000
 1571.6250000 3.4909999371 15.038000107 4.0000000000 24.000000000 3214.0000000 1.0000000000
 1571.7500000 3.6579999924 14.553999901 4.0000000000 24.000000000 3214.0000000 1.0000000000
 1571.8750000 3.7690000534 13.980999947 4.0000000000 24.000000000 3214.0000000 1.0000000000
 1572.0000000 3.8789999485 13.362000465 4.0000000000 24.000000000 3214.0000000 1.0000000000
 1572.1250000 3.9240000248 13.413999557 4.0000000000 24.000000000 3214.0000000 1.0000000000
 1572.2500000 4.0110001564 13.465000153 4.0000000000 24.000000000 3214.0000000 1.0000000000
 1572.3750000 4.1149997711 14.213999748 4.0000000000 24.000000000 3214.0000000 1.0000000000
 1572.5000000 4.2649998665 15.057999611 4.0000000000 24.000000000 3214.0000000 1.0000000000
 1572.6250000 4.4450001717 16.236000061 4.0000000000 24.000000000 3214.0000000 1.0000000000
 1572.7500000 4.6840000153 16.763999939 4.0000000000 24.000000000 3214.0000000 1.0000000000
 1572.8750000 4.9840002060 17.187000275 4.0000000000 24.000000000 3214.0000000 1.0000000000
 1573.0000000 5.4930000305 17.669000626 4.0000000000 24.000000000 3214.0000000 1.0000000000
 1573.1250000 5.8660001755 18.167999268 4.0000000000 24.000000000 3214.0000000 1.0000000000
 1573.2500000 6.1700000763 18.974000931 4.0000000000 24.000000000 3214.0000000 1.0000000000
 1573.3750000 6.5879998207 19.820999146 4.0000000000 24.000000000 3214.0000000 1.0000000000
 1573.5000000 7.0520000458 20.422000885 4.0000000000 24.000000000 3214.0000000 1.0000000000
 1573.6250000 7.6050000191 20.945999146 4.0000000000 24.000000000 3214.0000000 1.0000000000
 1573.7500000 7.9939999580 21.226999283 4.0000000000 24.000000000 3214.0000000 1.0000000000
 1573.8750000 8.1630001068 21.729000092 4.0000000000 24.000000000 3214.0000000 1.0000000000
 1574.0000000 8.2810001373 22.400999069 4.0000000000 24.000000000 3214.0000000 1.0000000000
 1574.1250000 8.1689996719 23.134000778 4.0000000000 24.000000000 3214.0000000 1.0000000000
 1574.2500000 8.0550003052 24.084999084 4.0000000000 24.000000000 3214.0000000 1.0000000000
 1574.3750000 7.9419999123 25.059000015 4.0000000000 24.000000000 3214.0000000 1.0000000000
 1574.5000000 7.3769998550 25.965000153 4.0000000000 24.000000000 3214.0000000 1.0000000000
 1574.6250000 6.7670001984 26.558000565 4.0000000000 24.000000000 3214.0000000 1.0000000000
 1574.7500000 6.2379999161 27.169000626 4.0000000000 24.000000000 3214.0000000 1.0000000000
 1574.8750000 5.7470002174 27.649999619 4.0000000000 24.000000000 3214.0000000 1.0000000000
 1575.0000000 5.4840002060 28.257999420 4.0000000000 24.000000000 3214.0000000 1.0000000000
 1575.1250000 5.2490000725 28.752000809 4.0000000000 24.000000000 3214.0000000 1.0000000000
 1575.2500000 4.9800000191 29.246000290 4.0000000000 24.000000000 3214.0000000 1.0000000000
 1575.3750000 4.8590002060 29.843000412 4.0000000000 24.000000000 3214.0000000 1.0000000000
 1575.5000000 4.7729997635 30.204000473 4.0000000000 24.000000000 3214.0000000 1.0000000000
 1575.6250000 4.7189998627 30.656000137 4.0000000000 24.000000000 3214.0000000 1.0000000000
 1575.7500000 4.6919999123 31.142000198 4.0000000000 24.000000000 3214.0000000 1.0000000000
 1575.8750000 4.6570000648 31.572000504  -999.250000 0.1000000015 0.1000000015 0.0000000000
 1576.0000000 4.6230001450 32.043998718  -999.250000 0.1000000015 0.1000000015 0.0000000000
 1576.1250000 4.6180000305 32.534999847  -999.250000 0.1000000015 0.1000000015 0.0000000000
 1576.2500000 4.6160001755 33.117000580  -999.250000 0.1000000015 0.1000000015 0.0000000000
 1576.3750000 4.5850000381 33.456001282  -999.250000 0.1000000015 0.1000000015 0.0000000000
 1576.5000000 4.5489997864 33.646999359  -999.250000 0.1000000015 0.1000000015 0.0000000000
 1576.6250000 4.5029997826 33.881000519  -999.250000 0.1000000015 0.1000000015 0.0000000000
 1576.7500000 4.4510002136 34.187000275  -999.250000 0.1000000015 0.1000000015 0.0000000000
 1576.8750000 4.3829998970 34.597999573  -999.250000 0.1000000015 0.1000000015 0.0000000000
 1577.0000000 4.3159999847 34.847000122  -999.250000 0.1000000015 0.1000000015 0.0000000000
 1577.1250000 4.2309999466 35.096000671  -999.250000 0.1000000015 0.1000000015 0.0000000000
 1577.2500000 4.1269998550 35.284999847  -999.250000 0.1000000015 0.1000000015 0.0000000000
 1577.3750000 4.0240001678 35.513000488  -999.250000 0.1000000015 0.1000000015 0.0000000000
 1577.5000000 3.8619999886 35.742000580  -999.250000 0.1000000015 0.1000000015 0.0000000000
 1577.6250000 3.7179999352 35.880001068  -999.250000 0.1000000015 0.1000000015 0.0000000000
 1577.7500000 3.6159999371 36.068000793  -999.250000 0.1000000015 0.1000000015 0.0000000000
 1577.8750000 3.5150001049 36.155998230  -999.250000 0.1000000015 0.1000000015 0.0000000000
 1578.0000000 3.3740000725 36.193000793  -999.250000 0.1000000015 0.1000000015 0.0000000000
 1578.1250000 3.2460000515 36.141998291  -999.250000 0.1000000015 0.1000000015 0.0000000000
 1578.2500000 3.1250000000 36.116001129  -999.250000 0.1000000015 0.1000000015 0.0000000000
 1578.3750000 3.1080000401 36.050998688  -999.250000 0.1000000015 0.1000000015 0.0000000000
 1578.5000000 3.2070000172 35.986000061  -999.250000 0.1000000015 0.1000000015 0.0000000000
 1578.6250000 3.6740000248 35.859001160  -999.250000 0.1000000015 0.1000000015 0.0000000000
 1578.7500000 3.9530000687 35.807998657  -999.250000 0.1000000015 0.1000000015 0.0000000000
 1578.8750000 4.1680002213 35.756999969  -999.250000 0.1000000015 0.1000000015 0.0000000000
 1579.0000000 4.3210000992 35.749000549  -999.250000 0.1000000015 0.1000000015 0.0000000000
 1579.1250000 4.4099998474 35.744998932  -999.250000 0.1000000015 0.1000000015 0.0000000000
 1579.2500000 4.4289999008 35.676998138  -999.250000 0.1000000015 0.1000000015 0.0000000000
 1579.3750000 4.4990000725 35.651000977  -999.250000 0.1000000015 0.1000000015 0.0000000000
 1579.5000000 4.5460000038 35.625999451  -999.250000 0.1000000015 0.1000000015 0.0000000000
 1579.6250000 4.5970001221 35.623001099  -999.250000 0.1000000015 0.1000000015 0.0000000000
 1579.7500000 4.6160001755 35.620998383  -999.250000 0.1000000015 0.1000000015 0.0000000000
 1579.8750000 4.6350002289 35.691001892  -999.250000 0.1000000015 0.1000000015 0.0000000000
 1580.0000000 4.6020002365 35.770000458  -999.250000 0.1000000015 0.1000000015 0.0000000000
 1580.1250000 4.5159997940 35.837001801  -999.250000 0.1000000015 0.1000000015 0.0000000000
 1580.2500000 4.3680000305 35.904998779  -999.250000 0.1000000015 0.1000000015 0.0000000000
 1580.3750000 4.1079998016 36.037998199  -999.250000 0.1000000015 0.1000000015 0.0000000000
