# LAS format log file from PETREL
# Project units are specified as depth units
#==================================================================
~Version information
VERS.   2.0:
WRAP.   NO:
#==================================================================
~Well
STRT .m      1450.0000000 :
STOP .m      1660.0000000 :
STEP .m     0.12500000 :
NULL .        -999.250000 :
COMP.           : COMPANY
WELL.  5-17   : WELL
FLD.            : FIELD
LOC.            : LOCATION
SRVC.           : SERVICE COMPANY
DATE.  2020-03-08 09:25:10   : Log Export Date {yyyy-MM-dd HH:mm:ss}
PROV.           : PROVINCE
UWI.      : UNIQUE WELL ID
API.            : API NUMBER
#==================================================================
~Curve
DEPT .m                   : DEPTH
RT .ohm.m                 : RT
SP .                      : SP
Fluids .                  : Fluids
POR .m3/m3                : POR
PERM .mD                  : PERM
Lith .                    : Lith
~Parameter
#==================================================================
~Ascii
# ...
 1558.7500000 2.7320001125 26.989999771  -999.250000  -999.250000  -999.250000  -999.250000
 1558.8750000 2.7409999371 26.986000061  -999.250000  -999.250000  -999.250000  -999.250000
 1559.0000000 2.7750000954 27.020999908  -999.250000  -999.250000  -999.250000  -999.250000
 1559.1250000 2.8099999428 27.055999756  -999.250000  -999.250000  -999.250000  -999.250000
 1559.2500000 2.8489999771 27.152999878  -999.250000  -999.250000  -999.250000  -999.250000
 1559.3750000 2.8929998875 27.259000778  -999.250000  -999.250000  -999.250000  -999.250000
 1559.5000000 2.9370000362 27.361999512  -999.250000  -999.250000  -999.250000  -999.250000
 1559.6250000 2.9719998837 27.243000031  -999.250000  -999.250000  -999.250000  -999.250000
 1559.7500000 3.0060000420 27.125000000  -999.250000  -999.250000  -999.250000  -999.250000
 1559.8750000 3.0409998894 27.021999359  -999.250000  -999.250000  -999.250000  -999.250000
 1560.0000000 3.0759999752 26.936000824  -999.250000  -999.250000  -999.250000  -999.250000
 1560.1250000 3.1110000610 26.850000381  -999.250000  -999.250000  -999.250000  -999.250000
 1560.2500000 3.1470000744 26.763999939  -999.250000  -999.250000  -999.250000  -999.250000
 1560.3750000 3.1860001087 26.670000076  -999.250000  -999.250000  -999.250000  -999.250000
 1560.5000000 3.2249999046 26.575000763  -999.250000  -999.250000  -999.250000  -999.250000
 1560.6250000 3.1960000992 26.481000900  -999.250000  -999.250000  -999.250000  -999.250000
 1560.7500000 3.1519999504 26.642000198  -999.250000  -999.250000  -999.250000  -999.250000
 1560.8750000 3.0820000172 26.892999649  -999.250000  -999.250000  -999.250000  -999.250000
 1561.0000000 2.9930000305 27.131999969  -999.250000  -999.250000  -999.250000  -999.250000
 1561.1250000 2.9240000248 27.370000839  -999.250000  -999.250000  -999.250000  -999.250000
 1561.2500000 2.8929998875 27.485000610  -999.250000  -999.250000  -999.250000  -999.250000
 1561.3750000 2.8619999886 27.520999908  -999.250000  -999.250000  -999.250000  -999.250000
 1561.5000000 2.8299999237 27.555999756  -999.250000  -999.250000  -999.250000  -999.250000
 1561.6250000 2.7909998894 27.642999649  -999.250000  -999.250000  -999.250000  -999.250000
 1561.7500000 2.7530000210 27.747999191  -999.250000  -999.250000  -999.250000  -999.250000
 1561.8750000 2.7860000134 27.854000092  -999.250000  -999.250000  -999.250000  -999.250000
 1562.0000000 2.8750000000 27.833999634  -999.250000  -999.250000  -999.250000  -999.250000
 1562.1250000 2.9519999027 27.794000626  -999.250000  -999.250000  -999.250000  -999.250000
 1562.2500000 3.0039999485 27.747999191  -999.250000  -999.250000  -999.250000  -999.250000
 1562.3750000 3.0169999599 27.684999466  -999.250000  -999.250000  -999.250000  -999.250000
 1562.5000000 2.9730000496 27.621999741  -999.250000  -999.250000  -999.250000  -999.250000
 1562.6250000 2.9210000038 27.549999237  -999.250000  -999.250000  -999.250000  -999.250000
 1562.7500000 2.8329999447 27.415000916  -999.250000  -999.250000  -999.250000  -999.250000
 1562.8750000 2.7439999580 27.280000687  -999.250000  -999.250000  -999.250000  -999.250000
 1563.0000000 2.7939999104 27.170999527  -999.250000  -999.250000  -999.250000  -999.250000
 1563.1250000 2.9040000439 27.065999985  -999.250000  -999.250000  -999.250000  -999.250000
 1563.2500000 3.1129999161 26.961000443  -999.250000  -999.250000  -999.250000  -999.250000
 1563.3750000 3.2679998875 26.826999664  -999.250000  -999.250000  -999.250000  -999.250000
 1563.5000000 3.3459999561 26.691999435  -999.250000  -999.250000  -999.250000  -999.250000
 1563.6250000 3.4240000248 26.451999664  -999.250000  -999.250000  -999.250000  -999.250000
 1563.7500000 3.5030000210 26.177000046  -999.250000  -999.250000  -999.250000  -999.250000
 1563.8750000 3.9059998989 25.909000397 0.0000000000 5.0000000000 2.0000000000 1.0000000000
 1564.0000000 4.8159999847 25.673999786 0.0000000000 5.0000000000 2.0000000000 1.0000000000
 1564.1250000 5.8959999084 25.437999725 0.0000000000 5.0000000000 2.0000000000 1.0000000000
 1564.2500000 5.4510002136 25.638999939 0.0000000000 5.0000000000 2.0000000000 1.0000000000
 1564.3750000 4.8410000801 26.136999130 0.0000000000 5.0000000000 2.0000000000 1.0000000000
 1564.5000000 4.1100001335 26.669000626 0.0000000000 5.0000000000 2.0000000000 1.0000000000
 1564.6250000 3.5799999237 26.961000443  -999.250000 0.1000000015 0.1000000015 0.0000000000
 1564.7500000 3.3540000916 26.945999146  -999.250000 0.1000000015 0.1000000015 0.0000000000
 1564.8750000 3.4319999218 26.860000610  -999.250000 0.1000000015 0.1000000015 0.0000000000
 1565.0000000 3.6819999218 26.774000168 0.0000000000 7.0000000000 4.0000000000 1.0000000000
 1565.1250000 3.9340000153 26.687999725 0.0000000000 7.0000000000 4.0000000000 1.0000000000
 1565.2500000 3.8719999790 26.542999268 0.0000000000 7.0000000000 4.0000000000 1.0000000000
 1565.3750000 3.8810000420 26.368000031 0.0000000000 7.0000000000 4.0000000000 1.0000000000
 1565.5000000 4.0100002289 26.193000793 0.0000000000 7.0000000000 4.0000000000 1.0000000000
 1565.6250000 4.1009998322 25.910999298 0.0000000000 7.0000000000 4.0000000000 1.0000000000
 1565.7500000 3.9240000248 25.597000122 0.0000000000 7.0000000000 4.0000000000 1.0000000000
 1565.8750000 3.7479999065 25.148000717 0.0000000000 7.0000000000 4.0000000000 1.0000000000
 1566.0000000 4.1840000153 24.576000214 0.0000000000 7.0000000000 4.0000000000 1.0000000000
 1566.1250000 4.7249999046 24.051000595 0.0000000000 7.0000000000 4.0000000000 1.0000000000
 1566.2500000 5.2750000954 23.559999466 0.0000000000 7.0000000000 4.0000000000 1.0000000000
 1566.3750000 5.6539998055 23.111999512 0.0000000000 7.0000000000 4.0000000000 1.0000000000
 1566.5000000 5.7760000229 22.753999710 0.0000000000 7.0000000000 4.0000000000 1.0000000000
 1566.6250000 5.6719999313 22.409999847 0.0000000000 7.0000000000 4.0000000000 1.0000000000
 1566.7500000 5.7740001678 22.252000809 0.0000000000 7.0000000000 4.0000000000 1.0000000000
 1566.8750000 6.0900001526 22.344999313 0.0000000000 7.0000000000 4.0000000000 1.0000000000
 1567.0000000 6.4980001450 22.503000259 0.0000000000 7.0000000000 4.0000000000 1.0000000000
 1567.1250000 6.0859999657 22.662000656 0.0000000000 7.0000000000 4.0000000000 1.0000000000
 1567.2500000 5.6479997635 22.820999146 0.0000000000 7.0000000000 4.0000000000 1.0000000000
 1567.3750000 5.2100000381 22.649999619 0.0000000000 7.0000000000 4.0000000000 1.0000000000
 1567.5000000 4.8800001144 22.469999313 0.0000000000 7.0000000000 4.0000000000 1.0000000000
 1567.6250000 4.6539998055 22.756000519 0.0000000000 7.0000000000 4.0000000000 1.0000000000
 1567.7500000 4.4079999924 23.325000763 0.0000000000 7.0000000000 4.0000000000 1.0000000000
 1567.8750000 4.1510000229 24.260000229 0.0000000000 7.0000000000 4.0000000000 1.0000000000
 1568.0000000 3.6740000248 24.847000122  -999.250000 0.1000000015 0.1000000015 0.0000000000
 1568.1250000 3.2590000629 25.582000732  -999.250000 0.1000000015 0.1000000015 0.0000000000
 1568.2500000 3.0020000935 26.579999924  -999.250000 0.1000000015 0.1000000015 0.0000000000
 1568.3750000 2.8169999123 26.899000168  -999.250000 0.1000000015 0.1000000015 0.0000000000
 1568.5000000 2.7479999065 27.180999756  -999.250000 0.1000000015 0.1000000015 0.0000000000
 1568.6250000 2.6789999008 27.287000656  -999.250000 0.1000000015 0.1000000015 0.0000000000
 1568.7500000 2.6589999199 27.381999969  -999.250000 0.1000000015 0.1000000015 0.0000000000
 1568.8750000 2.6870000362 27.444999695  -999.250000 0.1000000015 0.1000000015 0.0000000000
 1569.0000000 2.7160000801 27.507999420  -999.250000 0.1000000015 0.1000000015 0.0000000000
 1569.1250000 2.7439999580 27.570999146  -999.250000 0.1000000015 0.1000000015 0.0000000000
 1569.2500000 2.7449998856 27.622999191  -999.250000 0.1000000015 0.1000000015 0.0000000000
 1569.3750000 2.7449998856 27.676000595  -999.250000 0.1000000015 0.1000000015 0.0000000000
 1569.5000000 2.7409999371 27.729000092  -999.250000 0.1000000015 0.1000000015 0.0000000000
