# LAS format log file from PETREL
# Project units are specified as depth units
#==================================================================
~Version information
VERS.   2.0:
WRAP.   NO:
#==================================================================
~Well
STRT .m      1450.0000000 :
STOP .m      1720.0000000 :
STEP .m     0.12500000 :
NULL .        -999.250000 :
COMP.           : COMPANY
WELL.  5-17C   : WELL
FLD.            : FIELD
LOC.            : LOCATION
SRVC.           : SERVICE COMPANY
DATE.  2020-03-08 09:25:10   : Log Export Date {yyyy-MM-dd HH:mm:ss}
PROV.           : PROVINCE
UWI.      : UNIQUE WELL ID
API.            : API NUMBER
#==================================================================
~Curve
DEPT .m                   : DEPTH
RT .ohm.m                 : RT
SP .                      : SP
Fluids .                  : Fluids
POR .m3/m3                : POR
PERM .mD                  : PERM
Lith .                    : Lith
~Parameter
#==================================================================
~Ascii
# ...
 1613.1250000 28.665000916 14.670000076 4.0000000000 23.000000000 2603.0000000 1.0000000000
 1613.2500000 28.371999741 14.633999825 4.0000000000 23.000000000 2603.0000000 1.0000000000
 1613.3750000 28.141000748 14.625000000 4.0000000000 23.000000000 2603.0000000 1.0000000000
 1613.5000000 27.910999298 14.689999580 4.0000000000 23.000000000 2603.0000000 1.0000000000
 1613.6250000 28.124000549 14.715000153 4.0000000000 23.000000000 2603.0000000 1.0000000000
 1613.7500000 28.674999237 14.722000122 4.0000000000 23.000000000 2603.0000000 1.0000000000
 1613.8750000 29.624000549 14.854999542 4.0000000000 23.000000000 2603.0000000 1.0000000000
 1614.0000000 30.395999908 15.053999901 4.0000000000 23.000000000 2603.0000000 1.0000000000
 1614.1250000 31.204000473 15.284000397 4.0000000000 23.000000000 2603.0000000 1.0000000000
 1614.2500000 31.849000931 15.468999863 4.0000000000 23.000000000 2603.0000000 1.0000000000
 1614.3750000 32.430999756 15.642999649 4.0000000000 23.000000000 2603.0000000 1.0000000000
 1614.5000000 32.683998108 15.817000389 4.0000000000 23.000000000 2603.0000000 1.0000000000
 1614.6250000 32.785999298 15.984999657 4.0000000000 23.000000000 2603.0000000 1.0000000000
 1614.7500000 32.810001373 16.207000732 4.0000000000 23.000000000 2603.0000000 1.0000000000
 1614.8750000 32.819000244 16.537000656 4.0000000000 23.000000000 2603.0000000 1.0000000000
 1615.0000000 32.820999146 16.732999802 4.0000000000 23.000000000 2603.0000000 1.0000000000
 1615.1250000 32.818000793 17.110000610 4.0000000000 23.000000000 2603.0000000 1.0000000000
 1615.2500000 32.675998688 17.488000870 4.0000000000 23.000000000 2603.0000000 1.0000000000
 1615.3750000 32.310001373 17.767999649 4.0000000000 23.000000000 2603.0000000 1.0000000000
 1615.5000000 31.827999115 18.100999832 4.0000000000 23.000000000 2603.0000000 1.0000000000
 1615.6250000 31.290000916 18.459999084 4.0000000000 23.000000000 2603.0000000 1.0000000000
 1615.7500000 30.868000031 18.681999207 4.0000000000 23.000000000 2603.0000000 1.0000000000
 1615.8750000 30.364000320 18.919000626 4.0000000000 23.000000000 2603.0000000 1.0000000000
 1616.0000000 29.819999695 19.232000351 4.0000000000 23.000000000 2603.0000000 1.0000000000
 1616.1250000 28.896999359 19.509000778 4.0000000000 23.000000000 2603.0000000 1.0000000000
 1616.2500000 28.242000580 19.708000183 4.0000000000 23.000000000 2603.0000000 1.0000000000
 1616.3750000 27.472999573 19.870000839 4.0000000000 23.000000000 2603.0000000 1.0000000000
 1616.5000000 26.819999695 20.011999130 4.0000000000 23.000000000 2603.0000000 1.0000000000
 1616.6250000 28.843999863 20.143999100 4.0000000000 23.000000000 2603.0000000 1.0000000000
 1616.7500000 28.777000427 20.271999359 4.0000000000 23.000000000 2603.0000000 1.0000000000
 1616.8750000 28.709999084 20.399000168 4.0000000000 23.000000000 2603.0000000 1.0000000000
 1617.0000000 28.652000427 20.489999771 4.0000000000 23.000000000 2603.0000000 1.0000000000
 1617.1250000 28.537000656 20.600999832 4.0000000000 23.000000000 2603.0000000 1.0000000000
 1617.2500000 28.330999374 20.752000809 4.0000000000 23.000000000 2603.0000000 1.0000000000
 1617.3750000 28.134000778 20.889999390 4.0000000000 23.000000000 2603.0000000 1.0000000000
 1617.5000000 27.893999100 21.047000885 4.0000000000 23.000000000 2603.0000000 1.0000000000
 1617.6250000 27.628000259 21.204000473 4.0000000000 23.000000000 2603.0000000 1.0000000000
 1617.7500000 27.385000229 21.371000290 4.0000000000 23.000000000 2603.0000000 1.0000000000
 1617.8750000 27.121000290 21.538000107 4.0000000000 23.000000000 2603.0000000 1.0000000000
 1618.0000000 26.843999863 21.676000595 4.0000000000 23.000000000 2603.0000000 1.0000000000
 1618.1250000 26.527999878 21.813999176 4.0000000000 23.000000000 2603.0000000 1.0000000000
 1618.2500000 26.228000641 21.944000244 4.0000000000 23.000000000 2603.0000000 1.0000000000
 1618.3750000 25.934999466 22.121000290 4.0000000000 23.000000000 2603.0000000 1.0000000000
 1618.5000000 25.643999100 22.298999786 4.0000000000 23.000000000 2603.0000000 1.0000000000
 1618.6250000 25.406000137 22.541000366 4.0000000000 23.000000000 2603.0000000 1.0000000000
 1618.7500000 25.021999359 22.868000031 4.0000000000 23.000000000 2603.0000000 1.0000000000
 1618.8750000 24.621000290 23.143999100 4.0000000000 23.000000000 2603.0000000 1.0000000000
 1619.0000000 24.214000702 23.402000427 4.0000000000 23.000000000 2603.0000000 1.0000000000
 1619.1250000 23.818000793 23.580999374 4.0000000000 23.000000000 2603.0000000 1.0000000000
 1619.2500000 23.420999527 23.805999756 4.0000000000 23.000000000 2603.0000000 1.0000000000
 1619.3750000 23.110000610 24.216999054 4.0000000000 23.000000000 2603.0000000 1.0000000000
 1619.5000000 22.761999130 24.604000092 4.0000000000 23.000000000 2603.0000000 1.0000000000
 1619.6250000 22.415000916 24.576999664 4.0000000000 23.000000000 2603.0000000 1.0000000000
 1619.7500000 22.113000870 24.622999191 4.0000000000 23.000000000 2603.0000000 1.0000000000
 1619.8750000 21.857000351 24.667999268 4.0000000000 23.000000000 2603.0000000 1.0000000000
 1620.0000000 21.600000381 24.773000717 4.0000000000 23.000000000 2603.0000000 1.0000000000
 1620.1250000 21.002000809 24.893999100 4.0000000000 23.000000000 2603.0000000 1.0000000000
 1620.2500000 20.295000076 25.198999405 4.0000000000 23.000000000 2603.0000000 1.0000000000
 1620.3750000 19.896999359 25.603000641 4.0000000000 23.000000000 2603.0000000 1.0000000000
 1620.5000000 19.625000000 26.017000198 4.0000000000 23.000000000 2603.0000000 1.0000000000
 1620.6250000 19.552999496 26.430000305 4.0000000000 23.000000000 2603.0000000 1.0000000000
 1620.7500000 19.562999725 26.920999527 4.0000000000 23.000000000 2603.0000000 1.0000000000
 1620.8750000 19.656000137 27.725000381 4.0000000000 23.000000000 2603.0000000 1.0000000000
 1621.0000000 19.784999847 28.436000824 4.0000000000 23.000000000 2603.0000000 1.0000000000
 1621.1250000 19.915000916 29.100000381 4.0000000000 23.000000000 2603.0000000 1.0000000000
 1621.2500000 20.187999725 29.739999771 4.0000000000 23.000000000 2603.0000000 1.0000000000
 1621.3750000 20.489999771 30.281000137 4.0000000000 23.000000000 2603.0000000 1.0000000000
 1621.5000000 20.836999893 30.802000046 4.0000000000 23.000000000 2603.0000000 1.0000000000
 1621.6250000 21.235000610 31.312000275 4.0000000000 23.000000000 2603.0000000 1.0000000000
 1621.7500000 21.534000397 31.888000488 4.0000000000 23.000000000 2603.0000000 1.0000000000
 1621.8750000 21.847999573 32.417999268 4.0000000000 23.000000000 2603.0000000 1.0000000000
 1622.0000000 21.913999557 32.929000854 4.0000000000 23.000000000 2603.0000000 1.0000000000
 1622.1250000 21.719999313 33.433998108 4.0000000000 23.000000000 2603.0000000 1.0000000000
 1622.2500000 21.142000198 33.935001373 4.0000000000 23.000000000 2603.0000000 1.0000000000
 1622.3750000 18.209999084 34.141998291 4.0000000000 23.000000000 2603.0000000 1.0000000000
 1622.5000000 17.986999512 34.376998901 4.0000000000 23.000000000 2603.0000000 1.0000000000
 1622.6250000 17.763999939 34.449001312 4.0000000000 23.000000000 2603.0000000 1.0000000000
 1622.7500000 17.534999847 34.367000580 4.0000000000 23.000000000 2603.0000000 1.0000000000
 1622.8750000 17.375000000 34.244998932 4.0000000000 23.000000000 2603.0000000 1.0000000000
 1623.0000000 17.207000732 34.073001862 4.0000000000 23.000000000 2603.0000000 1.0000000000
 1623.1250000 17.034999847 33.930999756 4.0000000000 23.000000000 2603.0000000 1.0000000000
 1623.2500000 16.815000534 33.834999084 4.0000000000 23.000000000 2603.0000000 1.0000000000
 1623.3750000 16.697999954 33.638999939 4.0000000000 23.000000000 2603.0000000 1.0000000000
 1623.5000000 16.579999924 33.525001526 4.0000000000 23.000000000 2603.0000000 1.0000000000
 1623.6250000 16.420000076 33.333000183 4.0000000000 23.000000000 2603.0000000 1.0000000000
 1623.7500000 16.298999786 33.152999878 4.0000000000 23.000000000 2603.0000000 1.0000000000
 1623.8750000 16.207000732 32.935001373 4.0000000000 23.000000000 2603.0000000 1.0000000000
