# LAS format log file from PETREL
# Project units are specified as depth units
#==================================================================
~Version information
VERS.   2.0:
WRAP.   NO:
#==================================================================
~Well
STRT .m      1450.0000000 :
STOP .m      1660.0000000 :
STEP .m     0.12500000 :
NULL .        -999.250000 :
COMP.           : COMPANY
WELL.  5-17   : WELL
FLD.            : FIELD
LOC.            : LOCATION
SRVC.           : SERVICE COMPANY
DATE.  2020-03-08 09:25:10   : Log Export Date {yyyy-MM-dd HH:mm:ss}
PROV.           : PROVINCE
UWI.      : UNIQUE WELL ID
API.            : API NUMBER
#==================================================================
~Curve
DEPT .m                   : DEPTH
RT .ohm.m                 : RT
SP .                      : SP
Fluids .                  : Fluids
POR .m3/m3                : POR
PERM .mD                  : PERM
Lith .                    : Lith
~Parameter
#==================================================================
~Ascii
# ...
 1569.6250000 2.6970000267 27.768999100  -999.250000 0.1000000015 0.1000000015 0.0000000000
 1569.7500000 2.6530001163 27.768999100  -999.250000 0.1000000015 0.1000000015 0.0000000000
 1569.8750000 2.6840000153 27.768999100  -999.250000 0.1000000015 0.1000000015 0.0000000000
 1570.0000000 2.4100000858 27.768999100  -999.250000 0.1000000015 0.1000000015 0.0000000000
 1570.1250000 2.5120000839 27.768999100  -999.250000 0.1000000015 0.1000000015 0.0000000000
 1570.2500000 2.5090000629 27.768999100  -999.250000 0.1000000015 0.1000000015 0.0000000000
 1570.3750000 2.4330000877 27.768999100  -999.250000 0.1000000015 0.1000000015 0.0000000000
 1570.5000000 2.3689999580 27.768999100  -999.250000 0.1000000015 0.1000000015 0.0000000000
 1570.6250000 2.3190000057 27.691999435  -999.250000 0.1000000015 0.1000000015 0.0000000000
 1570.7500000 2.3210000992 27.606000900  -999.250000 0.1000000015 0.1000000015 0.0000000000
 1570.8750000 2.3229999542 27.520000458  -999.250000 0.1000000015 0.1000000015 0.0000000000
 1571.0000000 2.3870000839 27.451999664  -999.250000 0.1000000015 0.1000000015 0.0000000000
 1571.1250000 2.5250000954 27.412000656  -999.250000 0.1000000015 0.1000000015 0.0000000000
 1571.2500000 2.5299999714 27.372999191  -999.250000 0.1000000015 0.1000000015 0.0000000000
 1571.3750000 2.5320000648 27.395000458  -999.250000 0.1000000015 0.1000000015 0.0000000000
 1571.5000000 2.5160000324 27.430000305  -999.250000 0.1000000015 0.1000000015 0.0000000000
 1571.6250000 2.4730000496 27.465000153  -999.250000 0.1000000015 0.1000000015 0.0000000000
 1571.7500000 2.4370000362 27.503999710  -999.250000 0.1000000015 0.1000000015 0.0000000000
 1571.8750000 2.4389998913 27.544000626  -999.250000 0.1000000015 0.1000000015 0.0000000000
 1572.0000000 2.3740000725 27.631000519  -999.250000 0.1000000015 0.1000000015 0.0000000000
 1572.1250000 2.2980000973 27.790000916  -999.250000 0.1000000015 0.1000000015 0.0000000000
 1572.2500000 2.2219998837 27.947999954  -999.250000 0.1000000015 0.1000000015 0.0000000000
 1572.3750000 2.1470000744 27.972000122  -999.250000 0.1000000015 0.1000000015 0.0000000000
 1572.5000000 2.1480000019 27.972000122  -999.250000 0.1000000015 0.1000000015 0.0000000000
 1572.6250000 2.1749999523 27.906999588  -999.250000 0.1000000015 0.1000000015 0.0000000000
 1572.7500000 2.2390000820 27.801000595  -999.250000 0.1000000015 0.1000000015 0.0000000000
 1572.8750000 2.4159998894 27.695999146  -999.250000 0.1000000015 0.1000000015 0.0000000000
 1573.0000000 2.5829999447 27.697999954  -999.250000 0.1000000015 0.1000000015 0.0000000000
 1573.1250000 2.7139999866 27.738000870  -999.250000 0.1000000015 0.1000000015 0.0000000000
 1573.2500000 2.7379999161 27.760999680  -999.250000 0.1000000015 0.1000000015 0.0000000000
 1573.3750000 2.6359999180 27.715999603  -999.250000 0.1000000015 0.1000000015 0.0000000000
 1573.5000000 2.5659999847 27.670999527  -999.250000 0.1000000015 0.1000000015 0.0000000000
 1573.6250000 2.5680000782 27.371000290  -999.250000 0.1000000015 0.1000000015 0.0000000000
 1573.7500000 2.6410000324 27.059000015  -999.250000 0.1000000015 0.1000000015 0.0000000000
 1573.8750000 2.7969999313 26.877000809  -999.250000 0.1000000015 0.1000000015 0.0000000000
 1574.0000000 3.1099998951 27.142000198  -999.250000 0.1000000015 0.1000000015 0.0000000000
 1574.1250000 3.1040000916 27.385999680  -999.250000 0.1000000015 0.1000000015 0.0000000000
 1574.2500000 2.9079999924 27.513000488  -999.250000 0.1000000015 0.1000000015 0.0000000000
 1574.3750000 2.7469999790 27.451000214  -999.250000 0.1000000015 0.1000000015 0.0000000000
 1574.5000000 2.5929999352 27.240999222  -999.250000 0.1000000015 0.1000000015 0.0000000000
 1574.6250000 2.4389998913 26.908000946  -999.250000 0.1000000015 0.1000000015 0.0000000000
 1574.7500000 2.4179999828 26.504999161  -999.250000 0.1000000015 0.1000000015 0.0000000000
 1574.8750000 2.4719998837 25.940000534  -999.250000 0.1000000015 0.1000000015 0.0000000000
 1575.0000000 2.5769999027 25.111999512  -999.250000 0.1000000015 0.1000000015 0.0000000000
 1575.1250000 2.7209999561 24.176000595  -999.250000 0.1000000015 0.1000000015 0.0000000000
 1575.2500000 3.3050000668 23.167999268  -999.250000 0.1000000015 0.1000000015 0.0000000000
 1575.3750000 3.8399999142 22.667999268  -999.250000 0.1000000015 0.1000000015 0.0000000000
 1575.5000000 4.5279998779 22.315000534 0.0000000000 6.0000000000 3.0000000000 1.0000000000
 1575.6250000 5.2800002098 22.482000351 0.0000000000 6.0000000000 3.0000000000 1.0000000000
 1575.7500000 5.9670000076 22.961000443 0.0000000000 6.0000000000 3.0000000000 1.0000000000
 1575.8750000 6.7030000687 23.503000259 0.0000000000 6.0000000000 3.0000000000 1.0000000000
 1576.0000000 5.6059999466 24.054000854 0.0000000000 6.0000000000 3.0000000000 1.0000000000
 1576.1250000 4.4180002213 24.292999268 0.0000000000 6.0000000000 3.0000000000 1.0000000000
 1576.2500000 4.3740000725 24.531000137 0.0000000000 6.0000000000 3.0000000000 1.0000000000
 1576.3750000 4.3619999886 24.558000565 0.0000000000 6.0000000000 3.0000000000 1.0000000000
 1576.5000000 4.3969998360 24.122999191 0.0000000000 6.0000000000 3.0000000000 1.0000000000
 1576.6250000 4.1970000267 23.653999329 0.0000000000 6.0000000000 3.0000000000 1.0000000000
 1576.7500000 4.8550000191 23.249000549 0.0000000000 6.0000000000 3.0000000000 1.0000000000
 1576.8750000 5.4279999733 22.986999512 0.0000000000 6.0000000000 3.0000000000 1.0000000000
 1577.0000000 5.4359998703 22.784999847 0.0000000000 6.0000000000 3.0000000000 1.0000000000
 1577.1250000 4.6810002327 22.680000305 0.0000000000 6.0000000000 3.0000000000 1.0000000000
 1577.2500000 4.5430002213 22.499000549 0.0000000000 6.0000000000 3.0000000000 1.0000000000
 1577.3750000 5.4489998817 22.229999542 0.0000000000 6.0000000000 3.0000000000 1.0000000000
 1577.5000000 6.4060001373 21.990999222 0.0000000000 6.0000000000 3.0000000000 1.0000000000
 1577.6250000 5.9910001755 21.864999771 0.0000000000 6.0000000000 3.0000000000 1.0000000000
 1577.7500000 5.1909999847 22.160999298 0.0000000000 6.0000000000 3.0000000000 1.0000000000
 1577.8750000 4.6090002060 22.568000793 0.0000000000 6.0000000000 3.0000000000 1.0000000000
 1578.0000000 4.5260000229 22.694999695 0.0000000000 6.0000000000 3.0000000000 1.0000000000
 1578.1250000 4.6510000229 22.525999069 0.0000000000 6.0000000000 3.0000000000 1.0000000000
 1578.2500000 4.7290000916 22.263999939 0.0000000000 6.0000000000 3.0000000000 1.0000000000
 1578.3750000 4.8070001602 22.114999771 0.0000000000 6.0000000000 3.0000000000 1.0000000000
 1578.5000000 4.9219999313 22.117000580 0.0000000000 6.0000000000 3.0000000000 1.0000000000
 1578.6250000 5.0879998207 22.542999268 0.0000000000 6.0000000000 3.0000000000 1.0000000000
 1578.7500000 5.2979998589 22.899999619 0.0000000000 6.0000000000 3.0000000000 1.0000000000
 1578.8750000 5.4299998283 23.120000839 0.0000000000 6.0000000000 3.0000000000 1.0000000000
 1579.0000000 5.3680000305 23.340000153 0.0000000000 6.0000000000 3.0000000000 1.0000000000
 1579.1250000 5.4010000229 23.559999466 0.0000000000 6.0000000000 3.0000000000 1.0000000000
 1579.2500000 5.7059998512 23.777999878 0.0000000000 6.0000000000 3.0000000000 1.0000000000
 1579.3750000 6.2800002098 23.989999771 0.0000000000 6.0000000000 3.0000000000 1.0000000000
 1579.5000000 5.7449998856 24.201000214 0.0000000000 6.0000000000 3.0000000000 1.0000000000
 1579.6250000 4.7760000229 24.520999908 0.0000000000 6.0000000000 3.0000000000 1.0000000000
 1579.7500000 4.4520001411 25.044000626 0.0000000000 6.0000000000 3.0000000000 1.0000000000
 1579.8750000 4.4520001411 25.566999435 0.0000000000 6.0000000000 3.0000000000 1.0000000000
 1580.0000000 4.4520001411 26.090000153 0.0000000000 6.0000000000 3.0000000000 1.0000000000
 1580.1250000 4.1890001297 26.547000885 0.0000000000 6.0000000000 3.0000000000 1.0000000000
 1580.2500000 3.6080000401 26.993999481 0.0000000000 6.0000000000 3.0000000000 1.0000000000
 1580.3750000 2.9500000477 27.441999435  -999.250000 0.1000000015 0.1000000015 0.0000000000
