# LAS format log file from PETREL
# Project units are specified as depth units
#==================================================================
~Version information
VERS.   2.0:
WRAP.   NO:
#==================================================================
~Well
STRT .m      1300.0000000 :
STOP .m      1750.0000000 :
STEP .m     0.12500000 :
NULL .        -999.250000 :
COMP.           : COMPANY
WELL.  5-176   : WELL
FLD.            : FIELD
LOC.            : LOCATION
SRVC.           : SERVICE COMPANY
DATE.  2020-03-08 09:25:10   : Log Export Date {yyyy-MM-dd HH:mm:ss}
PROV.           : PROVINCE
UWI.      : UNIQUE WELL ID
API.            : API NUMBER
#==================================================================
~Curve
DEPT .m                   : DEPTH
RT .ohm.m                 : RT
SP .                      : SP
Fluids .                  : Fluids
POR .m3/m3                : POR
PERM .mD                  : PERM
Lith .                    : Lith
~Parameter
#==================================================================
~Ascii
# ...
 1615.3750000 2.3870000839 28.823999405  -999.250000 0.1000000015 0.1000000015 0.0000000000
 1615.5000000 2.3459999561 28.822000504  -999.250000 0.1000000015 0.1000000015 0.0000000000
 1615.6250000 2.3289999962 28.820999146  -999.250000 0.1000000015 0.1000000015 0.0000000000
 1615.7500000 2.2950000763 28.819999695  -999.250000 0.1000000015 0.1000000015 0.0000000000
 1615.8750000 2.2479999065 28.820999146  -999.250000 0.1000000015 0.1000000015 0.0000000000
 1616.0000000 2.1940000057 28.822000504  -999.250000 0.1000000015 0.1000000015 0.0000000000
 1616.1250000 2.1800000668 28.822000504  -999.250000 0.1000000015 0.1000000015 0.0000000000
 1616.2500000 2.1730000973 28.822999954  -999.250000 0.1000000015 0.1000000015 0.0000000000
 1616.3750000 2.1440000534 28.823999405  -999.250000 0.1000000015 0.1000000015 0.0000000000
 1616.5000000 2.1289999485 28.825000763  -999.250000 0.1000000015 0.1000000015 0.0000000000
 1616.6250000 2.1229999065 28.826000214  -999.250000 0.1000000015 0.1000000015 0.0000000000
 1616.7500000 2.0929999352 28.805999756  -999.250000 0.1000000015 0.1000000015 0.0000000000
 1616.8750000 2.0789999962 28.787000656  -999.250000 0.1000000015 0.1000000015 0.0000000000
 1617.0000000 2.0729999542 28.767999649  -999.250000 0.1000000015 0.1000000015 0.0000000000
 1617.1250000 2.0710000992 28.749000549  -999.250000 0.1000000015 0.1000000015 0.0000000000
 1617.2500000 2.0690000057 28.729999542  -999.250000 0.1000000015 0.1000000015 0.0000000000
 1617.3750000 2.0690000057 28.728000641  -999.250000 0.1000000015 0.1000000015 0.0000000000
 1617.5000000 2.0309998989 28.725999832  -999.250000 0.1000000015 0.1000000015 0.0000000000
 1617.6250000 2.0209999084 28.725000381  -999.250000 0.1000000015 0.1000000015 0.0000000000
 1617.7500000 2.0190000534 28.722999573  -999.250000 0.1000000015 0.1000000015 0.0000000000
 1617.8750000 2.0190000534 28.724000931  -999.250000 0.1000000015 0.1000000015 0.0000000000
 1618.0000000 2.0190000534 28.724000931  -999.250000 0.1000000015 0.1000000015 0.0000000000
 1618.1250000 2.0680000782 28.725000381  -999.250000 0.1000000015 0.1000000015 0.0000000000
 1618.2500000 2.1280000210 28.725999832  -999.250000 0.1000000015 0.1000000015 0.0000000000
 1618.3750000 2.1740000248 28.725999832  -999.250000 0.1000000015 0.1000000015 0.0000000000
 1618.5000000 2.2269999981 28.726999283  -999.250000 0.1000000015 0.1000000015 0.0000000000
 1618.6250000 2.2479999065 28.728000641  -999.250000 0.1000000015 0.1000000015 0.0000000000
 1618.7500000 2.2679998875 28.729000092  -999.250000 0.1000000015 0.1000000015 0.0000000000
 1618.8750000 2.3059999943 28.729999542  -999.250000 0.1000000015 0.1000000015 0.0000000000
 1619.0000000 2.3150000572 28.731000900  -999.250000 0.1000000015 0.1000000015 0.0000000000
 1619.1250000 2.3529999256 28.732000351  -999.250000 0.1000000015 0.1000000015 0.0000000000
 1619.2500000 2.3629999161 28.747999191  -999.250000 0.1000000015 0.1000000015 0.0000000000
 1619.3750000 2.3989999294 28.763999939  -999.250000 0.1000000015 0.1000000015 0.0000000000
 1619.5000000 2.4379999638 28.780000687  -999.250000 0.1000000015 0.1000000015 0.0000000000
 1619.6250000 2.4570000172 28.795999527  -999.250000 0.1000000015 0.1000000015 0.0000000000
 1619.7500000 2.4900000095 28.812000275  -999.250000 0.1000000015 0.1000000015 0.0000000000
 1619.8750000 2.5220000744 28.826999664  -999.250000 0.1000000015 0.1000000015 0.0000000000
 1620.0000000 2.5420000553 28.843000412  -999.250000 0.1000000015 0.1000000015 0.0000000000
 1620.1250000 2.5620000362 28.847000122  -999.250000 0.1000000015 0.1000000015 0.0000000000
 1620.2500000 2.5680000782 28.850000381  -999.250000 0.1000000015 0.1000000015 0.0000000000
 1620.3750000 2.5460000038 28.853000641  -999.250000 0.1000000015 0.1000000015 0.0000000000
 1620.5000000 2.5250000954 28.857000351  -999.250000 0.1000000015 0.1000000015 0.0000000000
 1620.6250000 2.5239999294 28.878000259  -999.250000 0.1000000015 0.1000000015 0.0000000000
 1620.7500000 2.5230000019 28.899999619  -999.250000 0.1000000015 0.1000000015 0.0000000000
 1620.8750000 2.5230000019 28.922000885  -999.250000 0.1000000015 0.1000000015 0.0000000000
 1621.0000000 2.5230000019 28.943000793  -999.250000 0.1000000015 0.1000000015 0.0000000000
 1621.1250000 2.5230000019 28.965000153  -999.250000 0.1000000015 0.1000000015 0.0000000000
 1621.2500000 2.4749999046 28.988000870  -999.250000 0.1000000015 0.1000000015 0.0000000000
 1621.3750000 2.4349999428 29.011999130  -999.250000 0.1000000015 0.1000000015 0.0000000000
 1621.5000000 2.4240000248 29.034999847  -999.250000 0.1000000015 0.1000000015 0.0000000000
 1621.6250000 2.4219999313 29.058000565  -999.250000 0.1000000015 0.1000000015 0.0000000000
 1621.7500000 2.3929998875 29.082000732  -999.250000 0.1000000015 0.1000000015 0.0000000000
 1621.8750000 2.3469998837 29.121999741  -999.250000 0.1000000015 0.1000000015 0.0000000000
 1622.0000000 2.2929999828 29.162000656  -999.250000 0.1000000015 0.1000000015 0.0000000000
 1622.1250000 2.2799999714 29.202999115  -999.250000 0.1000000015 0.1000000015 0.0000000000
 1622.2500000 2.2420001030 29.243000031  -999.250000 0.1000000015 0.1000000015 0.0000000000
 1622.3750000 2.2030000687 29.283000946  -999.250000 0.1000000015 0.1000000015 0.0000000000
 1622.5000000 2.1830000877 29.323999405  -999.250000 0.1000000015 0.1000000015 0.0000000000
 1622.6250000 2.1749999523 29.347999573  -999.250000 0.1000000015 0.1000000015 0.0000000000
 1622.7500000 2.1349999905 29.371999741  -999.250000 0.1000000015 0.1000000015 0.0000000000
 1622.8750000 2.1280000210 29.395999908  -999.250000 0.1000000015 0.1000000015 0.0000000000
 1623.0000000 2.1210000515 29.420000076  -999.250000 0.1000000015 0.1000000015 0.0000000000
 1623.1250000 2.1019999981 29.444999695  -999.250000 0.1000000015 0.1000000015 0.0000000000
 1623.2500000 2.0820000172 29.447000504  -999.250000 0.1000000015 0.1000000015 0.0000000000
 1623.3750000 2.0780000687 29.448999405  -999.250000 0.1000000015 0.1000000015 0.0000000000
 1623.5000000 2.0739998817 29.451000214  -999.250000 0.1000000015 0.1000000015 0.0000000000
 1623.6250000 2.0720000267 29.452999115  -999.250000 0.1000000015 0.1000000015 0.0000000000
 1623.7500000 2.0720000267 29.454999924  -999.250000 0.1000000015 0.1000000015 0.0000000000
 1623.8750000 2.0710000992 29.457000732  -999.250000 0.1000000015 0.1000000015 0.0000000000
 1624.0000000 2.0710000992 29.458000183  -999.250000 0.1000000015 0.1000000015 0.0000000000
 1624.1250000 2.0899999142 29.459999084  -999.250000 0.1000000015 0.1000000015 0.0000000000
 1624.2500000 2.1089999676 29.461000443  -999.250000 0.1000000015 0.1000000015 0.0000000000
 1624.3750000 2.1159999371 29.461999893  -999.250000 0.1000000015 0.1000000015 0.0000000000
 1624.5000000 2.1170001030 29.462999344  -999.250000 0.1000000015 0.1000000015 0.0000000000
 1624.6250000 2.1189999580 29.464000702  -999.250000 0.1000000015 0.1000000015 0.0000000000
 1624.7500000 2.1210000515 29.465000153  -999.250000 0.1000000015 0.1000000015 0.0000000000
 1624.8750000 2.1500000954 29.465999603  -999.250000 0.1000000015 0.1000000015 0.0000000000
 1625.0000000 2.1610000134 29.466999054  -999.250000 0.1000000015 0.1000000015 0.0000000000
 1625.1250000 2.1719999313 29.468000412  -999.250000 0.1000000015 0.1000000015 0.0000000000
 1625.2500000 2.2109999657 29.468999863  -999.250000 0.1000000015 0.1000000015 0.0000000000
 1625.3750000 2.2209999561 29.469999313  -999.250000 0.1000000015 0.1000000015 0.0000000000
 1625.5000000 2.2579998970 29.471000671  -999.250000 0.1000000015 0.1000000015 0.0000000000
 1625.6250000 2.3099999428 29.472000122  -999.250000 0.1000000015 0.1000000015 0.0000000000
 1625.7500000 2.3190000057 29.472999573  -999.250000 0.1000000015 0.1000000015 0.0000000000
 1625.8750000 2.3220000267 29.474000931  -999.250000 0.1000000015 0.1000000015 0.0000000000
 1626.0000000 2.3529999256 29.475000381  -999.250000 0.1000000015 0.1000000015 0.0000000000
 1626.1250000 2.3670001030 29.475999832  -999.250000 0.1000000015 0.1000000015 0.0000000000
