# LAS format log file from PETREL
# Project units are specified as depth units
#==================================================================
~Version information
VERS.   2.0:
WRAP.   NO:
#==================================================================
~Well
STRT .m      1350.0000000 :
STOP .m      1720.0000000 :
STEP .m     0.12500000 :
NULL .        -999.250000 :
COMP.           : COMPANY
WELL.  5-172C   : WELL
FLD.            : FIELD
LOC.            : LOCATION
SRVC.           : SERVICE COMPANY
DATE.  2020-03-08 09:25:10   : Log Export Date {yyyy-MM-dd HH:mm:ss}
PROV.           : PROVINCE
UWI.      : UNIQUE WELL ID
API.            : API NUMBER
#==================================================================
~Curve
DEPT .m                   : DEPTH
RT .ohm.m                 : RT
SP .                      : SP
Fluids .                  : Fluids
POR .m3/m3                : POR
PERM .mD                  : PERM
Lith .                    : Lith
~Parameter
#==================================================================
~Ascii
# ...
 1404.3750000 35.533000946 12.319999695  -999.250000 0.1000000015 0.1000000015 0.0000000000
 1404.5000000 33.034000397 12.800000191  -999.250000 0.1000000015 0.1000000015 0.0000000000
 1404.6250000 31.572999954 12.960000038  -999.250000 0.1000000015 0.1000000015 0.0000000000
 1404.7500000 23.829999924 12.982999802  -999.250000 0.1000000015 0.1000000015 0.0000000000
 1404.8750000 22.354999542 13.085000038  -999.250000 0.1000000015 0.1000000015 0.0000000000
 1405.0000000 21.403999329 13.105999947  -999.250000 0.1000000015 0.1000000015 0.0000000000
 1405.1250000 18.972999573 13.199999809  -999.250000 0.1000000015 0.1000000015 0.0000000000
 1405.2500000 13.246000290 13.220999718  -999.250000 0.1000000015 0.1000000015 0.0000000000
 1405.3750000 10.255000114 13.314000130  -999.250000 0.1000000015 0.1000000015 0.0000000000
 1405.5000000 9.0830001831 13.335000038  -999.250000 0.1000000015 0.1000000015 0.0000000000
 1405.6250000 8.2279996872 13.336000443  -999.250000 0.1000000015 0.1000000015 0.0000000000
 1405.7500000 7.5830001831 13.225999832  -999.250000 0.1000000015 0.1000000015 0.0000000000
 1405.8750000 6.9569997787 13.222999573  -999.250000 0.1000000015 0.1000000015 0.0000000000
 1406.0000000 6.0370001793 13.222999573  -999.250000 0.1000000015 0.1000000015 0.0000000000
 1406.1250000 5.4229998589 13.314000130  -999.250000 0.1000000015 0.1000000015 0.0000000000
 1406.2500000 5.0170001984 13.227999687  -999.250000 0.1000000015 0.1000000015 0.0000000000
 1406.3750000 4.7160000801 13.156999588  -999.250000 0.1000000015 0.1000000015 0.0000000000
 1406.5000000 4.4949998856 13.133000374  -999.250000 0.1000000015 0.1000000015 0.0000000000
 1406.6250000 4.2969999313 13.119999886  -999.250000 0.1000000015 0.1000000015 0.0000000000
 1406.7500000 4.1090002060 13.116000175  -999.250000 0.1000000015 0.1000000015 0.0000000000
 1406.8750000 3.8919999599 13.180999756  -999.250000 0.1000000015 0.1000000015 0.0000000000
 1407.0000000 3.7090001106 13.288999557  -999.250000 0.1000000015 0.1000000015 0.0000000000
 1407.1250000 3.4949998856 13.418000221  -999.250000 0.1000000015 0.1000000015 0.0000000000
 1407.2500000 3.2960000038 13.519000053  -999.250000 0.1000000015 0.1000000015 0.0000000000
 1407.3750000 3.1819999218 13.645000458  -999.250000 0.1000000015 0.1000000015 0.0000000000
 1407.5000000 3.0280001163 13.678999901  -999.250000 0.1000000015 0.1000000015 0.0000000000
 1407.6250000 2.8540000916 13.769000053  -999.250000 0.1000000015 0.1000000015 0.0000000000
 1407.7500000 2.7179999352 13.793999672  -999.250000 0.1000000015 0.1000000015 0.0000000000
 1407.8750000 2.6240000725 13.795999527  -999.250000 0.1000000015 0.1000000015 0.0000000000
 1408.0000000 2.5130000114 13.796999931  -999.250000 0.1000000015 0.1000000015 0.0000000000
 1408.1250000 2.3940000534 13.796999931  -999.250000 0.1000000015 0.1000000015 0.0000000000
 1408.2500000 2.3380000591 13.796999931  -999.250000 0.1000000015 0.1000000015 0.0000000000
 1408.3750000 2.2400000095 13.798000336  -999.250000 0.1000000015 0.1000000015 0.0000000000
 1408.5000000 2.1689999104 13.798000336  -999.250000 0.1000000015 0.1000000015 0.0000000000
 1408.6250000 2.0869998932 13.798000336  -999.250000 0.1000000015 0.1000000015 0.0000000000
 1408.7500000 2.0190000534 13.697999954  -999.250000 0.1000000015 0.1000000015 0.0000000000
 1408.8750000 1.9379999638 13.690999985  -999.250000 0.1000000015 0.1000000015 0.0000000000
 1409.0000000 1.8710000515 13.687999725  -999.250000 0.1000000015 0.1000000015 0.0000000000
 1409.1250000 1.7890000343 13.687000275  -999.250000 0.1000000015 0.1000000015 0.0000000000
 1409.2500000 1.7220000029 13.687000275  -999.250000 0.1000000015 0.1000000015 0.0000000000
 1409.3750000 1.6720000505 13.602999687  -999.250000 0.1000000015 0.1000000015 0.0000000000
 1409.5000000 1.6210000515 13.576999664  -999.250000 0.1000000015 0.1000000015 0.0000000000
 1409.6250000 1.5789999962 13.491000175  -999.250000 0.1000000015 0.1000000015 0.0000000000
 1409.7500000 1.5679999590 13.465000153  -999.250000 0.1000000015 0.1000000015 0.0000000000
 1409.8750000 1.5440000296 13.397999763  -999.250000 0.1000000015 0.1000000015 0.0000000000
 1410.0000000 1.5199999809 13.293999672  -999.250000 0.1000000015 0.1000000015 0.0000000000
 1410.1250000 1.5180000067 13.168000221  -999.250000 0.1000000015 0.1000000015 0.0000000000
 1410.2500000 1.5169999599 13.029000282  -999.250000 0.1000000015 0.1000000015 0.0000000000
 1410.3750000 1.5180000067 12.890000343  -999.250000 0.1000000015 0.1000000015 0.0000000000
 1410.5000000 1.4730000496 12.701999664  -999.250000 0.1000000015 0.1000000015 0.0000000000
 1410.6250000 1.5069999695 12.513999939  -999.250000 0.1000000015 0.1000000015 0.0000000000
 1410.7500000 1.5140000582 12.364000320  -999.250000 0.1000000015 0.1000000015 0.0000000000
 1410.8750000 1.5169999599 12.281000137  -999.250000 0.1000000015 0.1000000015 0.0000000000
 1411.0000000 1.5620000362 12.310000420  -999.250000 0.1000000015 0.1000000015 0.0000000000
 1411.1250000 1.5670000315 12.319999695  -999.250000 0.1000000015 0.1000000015 0.0000000000
 1411.2500000 1.6119999886 12.395999908  -999.250000 0.1000000015 0.1000000015 0.0000000000
 1411.3750000 1.6150000095 12.428999901  -999.250000 0.1000000015 0.1000000015 0.0000000000
 1411.5000000 1.6169999838 12.439999580  -999.250000 0.1000000015 0.1000000015 0.0000000000
 1411.6250000 1.6180000305 12.522000313  -999.250000 0.1000000015 0.1000000015 0.0000000000
 1411.7500000 1.6189999580 12.644000053  -999.250000 0.1000000015 0.1000000015 0.0000000000
 1411.8750000 1.6189999580 12.670000076  -999.250000 0.1000000015 0.1000000015 0.0000000000
 1412.0000000 1.6189999580 12.782999992  -999.250000 0.1000000015 0.1000000015 0.0000000000
 1412.1250000 1.5909999609 12.895000458  -999.250000 0.1000000015 0.1000000015 0.0000000000
 1412.2500000 1.5820000172 12.897999763  -999.250000 0.1000000015 0.1000000015 0.0000000000
 1412.3750000 1.5729999542 12.899000168  -999.250000 0.1000000015 0.1000000015 0.0000000000
 1412.5000000 1.5700000525 12.899999619  -999.250000 0.1000000015 0.1000000015 0.0000000000
 1412.6250000 1.5700000525 12.979000092  -999.250000 0.1000000015 0.1000000015 0.0000000000
 1412.7500000 1.5700000525 13.006999969  -999.250000 0.1000000015 0.1000000015 0.0000000000
 1412.8750000 1.5700000525 13.168000221  -999.250000 0.1000000015 0.1000000015 0.0000000000
 1413.0000000 1.5709999800 13.204000473  -999.250000 0.1000000015 0.1000000015 0.0000000000
 1413.1250000 1.5709999800 13.239999771  -999.250000 0.1000000015 0.1000000015 0.0000000000
 1413.2500000 1.5709999800 13.288000107  -999.250000 0.1000000015 0.1000000015 0.0000000000
 1413.3750000 1.5709999800 13.335000038  -999.250000 0.1000000015 0.1000000015 0.0000000000
 1413.5000000 1.5709999800 13.352999687  -999.250000 0.1000000015 0.1000000015 0.0000000000
 1413.6250000 1.5709999800 13.355999947  -999.250000 0.1000000015 0.1000000015 0.0000000000
 1413.7500000 1.5540000200 13.357000351  -999.250000 0.1000000015 0.1000000015 0.0000000000
 1413.8750000 1.5360000134 13.357999802  -999.250000 0.1000000015 0.1000000015 0.0000000000
 1414.0000000 1.5319999456 13.425999641  -999.250000 0.1000000015 0.1000000015 0.0000000000
 1414.1250000 1.5269999504 13.446999550  -999.250000 0.1000000015 0.1000000015 0.0000000000
 1414.2500000 1.5230000019 13.467000008  -999.250000 0.1000000015 0.1000000015 0.0000000000
 1414.3750000 1.5230000019 13.470999718  -999.250000 0.1000000015 0.1000000015 0.0000000000
 1414.5000000 1.5230000019 13.472999573  -999.250000 0.1000000015 0.1000000015 0.0000000000
 1414.6250000 1.5230000019 13.399000168  -999.250000 0.1000000015 0.1000000015 0.0000000000
 1414.7500000 1.5230000019 13.369999886  -999.250000 0.1000000015 0.1000000015 0.0000000000
 1414.8750000 1.5230000019 13.366000175  -999.250000 0.1000000015 0.1000000015 0.0000000000
 1415.0000000 1.5230000019 13.364000320  -999.250000 0.1000000015 0.1000000015 0.0000000000
 1415.1250000 1.5230000019 13.362000465  -999.250000 0.1000000015 0.1000000015 0.0000000000
