# LAS format log file from PETREL
# Project units are specified as depth units
#==================================================================
~Version information
VERS.   2.0:
WRAP.   NO:
#==================================================================
~Well
STRT .m      1450.0000000 :
STOP .m      1720.0000000 :
STEP .m     0.12500000 :
NULL .        -999.250000 :
COMP.           : COMPANY
WELL.  5-17C   : WELL
FLD.            : FIELD
LOC.            : LOCATION
SRVC.           : SERVICE COMPANY
DATE.  2020-03-08 09:25:10   : Log Export Date {yyyy-MM-dd HH:mm:ss}
PROV.           : PROVINCE
UWI.      : UNIQUE WELL ID
API.            : API NUMBER
#==================================================================
~Curve
DEPT .m                   : DEPTH
RT .ohm.m                 : RT
SP .                      : SP
Fluids .                  : Fluids
POR .m3/m3                : POR
PERM .mD                  : PERM
Lith .                    : Lith
~Parameter
#==================================================================
~Ascii
# ...
 1678.3750000 6.5240001678 13.251999855  -999.250000 0.1000000015 0.1000000015 0.0000000000
 1678.5000000 6.6079998016 13.232999802  -999.250000 0.1000000015 0.1000000015 0.0000000000
 1678.6250000 6.7969999313 13.222999573 4.0000000000 17.000000000 455.00000000 1.0000000000
 1678.7500000 6.9730000496 13.270000458 4.0000000000 17.000000000 455.00000000 1.0000000000
 1678.8750000 7.1810002327 13.317999840 4.0000000000 17.000000000 455.00000000 1.0000000000
 1679.0000000 7.5029997826 13.434000015 4.0000000000 17.000000000 455.00000000 1.0000000000
 1679.1250000 7.9140000343 13.869999886 4.0000000000 17.000000000 455.00000000 1.0000000000
 1679.2500000 8.3380002975 14.244000435 4.0000000000 17.000000000 455.00000000 1.0000000000
 1679.3750000 8.6250000000 14.616999626 4.0000000000 17.000000000 455.00000000 1.0000000000
 1679.5000000 8.9119997025 14.993000031 4.0000000000 17.000000000 455.00000000 1.0000000000
 1679.6250000 9.1339998245 15.369999886 4.0000000000 17.000000000 455.00000000 1.0000000000
 1679.7500000 9.3549995422 15.670000076 4.0000000000 17.000000000 455.00000000 1.0000000000
 1679.8750000 9.5139999390 15.968999863 4.0000000000 17.000000000 455.00000000 1.0000000000
 1680.0000000 9.6149997711 16.333999634 4.0000000000 17.000000000 455.00000000 1.0000000000
 1680.1250000 9.6929998398 16.510000229  -999.250000 0.1000000015 0.1000000015 0.0000000000
 1680.2500000 9.7229995728 16.826000214  -999.250000 0.1000000015 0.1000000015 0.0000000000
 1680.3750000 9.7519998550 17.156999588  -999.250000 0.1000000015 0.1000000015 0.0000000000
 1680.5000000 9.7069997787 17.514999390  -999.250000 0.1000000015 0.1000000015 0.0000000000
 1680.6250000 9.7500000000 17.806999207  -999.250000 0.1000000015 0.1000000015 0.0000000000
 1680.7500000 9.7930002213 18.003999710  -999.250000 0.1000000015 0.1000000015 0.0000000000
 1680.8750000 9.8450002670 18.298000336  -999.250000 0.1000000015 0.1000000015 0.0000000000
 1681.0000000 9.9469995499 18.568000793  -999.250000 0.1000000015 0.1000000015 0.0000000000
 1681.1250000 10.164999962 18.704999924  -999.250000 0.1000000015 0.1000000015 0.0000000000
 1681.2500000 10.579000473 18.899999619  -999.250000 0.1000000015 0.1000000015 0.0000000000
 1681.3750000 11.090000153 18.988000870 3.0000000000 15.000000000 417.00000000 1.0000000000
 1681.5000000 11.704999924 19.097999573 3.0000000000 15.000000000 417.00000000 1.0000000000
 1681.6250000 12.244999886 19.297000885 3.0000000000 15.000000000 417.00000000 1.0000000000
 1681.7500000 12.687000275 19.472000122 3.0000000000 15.000000000 417.00000000 1.0000000000
 1681.8750000 12.885000229 19.587999344 3.0000000000 15.000000000 417.00000000 1.0000000000
 1682.0000000 13.064999580 19.704999924 3.0000000000 15.000000000 417.00000000 1.0000000000
 1682.1250000 13.206999779 19.805000305 3.0000000000 15.000000000 417.00000000 1.0000000000
 1682.2500000 13.302000046 19.906000137 3.0000000000 15.000000000 417.00000000 1.0000000000
 1682.3750000 13.404999733 20.024999619 3.0000000000 15.000000000 417.00000000 1.0000000000
 1682.5000000 13.569000244 20.149000168 3.0000000000 15.000000000 417.00000000 1.0000000000
 1682.6250000 13.795000076 20.200000763 3.0000000000 15.000000000 417.00000000 1.0000000000
 1682.7500000 14.081000328 20.252000809 3.0000000000 15.000000000 417.00000000 1.0000000000
 1682.8750000 16.724000931 20.358999252 3.0000000000 15.000000000 417.00000000 1.0000000000
 1683.0000000 18.406000137 20.481000900 3.0000000000 15.000000000 417.00000000 1.0000000000
 1683.1250000 21.166999817 20.531999588 3.0000000000 15.000000000 417.00000000 1.0000000000
 1683.2500000 22.462999344 20.583000183 3.0000000000 15.000000000 417.00000000 1.0000000000
 1683.3750000 23.759000778 20.593999863 3.0000000000 15.000000000 417.00000000 1.0000000000
 1683.5000000 24.320999146 20.486000061 3.0000000000 15.000000000 417.00000000 1.0000000000
 1683.6250000 24.736000061 20.479999542 3.0000000000 15.000000000 417.00000000 1.0000000000
 1683.7500000 25.073999405 20.476999283 3.0000000000 15.000000000 417.00000000 1.0000000000
 1683.8750000 25.457000732 20.573999405 3.0000000000 15.000000000 417.00000000 1.0000000000
 1684.0000000 25.649999619 20.658000946 3.0000000000 15.000000000 417.00000000 1.0000000000
 1684.1250000 25.843000412 20.804000854 3.0000000000 15.000000000 417.00000000 1.0000000000
 1684.2500000 25.732999802 21.070999146 3.0000000000 15.000000000 417.00000000 1.0000000000
 1684.3750000 25.506999969 21.399999619 3.0000000000 15.000000000 417.00000000 1.0000000000
 1684.5000000 25.325000763 21.617000580 3.0000000000 15.000000000 417.00000000 1.0000000000
 1684.6250000 25.143999100 21.850999832 3.0000000000 15.000000000 417.00000000 1.0000000000
 1684.7500000 24.916999817 22.159999847 3.0000000000 15.000000000 417.00000000 1.0000000000
 1684.8750000 24.687000275 22.430999756 3.0000000000 15.000000000 417.00000000 1.0000000000
 1685.0000000 24.489000320 22.702999115 3.0000000000 15.000000000 417.00000000 1.0000000000
 1685.1250000 24.236999512 23.052999496 3.0000000000 15.000000000 417.00000000 1.0000000000
 1685.2500000 24.226999283 23.402999878 3.0000000000 15.000000000 417.00000000 1.0000000000
 1685.3750000 24.679000854 23.773000717 3.0000000000 15.000000000 417.00000000 1.0000000000
 1685.5000000 25.350000381 24.252000809 3.0000000000 15.000000000 417.00000000 1.0000000000
 1685.6250000 26.121000290 24.656999588 3.0000000000 15.000000000 417.00000000 1.0000000000
 1685.7500000 27.416999817 25.061000824 3.0000000000 15.000000000 417.00000000 1.0000000000
 1685.8750000 28.028999329 25.537000656 3.0000000000 15.000000000 417.00000000 1.0000000000
 1686.0000000 27.993000031 25.933000565 3.0000000000 15.000000000 417.00000000 1.0000000000
 1686.1250000 27.739999771 26.533000946 3.0000000000 15.000000000 417.00000000 1.0000000000
 1686.2500000 27.400999069 27.156999588 3.0000000000 15.000000000 417.00000000 1.0000000000
 1686.3750000 14.105999947 27.704999924 3.0000000000 15.000000000 417.00000000 1.0000000000
 1686.5000000 8.5659999847 28.252000809 3.0000000000 15.000000000 417.00000000 1.0000000000
 1686.6250000 7.0029997826 28.549999237 3.0000000000 15.000000000 417.00000000 1.0000000000
 1686.7500000 6.1989998817 28.704000473 3.0000000000 15.000000000 417.00000000 1.0000000000
 1686.8750000 5.7179999352 28.857999802 3.0000000000 15.000000000 417.00000000 1.0000000000
 1687.0000000 5.4270000458 28.989999771 3.0000000000 15.000000000 417.00000000 1.0000000000
 1687.1250000 5.1820001602 29.079000473 3.0000000000 15.000000000 417.00000000 1.0000000000
 1687.2500000 4.9460000992 29.190999985 3.0000000000 15.000000000 417.00000000 1.0000000000
 1687.3750000 4.7100000381 29.312000275 3.0000000000 15.000000000 417.00000000 1.0000000000
 1687.5000000 4.4790000916 29.533000946 3.0000000000 15.000000000 417.00000000 1.0000000000
 1687.6250000 4.1640000343 29.631000519 3.0000000000 15.000000000 417.00000000 1.0000000000
 1687.7500000 3.9549999237 29.746999741 3.0000000000 15.000000000 417.00000000 1.0000000000
 1687.8750000 3.6960000992 29.836999893 3.0000000000 15.000000000 417.00000000 1.0000000000
 1688.0000000 3.4969999790 29.945999146 3.0000000000 15.000000000 417.00000000 1.0000000000
 1688.1250000 3.3190000057 29.989000320 3.0000000000 15.000000000 417.00000000 1.0000000000
 1688.2500000 3.1960000992 29.999000549 3.0000000000 15.000000000 417.00000000 1.0000000000
 1688.3750000 3.2690000534 30.002000809 3.0000000000 15.000000000 417.00000000 1.0000000000
 1688.5000000 3.3289999962 30.003999710 3.0000000000 15.000000000 417.00000000 1.0000000000
 1688.6250000 3.4010000229 29.891000748 3.0000000000 15.000000000 417.00000000 1.0000000000
 1688.7500000 3.4279999733 29.697000504 3.0000000000 15.000000000 417.00000000 1.0000000000
 1688.8750000 3.5109999180 29.461000443 3.0000000000 15.000000000 417.00000000 1.0000000000
 1689.0000000 3.6140000820 29.225000381  -999.250000  -999.250000  -999.250000  -999.250000
 1689.1250000 3.6930000782 29.090000153  -999.250000  -999.250000  -999.250000  -999.250000
