# LAS format log file from PETREL
# Project units are specified as depth units
#==================================================================
~Version information
VERS.   2.0:
WRAP.   NO:
#==================================================================
~Well
STRT .m      1385.0000000 :
STOP .m      1720.0000000 :
STEP .m     0.12500000 :
NULL .        -999.250000 :
COMP.           : COMPANY
WELL.  5-17C2   : WELL
FLD.            : FIELD
LOC.            : LOCATION
SRVC.           : SERVICE COMPANY
DATE.  2020-03-08 09:25:10   : Log Export Date {yyyy-MM-dd HH:mm:ss}
PROV.           : PROVINCE
UWI.      : UNIQUE WELL ID
API.            : API NUMBER
#==================================================================
~Curve
DEPT .m                   : DEPTH
RT .ohm.m                 : RT
SP .                      : SP
Fluids .                  : Fluids
POR .m3/m3                : POR
PERM .mD                  : PERM
Lith .                    : Lith
~Parameter
#==================================================================
~Ascii
# ...
 1700.3750000 2.8059999943 66.221000671  -999.250000 0.1000000015 0.1000000015 0.0000000000
 1700.5000000 2.7500000000 66.211997986  -999.250000 0.1000000015 0.1000000015 0.0000000000
 1700.6250000 2.7049999237 66.205001831  -999.250000 0.1000000015 0.1000000015 0.0000000000
 1700.7500000 2.6840000153 66.197998047  -999.250000 0.1000000015 0.1000000015 0.0000000000
 1700.8750000 2.6519999504 66.189002991  -999.250000 0.1000000015 0.1000000015 0.0000000000
 1701.0000000 2.5889999866 66.180000305  -999.250000 0.1000000015 0.1000000015 0.0000000000
 1701.1250000 2.5009999275 66.171997070  -999.250000 0.1000000015 0.1000000015 0.0000000000
 1701.2500000 2.4040000439 66.152000427  -999.250000 0.1000000015 0.1000000015 0.0000000000
 1701.3750000 2.3229999542 66.132003784  -999.250000 0.1000000015 0.1000000015 0.0000000000
 1701.5000000 2.2679998875 66.099998474  -999.250000 0.1000000015 0.1000000015 0.0000000000
 1701.6250000 2.2170000076 66.064002991  -999.250000 0.1000000015 0.1000000015 0.0000000000
 1701.7500000 2.1710000038 66.022003174  -999.250000 0.1000000015 0.1000000015 0.0000000000
 1701.8750000 2.1630001068 65.972000122  -999.250000 0.1000000015 0.1000000015 0.0000000000
 1702.0000000 2.1860001087 65.931999207  -999.250000 0.1000000015 0.1000000015 0.0000000000
 1702.1250000 2.2079999447 65.900001526  -999.250000 0.1000000015 0.1000000015 0.0000000000
 1702.2500000 2.2030000687 65.892997742  -999.250000 0.1000000015 0.1000000015 0.0000000000
 1702.3750000 2.1800000668 65.886001587  -999.250000 0.1000000015 0.1000000015 0.0000000000
 1702.5000000 2.1370000839 65.884002686  -999.250000 0.1000000015 0.1000000015 0.0000000000
 1702.6250000 2.0569999218 65.875000000  -999.250000 0.1000000015 0.1000000015 0.0000000000
 1702.7500000 1.9459999800 65.861000061  -999.250000 0.1000000015 0.1000000015 0.0000000000
 1702.8750000 1.8250000477 65.856002808  -999.250000 0.1000000015 0.1000000015 0.0000000000
 1703.0000000 1.7180000544 65.853996277  -999.250000 0.1000000015 0.1000000015 0.0000000000
 1703.1250000 1.6469999552 65.864997864  -999.250000 0.1000000015 0.1000000015 0.0000000000
 1703.2500000 1.6629999876 65.884002686  -999.250000 0.1000000015 0.1000000015 0.0000000000
 1703.3750000 1.7740000486 65.903999329  -999.250000 0.1000000015 0.1000000015 0.0000000000
 1703.5000000 1.9620000124 65.921997070  -999.250000 0.1000000015 0.1000000015 0.0000000000
 1703.6250000 2.2100000381 65.932998657  -999.250000 0.1000000015 0.1000000015 0.0000000000
 1703.7500000 2.5030000210 65.945999146  -999.250000 0.1000000015 0.1000000015 0.0000000000
 1703.8750000 2.8190000057 65.970001221  -999.250000 0.1000000015 0.1000000015 0.0000000000
 1704.0000000 3.1559998989 66.011001587  -999.250000 0.1000000015 0.1000000015 0.0000000000
 1704.1250000 3.4560000896 66.063003540  -999.250000 0.1000000015 0.1000000015 0.0000000000
 1704.2500000 3.6559998989 66.113998413  -999.250000 0.1000000015 0.1000000015 0.0000000000
 1704.3750000 3.7820000648 66.150001526  -999.250000 0.1000000015 0.1000000015 0.0000000000
 1704.5000000 3.9430000782 66.190002441  -999.250000 0.1000000015 0.1000000015 0.0000000000
 1704.6250000 4.2399997711 66.234001160  -999.250000 0.1000000015 0.1000000015 0.0000000000
 1704.7500000 4.7199997902 66.280998230  -999.250000 0.1000000015 0.1000000015 0.0000000000
 1704.8750000 5.3220000267 66.325996399  -999.250000 0.1000000015 0.1000000015 0.0000000000
 1705.0000000 5.9000000954 66.363998413  -999.250000 0.1000000015 0.1000000015 0.0000000000
 1705.1250000 6.2859997749 66.400001526  -999.250000 0.1000000015 0.1000000015 0.0000000000
 1705.2500000 6.3239998817 66.428001404  -999.250000 0.1000000015 0.1000000015 0.0000000000
 1705.3750000 5.9229998589 66.469001770  -999.250000 0.1000000015 0.1000000015 0.0000000000
 1705.5000000 5.1259999275 66.521003723  -999.250000 0.1000000015 0.1000000015 0.0000000000
 1705.6250000 4.1399998665 66.563003540  -999.250000 0.1000000015 0.1000000015 0.0000000000
 1705.7500000 3.2469999790 66.603996277  -999.250000 0.1000000015 0.1000000015 0.0000000000
 1705.8750000 2.6879999638 66.638999939  -999.250000 0.1000000015 0.1000000015 0.0000000000
 1706.0000000 2.5399999619 66.664001465  -999.250000 0.1000000015 0.1000000015 0.0000000000
 1706.1250000 2.6530001163 66.679000854  -999.250000 0.1000000015 0.1000000015 0.0000000000
 1706.2500000 2.7720000744 66.684997559  -999.250000 0.1000000015 0.1000000015 0.0000000000
 1706.3750000 2.6900000572 66.690002441  -999.250000 0.1000000015 0.1000000015 0.0000000000
 1706.5000000 2.3610000610 66.693000793  -999.250000 0.1000000015 0.1000000015 0.0000000000
 1706.6250000 1.9060000181 66.700996399  -999.250000 0.1000000015 0.1000000015 0.0000000000
 1706.7500000 1.5010000467 66.709999084  -999.250000 0.1000000015 0.1000000015 0.0000000000
 1706.8750000 1.2300000191 66.719001770  -999.250000 0.1000000015 0.1000000015 0.0000000000
 1707.0000000 1.0829999447 66.730003357  -999.250000 0.1000000015 0.1000000015 0.0000000000
 1707.1250000 1.0160000324 66.748001099  -999.250000 0.1000000015 0.1000000015 0.0000000000
 1707.2500000 0.9879999757 66.769996643  -999.250000 0.1000000015 0.1000000015 0.0000000000
 1707.3750000 0.9890000224 66.777999878  -999.250000 0.1000000015 0.1000000015 0.0000000000
 1707.5000000 1.0319999456 66.775001526  -999.250000 0.1000000015 0.1000000015 0.0000000000
 1707.6250000 1.1200000048 66.769996643  -999.250000 0.1000000015 0.1000000015 0.0000000000
 1707.7500000 1.2569999695 66.775001526  -999.250000 0.1000000015 0.1000000015 0.0000000000
 1707.8750000 1.4409999847 66.783996582  -999.250000 0.1000000015 0.1000000015 0.0000000000
 1708.0000000 1.6599999666 66.788002014  -999.250000 0.1000000015 0.1000000015 0.0000000000
 1708.1250000 1.8810000420 66.779998779  -999.250000 0.1000000015 0.1000000015 0.0000000000
 1708.2500000 2.0810000896 66.778999329  -999.250000 0.1000000015 0.1000000015 0.0000000000
 1708.3750000 2.2530000210 66.788002014  -999.250000 0.1000000015 0.1000000015 0.0000000000
 1708.5000000 2.4079999924 66.800003052  -999.250000 0.1000000015 0.1000000015 0.0000000000
 1708.6250000 2.5510001183 66.806999207  -999.250000 0.1000000015 0.1000000015 0.0000000000
 1708.7500000 2.6770000458 66.808998108  -999.250000 0.1000000015 0.1000000015 0.0000000000
 1708.8750000 2.8020000458 66.819999695  -999.250000 0.1000000015 0.1000000015 0.0000000000
 1709.0000000 2.8900001049 66.830001831  -999.250000 0.1000000015 0.1000000015 0.0000000000
 1709.1250000 2.8699998856 66.834999084  -999.250000 0.1000000015 0.1000000015 0.0000000000
 1709.2500000 2.7039999962 66.833000183  -999.250000 0.1000000015 0.1000000015 0.0000000000
 1709.3750000 2.4500000477 66.837997437 0.0000000000 6.0000000000 2.0000000000 1.0000000000
 1709.5000000 2.2290000916 66.852996826 0.0000000000 6.0000000000 2.0000000000 1.0000000000
 1709.6250000 2.1070001125 66.876998901 0.0000000000 6.0000000000 2.0000000000 1.0000000000
 1709.7500000 2.1119999886 66.896003723 0.0000000000 6.0000000000 2.0000000000 1.0000000000
 1709.8750000 2.2730000019 66.908996582 0.0000000000 6.0000000000 2.0000000000 1.0000000000
 1710.0000000 2.5959999561 66.925003052 0.0000000000 6.0000000000 2.0000000000 1.0000000000
 1710.1250000 3.0520000458 66.950996399 0.0000000000 6.0000000000 2.0000000000 1.0000000000
 1710.2500000 3.5639998913 66.986999512 0.0000000000 6.0000000000 2.0000000000 1.0000000000
 1710.3750000 4.0529999733 67.012001038 0.0000000000 6.0000000000 2.0000000000 1.0000000000
 1710.5000000 4.4739999771 67.030998230 0.0000000000 6.0000000000 2.0000000000 1.0000000000
 1710.6250000 4.8340001106 67.047996521 0.0000000000 6.0000000000 2.0000000000 1.0000000000
 1710.7500000 5.1539998055 67.071998596 0.0000000000 6.0000000000 2.0000000000 1.0000000000
 1710.8750000 5.4400000572 67.092002869  -999.250000  -999.250000  -999.250000  -999.250000
 1711.0000000 5.6360001564 67.100997925  -999.250000  -999.250000  -999.250000  -999.250000
 1711.1250000 5.6310000420 67.112998962  -999.250000  -999.250000  -999.250000  -999.250000
