# LAS format log file from PETREL
# Project units are specified as depth units
#==================================================================
~Version information
VERS.   2.0:
WRAP.   NO:
#==================================================================
~Well
STRT .m      1350.0000000 :
STOP .m      1720.0000000 :
STEP .m     0.12500000 :
NULL .        -999.250000 :
COMP.           : COMPANY
WELL.  5-172C   : WELL
FLD.            : FIELD
LOC.            : LOCATION
SRVC.           : SERVICE COMPANY
DATE.  2020-03-08 09:25:10   : Log Export Date {yyyy-MM-dd HH:mm:ss}
PROV.           : PROVINCE
UWI.      : UNIQUE WELL ID
API.            : API NUMBER
#==================================================================
~Curve
DEPT .m                   : DEPTH
RT .ohm.m                 : RT
SP .                      : SP
Fluids .                  : Fluids
POR .m3/m3                : POR
PERM .mD                  : PERM
Lith .                    : Lith
~Parameter
#==================================================================
~Ascii
# ...
 1611.0000000 5.7449998856 18.604999542 3.0000000000 12.000000000 54.000000000 1.0000000000
 1611.1250000 5.9310002327 19.068000793 3.0000000000 12.000000000 54.000000000 1.0000000000
 1611.2500000 6.2080001831 20.020999908 3.0000000000 12.000000000 54.000000000 1.0000000000
 1611.3750000 6.6729998589 20.794000626  -999.250000 0.1000000015 0.1000000015 0.0000000000
 1611.5000000 7.0409998894 21.472000122  -999.250000 0.1000000015 0.1000000015 0.0000000000
 1611.6250000 7.3680000305 21.847000122  -999.250000 0.1000000015 0.1000000015 0.0000000000
 1611.7500000 7.6209998131 22.049999237  -999.250000 0.1000000015 0.1000000015 0.0000000000
 1611.8750000 7.9180002213 22.000999451  -999.250000 0.1000000015 0.1000000015 0.0000000000
 1612.0000000 7.5450000763 21.729000092  -999.250000 0.1000000015 0.1000000015 0.0000000000
 1612.1250000 7.3839998245 21.450000763  -999.250000 0.1000000015 0.1000000015 0.0000000000
 1612.2500000 7.3159999847 21.084999084  -999.250000 0.1000000015 0.1000000015 0.0000000000
 1612.3750000 7.2480001450 20.680000305  -999.250000 0.1000000015 0.1000000015 0.0000000000
 1612.5000000 7.1970000267 19.812999725  -999.250000 0.1000000015 0.1000000015 0.0000000000
 1612.6250000 7.1469998360 10.305000305  -999.250000 0.1000000015 0.1000000015 0.0000000000
 1612.7500000 7.0970001221 7.6409997940  -999.250000 0.1000000015 0.1000000015 0.0000000000
 1612.8750000 7.0479998589 6.7550001144 4.0000000000 20.000000000 1962.0000000 1.0000000000
 1613.0000000 7.0830001831 6.1399998665 4.0000000000 20.000000000 1962.0000000 1.0000000000
 1613.1250000 7.0920000076 5.4809999466 4.0000000000 20.000000000 1962.0000000 1.0000000000
 1613.2500000 7.1170001030 5.0050001144 4.0000000000 20.000000000 1962.0000000 1.0000000000
 1613.3750000 7.1409997940 4.4180002213 4.0000000000 20.000000000 1962.0000000 1.0000000000
 1613.5000000 6.8520002365 3.9670000076 4.0000000000 20.000000000 1962.0000000 1.0000000000
 1613.6250000 6.6170001030 3.5280001163 4.0000000000 20.000000000 1962.0000000 1.0000000000
 1613.7500000 6.5260000229 3.0980000496 4.0000000000 20.000000000 1962.0000000 1.0000000000
 1613.8750000 6.9340000153 2.5850000381 4.0000000000 20.000000000 1962.0000000 1.0000000000
 1614.0000000 7.3969998360 2.5510001183 4.0000000000 20.000000000 1962.0000000 1.0000000000
 1614.1250000 7.7969999313 2.8989999294 4.0000000000 20.000000000 1962.0000000 1.0000000000
 1614.2500000 8.0539999008 3.4070000648 4.0000000000 20.000000000 1962.0000000 1.0000000000
 1614.3750000 8.3109998703 4.1719999313 4.0000000000 20.000000000 1962.0000000 1.0000000000
 1614.5000000 8.5609998703 4.8319997787 3.0000000000 12.000000000 65.000000000 1.0000000000
 1614.6250000 8.8430004120 5.5219998360 3.0000000000 12.000000000 65.000000000 1.0000000000
 1614.7500000 9.3730001450 6.2270002365 3.0000000000 12.000000000 65.000000000 1.0000000000
 1614.8750000 10.717000008 6.8550000191 3.0000000000 12.000000000 65.000000000 1.0000000000
 1615.0000000 11.345000267 7.4840002060 3.0000000000 12.000000000 65.000000000 1.0000000000
 1615.1250000 11.501000404 8.1890001297 3.0000000000 12.000000000 65.000000000 1.0000000000
 1615.2500000 11.560999870 8.7460002899 3.0000000000 12.000000000 65.000000000 1.0000000000
 1615.3750000 11.572999954 9.3090000153 3.0000000000 12.000000000 65.000000000 1.0000000000
 1615.5000000 11.654000282 9.8750000000 3.0000000000 12.000000000 65.000000000 1.0000000000
 1615.6250000 11.677000046 10.604999542 3.0000000000 12.000000000 65.000000000 1.0000000000
 1615.7500000 11.890999794 11.333999634 3.0000000000 12.000000000 65.000000000 1.0000000000
 1615.8750000 12.104999542 12.378999710 3.0000000000 12.000000000 65.000000000 1.0000000000
 1616.0000000 12.706000328 13.623999596 3.0000000000 12.000000000 65.000000000 1.0000000000
 1616.1250000 13.251999855 15.767999649 3.0000000000 12.000000000 65.000000000 1.0000000000
 1616.2500000 13.847000122 25.118999481 3.0000000000 12.000000000 65.000000000 1.0000000000
 1616.3750000 14.418000221 28.382999420 3.0000000000 12.000000000 65.000000000 1.0000000000
 1616.5000000 14.883999825 30.330999374  -999.250000 0.1000000015 0.1000000015 0.0000000000
 1616.6250000 15.420000076 32.026000977  -999.250000 0.1000000015 0.1000000015 0.0000000000
 1616.7500000 15.713999748 33.570999146  -999.250000 0.1000000015 0.1000000015 0.0000000000
 1616.8750000 15.982999802 35.130001068  -999.250000 0.1000000015 0.1000000015 0.0000000000
 1617.0000000 16.201999664 37.136001587  -999.250000 0.1000000015 0.1000000015 0.0000000000
 1617.1250000 16.343999863 37.842998505  -999.250000 0.1000000015 0.1000000015 0.0000000000
 1617.2500000 16.513999939 38.549999237  -999.250000 0.1000000015 0.1000000015 0.0000000000
 1617.3750000 16.695999146 38.845001221  -999.250000 0.1000000015 0.1000000015 0.0000000000
 1617.5000000 16.799999237 38.662998199  -999.250000 0.1000000015 0.1000000015 0.0000000000
 1617.6250000 16.902999878 38.457000732  -999.250000 0.1000000015 0.1000000015 0.0000000000
 1617.7500000 16.930999756 38.251998901  -999.250000 0.1000000015 0.1000000015 0.0000000000
 1617.8750000 16.958999634 36.081001282 0.0000000000 10.000000000 32.000000000 1.0000000000
 1618.0000000 16.610000610 34.250000000 0.0000000000 10.000000000 32.000000000 1.0000000000
 1618.1250000 16.194999695 32.596000671 0.0000000000 10.000000000 32.000000000 1.0000000000
 1618.2500000 15.713999748 31.516000748 0.0000000000 10.000000000 32.000000000 1.0000000000
 1618.3750000 15.225999832 29.892999649 0.0000000000 10.000000000 32.000000000 1.0000000000
 1618.5000000 14.067999840 28.024000168 0.0000000000 10.000000000 32.000000000 1.0000000000
 1618.6250000 9.1389999390 27.104000092 0.0000000000 10.000000000 32.000000000 1.0000000000
 1618.7500000 7.4970002174 26.222999573 0.0000000000 10.000000000 32.000000000 1.0000000000
 1618.8750000 6.9060001373 25.278999329 0.0000000000 10.000000000 32.000000000 1.0000000000
 1619.0000000 6.3150000572 24.774999619  -999.250000 0.1000000015 0.1000000015 0.0000000000
 1619.1250000 6.5539999008 24.569000244  -999.250000 0.1000000015 0.1000000015 0.0000000000
 1619.2500000 6.8340001106 24.520999908  -999.250000 0.1000000015 0.1000000015 0.0000000000
 1619.3750000 7.0529999733 24.584999084  -999.250000 0.1000000015 0.1000000015 0.0000000000
 1619.5000000 7.2950000763 24.745000839  -999.250000 0.1000000015 0.1000000015 0.0000000000
 1619.6250000 8.5100002289 25.059999466  -999.250000 0.1000000015 0.1000000015 0.0000000000
 1619.7500000 9.3889999390 25.934999466  -999.250000 0.1000000015 0.1000000015 0.0000000000
 1619.8750000 9.6400003433 25.485000610  -999.250000 0.1000000015 0.1000000015 0.0000000000
 1620.0000000 9.7829999924 25.034000397 3.0000000000 13.000000000 231.00000000 1.0000000000
 1620.1250000 9.6250000000 24.166999817 3.0000000000 13.000000000 231.00000000 1.0000000000
 1620.2500000 9.2980003357 22.256000519 3.0000000000 13.000000000 231.00000000 1.0000000000
 1620.3750000 8.7139997482 21.364000320 3.0000000000 13.000000000 231.00000000 1.0000000000
 1620.5000000 4.6360001564 20.774000168 3.0000000000 13.000000000 231.00000000 1.0000000000
 1620.6250000 4.4559998512 20.197999954 3.0000000000 13.000000000 231.00000000 1.0000000000
 1620.7500000 4.2760000229 19.629999161 3.0000000000 13.000000000 231.00000000 1.0000000000
 1620.8750000 4.2459998131 19.392999649  -999.250000 0.1000000015 0.1000000015 0.0000000000
 1621.0000000 4.2160000801 20.222000122  -999.250000 0.1000000015 0.1000000015 0.0000000000
 1621.1250000 4.2140002251 21.063999176  -999.250000 0.1000000015 0.1000000015 0.0000000000
 1621.2500000 4.3060002327 21.843999863  -999.250000 0.1000000015 0.1000000015 0.0000000000
 1621.3750000 4.7649998665 23.142000198  -999.250000 0.1000000015 0.1000000015 0.0000000000
 1621.5000000 5.2249999046 25.639999390  -999.250000 0.1000000015 0.1000000015 0.0000000000
 1621.6250000 6.4759998322 28.086000443  -999.250000 0.1000000015 0.1000000015 0.0000000000
 1621.7500000 7.0760002136 30.587999344  -999.250000 0.1000000015 0.1000000015 0.0000000000
