# LAS format log file from PETREL
# Project units are specified as depth units
#==================================================================
~Version information
VERS.   2.0:
WRAP.   NO:
#==================================================================
~Well
STRT .m      1385.0000000 :
STOP .m      1720.0000000 :
STEP .m     0.12500000 :
NULL .        -999.250000 :
COMP.           : COMPANY
WELL.  5-17C2   : WELL
FLD.            : FIELD
LOC.            : LOCATION
SRVC.           : SERVICE COMPANY
DATE.  2020-03-08 09:25:10   : Log Export Date {yyyy-MM-dd HH:mm:ss}
PROV.           : PROVINCE
UWI.      : UNIQUE WELL ID
API.            : API NUMBER
#==================================================================
~Curve
DEPT .m                   : DEPTH
RT .ohm.m                 : RT
SP .                      : SP
Fluids .                  : Fluids
POR .m3/m3                : POR
PERM .mD                  : PERM
Lith .                    : Lith
~Parameter
#==================================================================
~Ascii
# ...
 1602.5000000 1.5759999752 65.613998413  -999.250000 0.1000000015 0.1000000015 0.0000000000
 1602.6250000 1.5360000134 65.567001343  -999.250000 0.1000000015 0.1000000015 0.0000000000
 1602.7500000 1.4859999418 65.511001587  -999.250000 0.1000000015 0.1000000015 0.0000000000
 1602.8750000 1.4370000362 65.449996948  -999.250000 0.1000000015 0.1000000015 0.0000000000
 1603.0000000 1.4010000229 65.366996765  -999.250000 0.1000000015 0.1000000015 0.0000000000
 1603.1250000 1.3880000114 65.267997742  -999.250000 0.1000000015 0.1000000015 0.0000000000
 1603.2500000 1.4040000439 65.147003174  -999.250000 0.1000000015 0.1000000015 0.0000000000
 1603.3750000 1.4539999962 65.007003784  -999.250000 0.1000000015 0.1000000015 0.0000000000
 1603.5000000 1.5319999456 64.858001709  -999.250000 0.1000000015 0.1000000015 0.0000000000
 1603.6250000 1.6169999838 64.705001831  -999.250000 0.1000000015 0.1000000015 0.0000000000
 1603.7500000 1.7109999657 64.561996460  -999.250000 0.1000000015 0.1000000015 0.0000000000
 1603.8750000 1.7979999781 64.418998718  -999.250000 0.1000000015 0.1000000015 0.0000000000
 1604.0000000 1.9060000181 64.296997070  -999.250000 0.1000000015 0.1000000015 0.0000000000
 1604.1250000 2.0350000858 64.194999695  -999.250000 0.1000000015 0.1000000015 0.0000000000
 1604.2500000 2.2200000286 64.132003784  -999.250000 0.1000000015 0.1000000015 0.0000000000
 1604.3750000 2.4900000095 64.111999512 0.0000000000 4.0000000000 1.0000000000 1.0000000000
 1604.5000000 2.8489999771 64.114997864 0.0000000000 4.0000000000 1.0000000000 1.0000000000
 1604.6250000 3.2209999561 64.124000549 0.0000000000 4.0000000000 1.0000000000 1.0000000000
 1604.7500000 3.5529999733 64.125000000 0.0000000000 4.0000000000 1.0000000000 1.0000000000
 1604.8750000 3.8610000610 64.136001587 0.0000000000 4.0000000000 1.0000000000 1.0000000000
 1605.0000000 4.1040000916 64.156997681 0.0000000000 4.0000000000 1.0000000000 1.0000000000
 1605.1250000 4.2649998665 64.204002380 0.0000000000 4.0000000000 1.0000000000 1.0000000000
 1605.2500000 4.3200001717 64.261001587 0.0000000000 4.0000000000 1.0000000000 1.0000000000
 1605.3750000 4.2839999199 64.330001831 0.0000000000 4.0000000000 1.0000000000 1.0000000000
 1605.5000000 4.1789999008 64.403999329  -999.250000 0.1000000015 0.1000000015 0.0000000000
 1605.6250000 3.9539999962 64.472999573  -999.250000 0.1000000015 0.1000000015 0.0000000000
 1605.7500000 3.6229999065 64.535003662  -999.250000 0.1000000015 0.1000000015 0.0000000000
 1605.8750000 3.1310000420 64.594001770  -999.250000 0.1000000015 0.1000000015 0.0000000000
 1606.0000000 2.6159999371 64.662002563  -999.250000 0.1000000015 0.1000000015 0.0000000000
 1606.1250000 2.1470000744 64.713996887  -999.250000 0.1000000015 0.1000000015 0.0000000000
 1606.2500000 1.8359999657 64.739997864  -999.250000 0.1000000015 0.1000000015 0.0000000000
 1606.3750000 1.6200000048 64.711997986  -999.250000 0.1000000015 0.1000000015 0.0000000000
 1606.5000000 1.4659999609 64.623001099  -999.250000 0.1000000015 0.1000000015 0.0000000000
 1606.6250000 1.3999999762 64.472999573  -999.250000 0.1000000015 0.1000000015 0.0000000000
 1606.7500000 1.4409999847 64.265998840  -999.250000 0.1000000015 0.1000000015 0.0000000000
 1606.8750000 1.5640000105 64.021003723 0.0000000000 6.0000000000 1.0000000000 1.0000000000
 1607.0000000 1.7610000372 63.731998444 0.0000000000 6.0000000000 1.0000000000 1.0000000000
 1607.1250000 1.9850000143 63.410999298 0.0000000000 6.0000000000 1.0000000000 1.0000000000
 1607.2500000 2.2100000381 63.055000305 0.0000000000 6.0000000000 1.0000000000 1.0000000000
 1607.3750000 2.4270000458 62.692001343  -999.250000 0.1000000015 0.1000000015 0.0000000000
 1607.5000000 2.5859999657 62.320999146  -999.250000 0.1000000015 0.1000000015 0.0000000000
 1607.6250000 2.6219999790 61.959999084  -999.250000 0.1000000015 0.1000000015 0.0000000000
 1607.7500000 2.5669999123 61.615001678  -999.250000 0.1000000015 0.1000000015 0.0000000000
 1607.8750000 2.4460000992 61.285999298  -999.250000 0.1000000015 0.1000000015 0.0000000000
 1608.0000000 2.3229999542 60.958999634  -999.250000 0.1000000015 0.1000000015 0.0000000000
 1608.1250000 2.2500000000 60.618999481  -999.250000 0.1000000015 0.1000000015 0.0000000000
 1608.2500000 2.2960000038 60.285999298  -999.250000 0.1000000015 0.1000000015 0.0000000000
 1608.3750000 2.3750000000 59.963001251 4.0000000000 24.000000000 2761.0000000 1.0000000000
 1608.5000000 2.4749999046 59.673999786 4.0000000000 24.000000000 2761.0000000 1.0000000000
 1608.6250000 2.6129999161 59.411998749 4.0000000000 24.000000000 2761.0000000 1.0000000000
 1608.7500000 2.7720000744 59.186000824 4.0000000000 24.000000000 2761.0000000 1.0000000000
 1608.8750000 2.9760000706 58.995998383 4.0000000000 24.000000000 2761.0000000 1.0000000000
 1609.0000000 3.2769999504 58.841999054 4.0000000000 24.000000000 2761.0000000 1.0000000000
 1609.1250000 3.6270000935 58.730998993 4.0000000000 24.000000000 2761.0000000 1.0000000000
 1609.2500000 4.0050001144 58.650001526 4.0000000000 24.000000000 2761.0000000 1.0000000000
 1609.3750000 4.3639998436 58.604000092 4.0000000000 24.000000000 2761.0000000 1.0000000000
 1609.5000000 4.7800002098 58.569000244 4.0000000000 24.000000000 2761.0000000 1.0000000000
 1609.6250000 5.2690000534 58.548999786 4.0000000000 24.000000000 2761.0000000 1.0000000000
 1609.7500000 5.8460001945 58.527000427 4.0000000000 24.000000000 2761.0000000 1.0000000000
 1609.8750000 6.4710001945 58.506000519 4.0000000000 24.000000000 2761.0000000 1.0000000000
 1610.0000000 7.1250000000 58.480998993 4.0000000000 24.000000000 2761.0000000 1.0000000000
 1610.1250000 7.7500000000 58.452999115 4.0000000000 24.000000000 2761.0000000 1.0000000000
 1610.2500000 8.3889999390 58.423000336 4.0000000000 24.000000000 2761.0000000 1.0000000000
 1610.3750000 9.0459995270 58.381999969 4.0000000000 24.000000000 2761.0000000 1.0000000000
 1610.5000000 9.7980003357 58.344001770 4.0000000000 24.000000000 2761.0000000 1.0000000000
 1610.6250000 10.697999954 58.308998108 4.0000000000 24.000000000 2761.0000000 1.0000000000
 1610.7500000 11.854000092 58.298000336 4.0000000000 24.000000000 2761.0000000 1.0000000000
 1610.8750000 13.336999893 58.305000305 4.0000000000 24.000000000 2761.0000000 1.0000000000
 1611.0000000 14.996000290 58.335998535 4.0000000000 24.000000000 2761.0000000 1.0000000000
 1611.1250000 16.747999191 58.380001068 4.0000000000 24.000000000 2761.0000000 1.0000000000
 1611.2500000 18.340000153 58.426998138 4.0000000000 24.000000000 2761.0000000 1.0000000000
 1611.3750000 19.715999603 58.474998474 4.0000000000 24.000000000 2761.0000000 1.0000000000
 1611.5000000 20.788000107 58.520999908 4.0000000000 24.000000000 2761.0000000 1.0000000000
 1611.6250000 21.708999634 58.576999664 4.0000000000 24.000000000 2761.0000000 1.0000000000
 1611.7500000 22.538999557 58.638000488 4.0000000000 24.000000000 2761.0000000 1.0000000000
 1611.8750000 23.458999634 58.713001251 4.0000000000 24.000000000 2761.0000000 1.0000000000
 1612.0000000 24.488000870 58.797000885 4.0000000000 24.000000000 2761.0000000 1.0000000000
 1612.1250000 25.746000290 58.903999329 4.0000000000 24.000000000 2761.0000000 1.0000000000
 1612.2500000 27.218999863 59.032001495 4.0000000000 24.000000000 2761.0000000 1.0000000000
 1612.3750000 28.975999832 59.186000824 4.0000000000 24.000000000 2761.0000000 1.0000000000
 1612.5000000 30.920999527 59.361999512 4.0000000000 24.000000000 2761.0000000 1.0000000000
 1612.6250000 32.993000031 59.541999817 4.0000000000 24.000000000 2761.0000000 1.0000000000
 1612.7500000 34.869998932 59.724998474 4.0000000000 24.000000000 2761.0000000 1.0000000000
 1612.8750000 36.421001434 59.888999939 4.0000000000 24.000000000 2761.0000000 1.0000000000
 1613.0000000 37.423000336 60.039001465 4.0000000000 24.000000000 2761.0000000 1.0000000000
 1613.1250000 37.910999298 60.165000916 4.0000000000 24.000000000 2761.0000000 1.0000000000
 1613.2500000 37.981998444 60.284000397 4.0000000000 24.000000000 2761.0000000 1.0000000000
