# LAS format log file from PETREL
# Project units are specified as depth units
#==================================================================
~Version information
VERS.   2.0:
WRAP.   NO:
#==================================================================
~Well
STRT .m      1350.0000000 :
STOP .m      1730.0000000 :
STEP .m     0.12500000 :
NULL .        -999.250000 :
COMP.           : COMPANY
WELL.  5-172   : WELL
FLD.            : FIELD
LOC.            : LOCATION
SRVC.           : SERVICE COMPANY
DATE.  2020-03-08 09:25:10   : Log Export Date {yyyy-MM-dd HH:mm:ss}
PROV.           : PROVINCE
UWI.      : UNIQUE WELL ID
API.            : API NUMBER
#==================================================================
~Curve
DEPT .m                   : DEPTH
RT .ohm.m                 : RT
SP .                      : SP
Fluids .                  : Fluids
POR .m3/m3                : POR
PERM .mD                  : PERM
Lith .                    : Lith
~Parameter
#==================================================================
~Ascii
# ...
 1513.1250000 1.6089999676 32.652000427  -999.250000 0.1000000015 0.1000000015 0.0000000000
 1513.2500000 1.5859999657 32.727001190  -999.250000 0.1000000015 0.1000000015 0.0000000000
 1513.3750000 1.5629999638 32.801998138  -999.250000 0.1000000015 0.1000000015 0.0000000000
 1513.5000000 1.5399999619 32.886001587  -999.250000 0.1000000015 0.1000000015 0.0000000000
 1513.6250000 1.5130000114 32.969001770  -999.250000 0.1000000015 0.1000000015 0.0000000000
 1513.7500000 1.4859999418 33.053001404  -999.250000 0.1000000015 0.1000000015 0.0000000000
 1513.8750000 1.4800000191 33.102001190  -999.250000 0.1000000015 0.1000000015 0.0000000000
 1514.0000000 1.4800000191 33.150001526  -999.250000 0.1000000015 0.1000000015 0.0000000000
 1514.1250000 1.4809999466 33.199001312  -999.250000 0.1000000015 0.1000000015 0.0000000000
 1514.2500000 1.4809999466 33.206001282  -999.250000 0.1000000015 0.1000000015 0.0000000000
 1514.3750000 1.4830000401 33.214000702  -999.250000 0.1000000015 0.1000000015 0.0000000000
 1514.5000000 1.4630000591 33.195999146  -999.250000 0.1000000015 0.1000000015 0.0000000000
 1514.6250000 1.4429999590 33.178001404  -999.250000 0.1000000015 0.1000000015 0.0000000000
 1514.7500000 1.4149999619 33.159999847  -999.250000 0.1000000015 0.1000000015 0.0000000000
 1514.8750000 1.4079999924 33.141998291  -999.250000 0.1000000015 0.1000000015 0.0000000000
 1515.0000000 1.4010000229 33.125000000  -999.250000 0.1000000015 0.1000000015 0.0000000000
 1515.1250000 1.3999999762 33.049999237  -999.250000 0.1000000015 0.1000000015 0.0000000000
 1515.2500000 1.3990000486 32.976001740  -999.250000 0.1000000015 0.1000000015 0.0000000000
 1515.3750000 1.3999999762 32.924999237  -999.250000 0.1000000015 0.1000000015 0.0000000000
 1515.5000000 1.4019999504 32.874000549  -999.250000 0.1000000015 0.1000000015 0.0000000000
 1515.6250000 1.4040000439 32.823001862  -999.250000 0.1000000015 0.1000000015 0.0000000000
 1515.7500000 1.4060000181 32.764999390  -999.250000 0.1000000015 0.1000000015 0.0000000000
 1515.8750000 1.4079999924 32.708000183  -999.250000 0.1000000015 0.1000000015 0.0000000000
 1516.0000000 1.4099999666 32.651000977  -999.250000 0.1000000015 0.1000000015 0.0000000000
 1516.1250000 1.4119999409 32.592998505  -999.250000 0.1000000015 0.1000000015 0.0000000000
 1516.2500000 1.4140000343 32.550998688  -999.250000 0.1000000015 0.1000000015 0.0000000000
 1516.3750000 1.4160000086 32.507999420  -999.250000 0.1000000015 0.1000000015 0.0000000000
 1516.5000000 1.4179999828 32.458000183  -999.250000 0.1000000015 0.1000000015 0.0000000000
 1516.6250000 1.4199999571 32.408000946  -999.250000 0.1000000015 0.1000000015 0.0000000000
 1516.7500000 1.4550000429 32.356998444  -999.250000 0.1000000015 0.1000000015 0.0000000000
 1516.8750000 1.4659999609 32.305000305  -999.250000 0.1000000015 0.1000000015 0.0000000000
 1517.0000000 1.4759999514 32.261001587  -999.250000 0.1000000015 0.1000000015 0.0000000000
 1517.1250000 1.4780000448 32.216999054  -999.250000 0.1000000015 0.1000000015 0.0000000000
 1517.2500000 1.4809999466 32.206001282  -999.250000 0.1000000015 0.1000000015 0.0000000000
 1517.3750000 1.4830000401 32.194000244  -999.250000 0.1000000015 0.1000000015 0.0000000000
 1517.5000000 1.5060000420 32.182998657  -999.250000 0.1000000015 0.1000000015 0.0000000000
 1517.6250000 1.5299999714 32.187000275  -999.250000 0.1000000015 0.1000000015 0.0000000000
 1517.7500000 1.5620000362 32.191001892  -999.250000 0.1000000015 0.1000000015 0.0000000000
 1517.8750000 1.5750000477 32.195999146  -999.250000 0.1000000015 0.1000000015 0.0000000000
 1518.0000000 1.5880000591 32.200000763  -999.250000 0.1000000015 0.1000000015 0.0000000000
 1518.1250000 1.6160000563 32.203998566  -999.250000 0.1000000015 0.1000000015 0.0000000000
 1518.2500000 1.6449999809 32.250999451  -999.250000 0.1000000015 0.1000000015 0.0000000000
 1518.3750000 1.6490000486 32.297000885  -999.250000 0.1000000015 0.1000000015 0.0000000000
 1518.5000000 1.6779999733 32.313999176  -999.250000 0.1000000015 0.1000000015 0.0000000000
 1518.6250000 1.7230000496 32.332000732  -999.250000 0.1000000015 0.1000000015 0.0000000000
 1518.7500000 1.7790000439 32.337001801  -999.250000 0.1000000015 0.1000000015 0.0000000000
 1518.8750000 1.8259999752 32.342998505  -999.250000 0.1000000015 0.1000000015 0.0000000000
 1519.0000000 1.8830000162 32.348999023  -999.250000 0.1000000015 0.1000000015 0.0000000000
 1519.1250000 1.9839999676 32.354000092  -999.250000 0.1000000015 0.1000000015 0.0000000000
 1519.2500000 2.0130000114 32.358001709  -999.250000 0.1000000015 0.1000000015 0.0000000000
 1519.3750000 2.0160000324 32.362998962  -999.250000 0.1000000015 0.1000000015 0.0000000000
 1519.5000000 2.0190000534 32.367000580  -999.250000 0.1000000015 0.1000000015 0.0000000000
 1519.6250000 2.0510001183 32.370998383  -999.250000 0.1000000015 0.1000000015 0.0000000000
 1519.7500000 1.9670000076 32.375999451  -999.250000 0.1000000015 0.1000000015 0.0000000000
 1519.8750000 1.8240000010 32.380001068  -999.250000 0.1000000015 0.1000000015 0.0000000000
 1520.0000000 1.6540000439 32.384998322  -999.250000 0.1000000015 0.1000000015 0.0000000000
 1520.1250000 1.5989999771 32.388999939  -999.250000 0.1000000015 0.1000000015 0.0000000000
 1520.2500000 1.4989999533 32.393001556  -999.250000 0.1000000015 0.1000000015 0.0000000000
 1520.3750000 1.4160000086 32.397998810  -999.250000 0.1000000015 0.1000000015 0.0000000000
 1520.5000000 1.3489999771 32.402000427  -999.250000 0.1000000015 0.1000000015 0.0000000000
 1520.6250000 1.2869999409 32.407001495  -999.250000 0.1000000015 0.1000000015 0.0000000000
 1520.7500000 1.2480000257 32.410999298  -999.250000 0.1000000015 0.1000000015 0.0000000000
 1520.8750000 1.1920000315 32.415000916  -999.250000 0.1000000015 0.1000000015 0.0000000000
 1521.0000000 1.1929999590 32.419998169  -999.250000 0.1000000015 0.1000000015 0.0000000000
 1521.1250000 1.1940000057 32.423999786  -999.250000 0.1000000015 0.1000000015 0.0000000000
 1521.2500000 1.1959999800 32.429000854  -999.250000 0.1000000015 0.1000000015 0.0000000000
 1521.3750000 1.1640000343 32.432998657  -999.250000 0.1000000015 0.1000000015 0.0000000000
 1521.5000000 1.1569999456 32.437000275  -999.250000 0.1000000015 0.1000000015 0.0000000000
 1521.6250000 1.1540000439 32.402999878  -999.250000 0.1000000015 0.1000000015 0.0000000000
 1521.7500000 1.1859999895 32.368000031  -999.250000 0.1000000015 0.1000000015 0.0000000000
 1521.8750000 1.2350000143 32.355998993  -999.250000 0.1000000015 0.1000000015 0.0000000000
 1522.0000000 1.3120000362 32.342998505  -999.250000 0.1000000015 0.1000000015 0.0000000000
 1522.1250000 1.4529999495 32.346000671  -999.250000 0.1000000015 0.1000000015 0.0000000000
 1522.2500000 1.9850000143 32.349998474  -999.250000 0.1000000015 0.1000000015 0.0000000000
 1522.3750000 2.3010001183 32.354000092  -999.250000 0.1000000015 0.1000000015 0.0000000000
 1522.5000000 2.4440000057 32.358001709  -999.250000 0.1000000015 0.1000000015 0.0000000000
 1522.6250000 2.5510001183 32.362998962  -999.250000 0.1000000015 0.1000000015 0.0000000000
 1522.7500000 2.6349999905 32.367000580  -999.250000 0.1000000015 0.1000000015 0.0000000000
 1522.8750000 2.6310000420 32.286998749  -999.250000 0.1000000015 0.1000000015 0.0000000000
 1523.0000000 2.4979999065 32.206001282  -999.250000 0.1000000015 0.1000000015 0.0000000000
 1523.1250000 2.1930000782 32.136001587  -999.250000 0.1000000015 0.1000000015 0.0000000000
 1523.2500000 1.8919999599 32.066001892  -999.250000 0.1000000015 0.1000000015 0.0000000000
 1523.3750000 1.6399999857 31.964000702  -999.250000 0.1000000015 0.1000000015 0.0000000000
 1523.5000000 1.5559999943 31.861999512  -999.250000 0.1000000015 0.1000000015 0.0000000000
 1523.6250000 1.5089999437 31.732999802  -999.250000 0.1000000015 0.1000000015 0.0000000000
 1523.7500000 1.4670000076 31.603000641  -999.250000 0.1000000015 0.1000000015 0.0000000000
 1523.8750000 1.4160000086 31.468000412  -999.250000 0.1000000015 0.1000000015 0.0000000000
