# LAS format log file from PETREL
# Project units are specified as depth units
#==================================================================
~Version information
VERS.   2.0:
WRAP.   NO:
#==================================================================
~Well
STRT .m      1350.0000000 :
STOP .m      1730.0000000 :
STEP .m     0.12500000 :
NULL .        -999.250000 :
COMP.           : COMPANY
WELL.  5-172   : WELL
FLD.            : FIELD
LOC.            : LOCATION
SRVC.           : SERVICE COMPANY
DATE.  2020-03-08 09:25:10   : Log Export Date {yyyy-MM-dd HH:mm:ss}
PROV.           : PROVINCE
UWI.      : UNIQUE WELL ID
API.            : API NUMBER
#==================================================================
~Curve
DEPT .m                   : DEPTH
RT .ohm.m                 : RT
SP .                      : SP
Fluids .                  : Fluids
POR .m3/m3                : POR
PERM .mD                  : PERM
Lith .                    : Lith
~Parameter
#==================================================================
~Ascii
# ...
 1415.2500000 2.2449998856 30.652000427  -999.250000 0.1000000015 0.1000000015 0.0000000000
 1415.3750000 2.2460000515 30.527000427  -999.250000 0.1000000015 0.1000000015 0.0000000000
 1415.5000000 2.2469999790 30.423000336  -999.250000 0.1000000015 0.1000000015 0.0000000000
 1415.6250000 2.2130000591 30.319000244  -999.250000 0.1000000015 0.1000000015 0.0000000000
 1415.7500000 2.2060000896 30.141000748  -999.250000 0.1000000015 0.1000000015 0.0000000000
 1415.8750000 2.1830000877 29.993999481  -999.250000 0.1000000015 0.1000000015 0.0000000000
 1416.0000000 2.1600000858 29.986999512  -999.250000 0.1000000015 0.1000000015 0.0000000000
 1416.1250000 2.1579999924 29.915000916  -999.250000 0.1000000015 0.1000000015 0.0000000000
 1416.2500000 2.1289999485 29.830999374  -999.250000 0.1000000015 0.1000000015 0.0000000000
 1416.3750000 2.1199998856 29.760000229  -999.250000 0.1000000015 0.1000000015 0.0000000000
 1416.5000000 2.1180000305 29.687999725  -999.250000 0.1000000015 0.1000000015 0.0000000000
 1416.6250000 2.1159999371 29.573999405  -999.250000 0.1000000015 0.1000000015 0.0000000000
 1416.7500000 2.0969998837 29.481000900  -999.250000 0.1000000015 0.1000000015 0.0000000000
 1416.8750000 2.0789999962 29.391000748  -999.250000 0.1000000015 0.1000000015 0.0000000000
 1417.0000000 2.0750000477 29.275999069  -999.250000 0.1000000015 0.1000000015 0.0000000000
 1417.1250000 2.0529999733 29.246999741  -999.250000 0.1000000015 0.1000000015 0.0000000000
 1417.2500000 2.0320000648 29.239000320  -999.250000 0.1000000015 0.1000000015 0.0000000000
 1417.3750000 2.0309998989 29.291000366  -999.250000 0.1000000015 0.1000000015 0.0000000000
 1417.5000000 2.0299999714 29.343999863  -999.250000 0.1000000015 0.1000000015 0.0000000000
 1417.6250000 2.0309998989 29.403999329  -999.250000 0.1000000015 0.1000000015 0.0000000000
 1417.7500000 2.0329999924 29.465000153  -999.250000 0.1000000015 0.1000000015 0.0000000000
 1417.8750000 2.0350000858 29.475999832  -999.250000 0.1000000015 0.1000000015 0.0000000000
 1418.0000000 2.0369999409 29.409999847  -999.250000 0.1000000015 0.1000000015 0.0000000000
 1418.1250000 2.0390000343 29.343999863  -999.250000 0.1000000015 0.1000000015 0.0000000000
 1418.2500000 2.0409998894 29.278999329  -999.250000 0.1000000015 0.1000000015 0.0000000000
 1418.3750000 2.0429999828 29.233999252  -999.250000 0.1000000015 0.1000000015 0.0000000000
 1418.5000000 2.0450000763 29.190000534  -999.250000 0.1000000015 0.1000000015 0.0000000000
 1418.6250000 2.0469999313 29.139999390  -999.250000 0.1000000015 0.1000000015 0.0000000000
 1418.7500000 2.0499999523 29.090000153  -999.250000 0.1000000015 0.1000000015 0.0000000000
 1418.8750000 2.0520000458 29.079999924  -999.250000 0.1000000015 0.1000000015 0.0000000000
 1419.0000000 2.0299999714 29.070999146  -999.250000 0.1000000015 0.1000000015 0.0000000000
 1419.1250000 2.0090000629 29.070999146  -999.250000 0.1000000015 0.1000000015 0.0000000000
 1419.2500000 2.0090000629 29.070999146  -999.250000 0.1000000015 0.1000000015 0.0000000000
 1419.3750000 2.0099999905 29.075000763  -999.250000 0.1000000015 0.1000000015 0.0000000000
 1419.5000000 2.0120000839 29.077999115  -999.250000 0.1000000015 0.1000000015 0.0000000000
 1419.6250000 2.0139999390 29.129999161  -999.250000 0.1000000015 0.1000000015 0.0000000000
 1419.7500000 2.0160000324 29.180999756  -999.250000 0.1000000015 0.1000000015 0.0000000000
 1419.8750000 2.0179998875 29.194000244  -999.250000 0.1000000015 0.1000000015 0.0000000000
 1420.0000000 2.0009999275 29.205999374  -999.250000 0.1000000015 0.1000000015 0.0000000000
 1420.1250000 1.9830000401 29.211999893  -999.250000 0.1000000015 0.1000000015 0.0000000000
 1420.2500000 1.9789999723 29.218000412  -999.250000 0.1000000015 0.1000000015 0.0000000000
 1420.3750000 1.9609999657 29.222000122  -999.250000 0.1000000015 0.1000000015 0.0000000000
 1420.5000000 1.9440000057 29.226999283  -999.250000 0.1000000015 0.1000000015 0.0000000000
 1420.6250000 1.9220000505 29.232000351  -999.250000 0.1000000015 0.1000000015 0.0000000000
 1420.7500000 1.9010000229 29.236000061  -999.250000 0.1000000015 0.1000000015 0.0000000000
 1420.8750000 1.8949999809 29.240999222  -999.250000 0.1000000015 0.1000000015 0.0000000000
 1421.0000000 1.8890000582 29.245000839  -999.250000 0.1000000015 0.1000000015 0.0000000000
 1421.1250000 1.8650000095 29.249000549  -999.250000 0.1000000015 0.1000000015 0.0000000000
 1421.2500000 1.8409999609 29.253999710  -999.250000 0.1000000015 0.1000000015 0.0000000000
 1421.3750000 1.8430000544 29.257999420  -999.250000 0.1000000015 0.1000000015 0.0000000000
 1421.5000000 1.8450000286 29.263000488  -999.250000 0.1000000015 0.1000000015 0.0000000000
 1421.6250000 1.8470000029 29.267000198  -999.250000 0.1000000015 0.1000000015 0.0000000000
 1421.7500000 1.8489999771 29.270999908  -999.250000 0.1000000015 0.1000000015 0.0000000000
 1421.8750000 1.8509999514 29.275999069  -999.250000 0.1000000015 0.1000000015 0.0000000000
 1422.0000000 1.8530000448 29.280000687  -999.250000 0.1000000015 0.1000000015 0.0000000000
 1422.1250000 1.8370000124 29.333999634  -999.250000 0.1000000015 0.1000000015 0.0000000000
 1422.2500000 1.8220000267 29.388000488  -999.250000 0.1000000015 0.1000000015 0.0000000000
 1422.3750000 1.8179999590 29.399999619  -999.250000 0.1000000015 0.1000000015 0.0000000000
 1422.5000000 1.8140000105 29.437000275  -999.250000 0.1000000015 0.1000000015 0.0000000000
 1422.6250000 1.7970000505 29.474000931  -999.250000 0.1000000015 0.1000000015 0.0000000000
 1422.7500000 1.7810000181 29.510000229  -999.250000 0.1000000015 0.1000000015 0.0000000000
 1422.8750000 1.7769999504 29.476999283  -999.250000 0.1000000015 0.1000000015 0.0000000000
 1423.0000000 1.7740000486 29.444000244  -999.250000 0.1000000015 0.1000000015 0.0000000000
 1423.1250000 1.7749999762 29.395999908  -999.250000 0.1000000015 0.1000000015 0.0000000000
 1423.2500000 1.7760000229 29.347000122  -999.250000 0.1000000015 0.1000000015 0.0000000000
 1423.3750000 1.7769999504 29.295999527  -999.250000 0.1000000015 0.1000000015 0.0000000000
 1423.5000000 1.7779999971 29.245000839  -999.250000 0.1000000015 0.1000000015 0.0000000000
 1423.6250000 1.8040000200 29.239000320  -999.250000 0.1000000015 0.1000000015 0.0000000000
 1423.7500000 1.8309999704 29.232999802  -999.250000 0.1000000015 0.1000000015 0.0000000000
 1423.8750000 1.8329999447 29.180999756  -999.250000 0.1000000015 0.1000000015 0.0000000000
 1424.0000000 1.8359999657 29.128999710  -999.250000 0.1000000015 0.1000000015 0.0000000000
 1424.1250000 1.8580000401 29.128000259  -999.250000 0.1000000015 0.1000000015 0.0000000000
 1424.2500000 1.8810000420 29.131000519  -999.250000 0.1000000015 0.1000000015 0.0000000000
 1424.3750000 1.8860000372 29.200000763  -999.250000 0.1000000015 0.1000000015 0.0000000000
 1424.5000000 1.8919999599 29.235000610  -999.250000 0.1000000015 0.1000000015 0.0000000000
 1424.6250000 1.8949999809 29.253000259  -999.250000 0.1000000015 0.1000000015 0.0000000000
 1424.7500000 1.8980000019 29.204000473  -999.250000 0.1000000015 0.1000000015 0.0000000000
 1424.8750000 1.8999999762 29.153999329  -999.250000 0.1000000015 0.1000000015 0.0000000000
 1425.0000000 1.9029999971 29.089000702  -999.250000 0.1000000015 0.1000000015 0.0000000000
 1425.1250000 1.9049999714 28.985000610  -999.250000 0.1000000015 0.1000000015 0.0000000000
 1425.2500000 1.9069999456 28.892000198  -999.250000 0.1000000015 0.1000000015 0.0000000000
 1425.3750000 1.9090000391 28.775999069  -999.250000 0.1000000015 0.1000000015 0.0000000000
 1425.5000000 1.9110000134 28.732999802  -999.250000 0.1000000015 0.1000000015 0.0000000000
 1425.6250000 1.9129999876 28.728000641  -999.250000 0.1000000015 0.1000000015 0.0000000000
 1425.7500000 1.9149999619 28.728000641  -999.250000 0.1000000015 0.1000000015 0.0000000000
 1425.8750000 1.9170000553 28.731000900  -999.250000 0.1000000015 0.1000000015 0.0000000000
 1426.0000000 1.9190000296 28.735000610  -999.250000 0.1000000015 0.1000000015 0.0000000000
