# LAS format log file from PETREL
# Project units are specified as depth units
#==================================================================
~Version information
VERS.   2.0:
WRAP.   NO:
#==================================================================
~Well
STRT .m      1350.0000000 :
STOP .m      1720.0000000 :
STEP .m     0.12500000 :
NULL .        -999.250000 :
COMP.           : COMPANY
WELL.  5-172C   : WELL
FLD.            : FIELD
LOC.            : LOCATION
SRVC.           : SERVICE COMPANY
DATE.  2020-03-08 09:25:10   : Log Export Date {yyyy-MM-dd HH:mm:ss}
PROV.           : PROVINCE
UWI.      : UNIQUE WELL ID
API.            : API NUMBER
#==================================================================
~Curve
DEPT .m                   : DEPTH
RT .ohm.m                 : RT
SP .                      : SP
Fluids .                  : Fluids
POR .m3/m3                : POR
PERM .mD                  : PERM
Lith .                    : Lith
~Parameter
#==================================================================
~Ascii
# ...
 1447.8750000 1.1640000343 12.770999908  -999.250000 0.1000000015 0.1000000015 0.0000000000
 1448.0000000 1.1649999619 12.770999908  -999.250000 0.1000000015 0.1000000015 0.0000000000
 1448.1250000 1.1649999619 12.770999908  -999.250000 0.1000000015 0.1000000015 0.0000000000
 1448.2500000 1.1649999619 12.722999573  -999.250000 0.1000000015 0.1000000015 0.0000000000
 1448.3750000 1.1649999619 12.675000191  -999.250000 0.1000000015 0.1000000015 0.0000000000
 1448.5000000 1.1649999619 12.592000008  -999.250000 0.1000000015 0.1000000015 0.0000000000
 1448.6250000 1.1649999619 12.565999985  -999.250000 0.1000000015 0.1000000015 0.0000000000
 1448.7500000 1.1660000086 12.553000450  -999.250000 0.1000000015 0.1000000015 0.0000000000
 1448.8750000 1.1660000086 12.548999786  -999.250000 0.1000000015 0.1000000015 0.0000000000
 1449.0000000 1.1879999638 12.548000336  -999.250000 0.1000000015 0.1000000015 0.0000000000
 1449.1250000 1.2100000381 12.546999931  -999.250000 0.1000000015 0.1000000015 0.0000000000
 1449.2500000 1.2130000591 12.546999931  -999.250000 0.1000000015 0.1000000015 0.0000000000
 1449.3750000 1.2150000334 12.548000336  -999.250000 0.1000000015 0.1000000015 0.0000000000
 1449.5000000 1.2159999609 12.548000336  -999.250000 0.1000000015 0.1000000015 0.0000000000
 1449.6250000 1.2159999609 12.548000336  -999.250000 0.1000000015 0.1000000015 0.0000000000
 1449.7500000 1.2430000305 12.548000336  -999.250000 0.1000000015 0.1000000015 0.0000000000
 1449.8750000 1.2530000210 12.548999786  -999.250000 0.1000000015 0.1000000015 0.0000000000
 1450.0000000 1.2619999647 12.548999786  -999.250000 0.1000000015 0.1000000015 0.0000000000
 1450.1250000 1.2649999857 12.550000191  -999.250000 0.1000000015 0.1000000015 0.0000000000
 1450.2500000 1.2929999828 12.550000191  -999.250000 0.1000000015 0.1000000015 0.0000000000
 1450.3750000 1.3519999981 12.550000191  -999.250000 0.1000000015 0.1000000015 0.0000000000
 1450.5000000 1.4119999409 12.550999641  -999.250000 0.1000000015 0.1000000015 0.0000000000
 1450.6250000 1.4539999962 12.550999641  -999.250000 0.1000000015 0.1000000015 0.0000000000
 1450.7500000 1.4960000515 12.550999641  -999.250000 0.1000000015 0.1000000015 0.0000000000
 1450.8750000 1.5679999590 12.552000046  -999.250000 0.1000000015 0.1000000015 0.0000000000
 1451.0000000 1.6339999437 12.552000046  -999.250000 0.1000000015 0.1000000015 0.0000000000
 1451.1250000 1.6829999685 12.552000046  -999.250000 0.1000000015 0.1000000015 0.0000000000
 1451.2500000 1.7389999628 12.553000450  -999.250000 0.1000000015 0.1000000015 0.0000000000
 1451.3750000 1.8370000124 12.510000229  -999.250000 0.1000000015 0.1000000015 0.0000000000
 1451.5000000 1.9550000429 12.468000412  -999.250000 0.1000000015 0.1000000015 0.0000000000
 1451.6250000 2.0399999619 12.414999962  -999.250000 0.1000000015 0.1000000015 0.0000000000
 1451.7500000 2.1540000439 12.362000465  -999.250000 0.1000000015 0.1000000015 0.0000000000
 1451.8750000 2.3259999752 12.348999977  -999.250000 0.1000000015 0.1000000015 0.0000000000
 1452.0000000 2.4979999065 12.336000443  -999.250000 0.1000000015 0.1000000015 0.0000000000
 1452.1250000 2.6540000439 12.296999931  -999.250000 0.1000000015 0.1000000015 0.0000000000
 1452.2500000 2.8269999027 12.256999969  -999.250000 0.1000000015 0.1000000015 0.0000000000
 1452.3750000 2.9700000286 12.218000412  -999.250000 0.1000000015 0.1000000015 0.0000000000
 1452.5000000 2.9990000725 12.161999702  -999.250000 0.1000000015 0.1000000015 0.0000000000
 1452.6250000 2.7060000896 12.107000351  -999.250000 0.1000000015 0.1000000015 0.0000000000
 1452.7500000 2.2230000496 12.104999542  -999.250000 0.1000000015 0.1000000015 0.0000000000
 1452.8750000 1.8919999599 12.102999687  -999.250000 0.1000000015 0.1000000015 0.0000000000
 1453.0000000 1.5609999895 12.102999687  -999.250000 0.1000000015 0.1000000015 0.0000000000
 1453.1250000 1.4800000191 12.102999687  -999.250000 0.1000000015 0.1000000015 0.0000000000
 1453.2500000 1.4079999924 12.036999702  -999.250000 0.1000000015 0.1000000015 0.0000000000
 1453.3750000 1.3580000401 12.024000168  -999.250000 0.1000000015 0.1000000015 0.0000000000
 1453.5000000 1.3020000458 12.010999680  -999.250000 0.1000000015 0.1000000015 0.0000000000
 1453.6250000 1.2560000420 11.998000145  -999.250000 0.1000000015 0.1000000015 0.0000000000
 1453.7500000 1.2380000353 11.996000290  -999.250000 0.1000000015 0.1000000015 0.0000000000
 1453.8750000 1.2289999723 11.993000031  -999.250000 0.1000000015 0.1000000015 0.0000000000
 1454.0000000 1.2250000238 11.993000031  -999.250000 0.1000000015 0.1000000015 0.0000000000
 1454.1250000 1.2239999771 11.993000031  -999.250000 0.1000000015 0.1000000015 0.0000000000
 1454.2500000 1.2220000029 11.958999634  -999.250000 0.1000000015 0.1000000015 0.0000000000
 1454.3750000 1.2220000029 11.925000191  -999.250000 0.1000000015 0.1000000015 0.0000000000
 1454.5000000 1.2480000257 11.892000198  -999.250000 0.1000000015 0.1000000015 0.0000000000
 1454.6250000 1.2619999647 11.885999680  -999.250000 0.1000000015 0.1000000015 0.0000000000
 1454.7500000 1.2690000534 11.850999832  -999.250000 0.1000000015 0.1000000015 0.0000000000
 1454.8750000 1.2710000277 11.814999580  -999.250000 0.1000000015 0.1000000015 0.0000000000
 1455.0000000 1.2719999552 11.779999733  -999.250000 0.1000000015 0.1000000015 0.0000000000
 1455.1250000 1.2960000038 11.727000237  -999.250000 0.1000000015 0.1000000015 0.0000000000
 1455.2500000 1.3190000057 11.673999786  -999.250000 0.1000000015 0.1000000015 0.0000000000
 1455.3750000 1.3580000401 11.619000435  -999.250000 0.1000000015 0.1000000015 0.0000000000
 1455.5000000 1.4129999876 11.562999725  -999.250000 0.1000000015 0.1000000015 0.0000000000
 1455.6250000 1.4630000591 11.553999901  -999.250000 0.1000000015 0.1000000015 0.0000000000
 1455.7500000 1.5140000582 11.545999527  -999.250000 0.1000000015 0.1000000015 0.0000000000
 1455.8750000 1.5859999657 11.496999741  -999.250000 0.1000000015 0.1000000015 0.0000000000
 1456.0000000 1.6590000391 11.449000359  -999.250000 0.1000000015 0.1000000015 0.0000000000
 1456.1250000 1.7410000563 11.326000214  -999.250000 0.1000000015 0.1000000015 0.0000000000
 1456.2500000 1.8519999981 11.203000069  -999.250000 0.1000000015 0.1000000015 0.0000000000
 1456.3750000 1.9019999504 11.203000069  -999.250000 0.1000000015 0.1000000015 0.0000000000
 1456.5000000 2.0030000210 11.100999832  -999.250000 0.1000000015 0.1000000015 0.0000000000
 1456.6250000 2.1029999256 10.998000145  -999.250000 0.1000000015 0.1000000015 0.0000000000
 1456.7500000 2.2019999027 10.923999786  -999.250000 0.1000000015 0.1000000015 0.0000000000
 1456.8750000 2.2960000038 10.805999756  -999.250000 0.1000000015 0.1000000015 0.0000000000
 1457.0000000 2.3340001106 10.687000275  -999.250000 0.1000000015 0.1000000015 0.0000000000
 1457.1250000 2.3819999695 10.607000351  -999.250000 0.1000000015 0.1000000015 0.0000000000
 1457.2500000 2.4019999504 10.526000023  -999.250000 0.1000000015 0.1000000015 0.0000000000
 1457.3750000 2.4210000038 10.432999611  -999.250000 0.1000000015 0.1000000015 0.0000000000
 1457.5000000 2.3970000744 10.303000450  -999.250000 0.1000000015 0.1000000015 0.0000000000
 1457.6250000 2.3719999790 10.244999886  -999.250000 0.1000000015 0.1000000015 0.0000000000
 1457.7500000 2.2790000439 10.187000275  -999.250000 0.1000000015 0.1000000015 0.0000000000
 1457.8750000 2.1930000782 10.185999870  -999.250000 0.1000000015 0.1000000015 0.0000000000
 1458.0000000 2.0580000877 10.185000420  -999.250000 0.1000000015 0.1000000015 0.0000000000
 1458.1250000 1.9570000172 10.185000420  -999.250000 0.1000000015 0.1000000015 0.0000000000
 1458.2500000 1.8140000105 10.185999870  -999.250000 0.1000000015 0.1000000015 0.0000000000
 1458.3750000 1.6820000410 10.185999870  -999.250000 0.1000000015 0.1000000015 0.0000000000
 1458.5000000 1.5559999943 10.185999870  -999.250000 0.1000000015 0.1000000015 0.0000000000
 1458.6250000 1.3619999886 10.187000275  -999.250000 0.1000000015 0.1000000015 0.0000000000
