# LAS format log file from PETREL
# Project units are specified as depth units
#==================================================================
~Version information
VERS.   2.0:
WRAP.   NO:
#==================================================================
~Well
STRT .m      1450.0000000 :
STOP .m      1660.0000000 :
STEP .m     0.12500000 :
NULL .        -999.250000 :
COMP.           : COMPANY
WELL.  5-17   : WELL
FLD.            : FIELD
LOC.            : LOCATION
SRVC.           : SERVICE COMPANY
DATE.  2020-03-08 09:25:10   : Log Export Date {yyyy-MM-dd HH:mm:ss}
PROV.           : PROVINCE
UWI.      : UNIQUE WELL ID
API.            : API NUMBER
#==================================================================
~Curve
DEPT .m                   : DEPTH
RT .ohm.m                 : RT
SP .                      : SP
Fluids .                  : Fluids
POR .m3/m3                : POR
PERM .mD                  : PERM
Lith .                    : Lith
~Parameter
#==================================================================
~Ascii
# ...
 1613.1250000 15.967000008 6.7319998741 4.0000000000 20.000000000 1781.0000000 1.0000000000
 1613.2500000 11.833000183 5.4670000076 4.0000000000 20.000000000 1781.0000000 1.0000000000
 1613.3750000 7.4499998093 4.7870001793 4.0000000000 20.000000000 1781.0000000 1.0000000000
 1613.5000000 10.442999840 4.3600001335 4.0000000000 20.000000000 1781.0000000 1.0000000000
 1613.6250000 18.809999466 4.0029997826 4.0000000000 20.000000000 1781.0000000 1.0000000000
 1613.7500000 18.764999390 3.6849999428 4.0000000000 20.000000000 1781.0000000 1.0000000000
 1613.8750000 17.312999725 3.5130000114 4.0000000000 20.000000000 1781.0000000 1.0000000000
 1614.0000000 17.166000366 3.3540000916 4.0000000000 20.000000000 1781.0000000 1.0000000000
 1614.1250000 20.523000717 3.3529999256 4.0000000000 20.000000000 1781.0000000 1.0000000000
 1614.2500000 21.417999268 3.4260001183 4.0000000000 20.000000000 1781.0000000 1.0000000000
 1614.3750000 22.222999573 3.6119999886 4.0000000000 20.000000000 1781.0000000 1.0000000000
 1614.5000000 24.761999130 4.1389999390 4.0000000000 20.000000000 1781.0000000 1.0000000000
 1614.6250000 25.527999878 4.6799998283 4.0000000000 20.000000000 1781.0000000 1.0000000000
 1614.7500000 21.263999939 5.1430001259 4.0000000000 20.000000000 1781.0000000 1.0000000000
 1614.8750000 22.482999802 5.4850001335 4.0000000000 20.000000000 1781.0000000 1.0000000000
 1615.0000000 28.318000793 5.1950001717 4.0000000000 20.000000000 1781.0000000 1.0000000000
 1615.1250000 30.450000763 4.9840002060 4.0000000000 20.000000000 1781.0000000 1.0000000000
 1615.2500000 30.579000473 4.8460001945 4.0000000000 20.000000000 1781.0000000 1.0000000000
 1615.3750000 27.290000916 4.8439998627 4.0000000000 20.000000000 1781.0000000 1.0000000000
 1615.5000000 24.496999741 4.9770002365 4.0000000000 20.000000000 1781.0000000 1.0000000000
 1615.6250000 22.507999420 5.2870001793 4.0000000000 20.000000000 1781.0000000 1.0000000000
 1615.7500000 20.843000412 5.7969999313 4.0000000000 20.000000000 1781.0000000 1.0000000000
 1615.8750000 17.937999725 6.3649997711 4.0000000000 20.000000000 1781.0000000 1.0000000000
 1616.0000000 13.449999809 6.9819998741 4.0000000000 20.000000000 1781.0000000 1.0000000000
 1616.1250000 17.058000565 7.1160001755 4.0000000000 20.000000000 1781.0000000 1.0000000000
 1616.2500000 19.180999756 7.5219998360 4.0000000000 20.000000000 1781.0000000 1.0000000000
 1616.3750000 13.970000267 7.7960000038 4.0000000000 20.000000000 1781.0000000 1.0000000000
 1616.5000000 14.020000458 7.9549999237 4.0000000000 20.000000000 1781.0000000 1.0000000000
 1616.6250000 17.388000488 8.3229999542 4.0000000000 20.000000000 1781.0000000 1.0000000000
 1616.7500000 16.013999939 8.7740001678 4.0000000000 20.000000000 1781.0000000 1.0000000000
 1616.8750000 10.140000343 8.9300003052 4.0000000000 20.000000000 1781.0000000 1.0000000000
 1617.0000000 6.8359999657 7.8880000114 4.0000000000 20.000000000 1781.0000000 1.0000000000
 1617.1250000 8.6440000534 6.6539998055 4.0000000000 20.000000000 1781.0000000 1.0000000000
 1617.2500000 16.694999695 5.9340000153 4.0000000000 20.000000000 1781.0000000 1.0000000000
 1617.3750000 27.437000275 5.5219998360 4.0000000000 20.000000000 1781.0000000 1.0000000000
 1617.5000000 22.954000473 5.5209999084 4.0000000000 20.000000000 1781.0000000 1.0000000000
 1617.6250000 17.642999649 5.5780000687 4.0000000000 20.000000000 1781.0000000 1.0000000000
 1617.7500000 14.517000198 5.0640001297 4.0000000000 20.000000000 1781.0000000 1.0000000000
 1617.8750000 9.6169996262 4.4180002213 4.0000000000 20.000000000 1781.0000000 1.0000000000
 1618.0000000 29.836000443 3.8959999084 4.0000000000 20.000000000 1781.0000000 1.0000000000
 1618.1250000 28.097000122 3.6359999180 4.0000000000 20.000000000 1781.0000000 1.0000000000
 1618.2500000 26.534000397 3.8099999428 4.0000000000 20.000000000 1781.0000000 1.0000000000
 1618.3750000 24.139999390 4.1199998856 4.0000000000 20.000000000 1781.0000000 1.0000000000
 1618.5000000 31.968000412 4.6550002098 4.0000000000 20.000000000 1781.0000000 1.0000000000
 1618.6250000 29.607000351 5.5770001411 4.0000000000 20.000000000 1781.0000000 1.0000000000
 1618.7500000 22.552999496 6.9850001335 4.0000000000 20.000000000 1781.0000000 1.0000000000
 1618.8750000 14.125000000 7.8569998741 4.0000000000 20.000000000 1781.0000000 1.0000000000
 1619.0000000 8.3979997635 8.5139999390 4.0000000000 20.000000000 1781.0000000 1.0000000000
 1619.1250000 8.8640003204 8.8959999084 4.0000000000 20.000000000 1781.0000000 1.0000000000
 1619.2500000 9.1450004578 8.6420001984 4.0000000000 20.000000000 1781.0000000 1.0000000000
 1619.3750000 8.7299995422 8.3240003586 4.0000000000 20.000000000 1781.0000000 1.0000000000
 1619.5000000 9.5039997101 7.8709998131 4.0000000000 20.000000000 1781.0000000 1.0000000000
 1619.6250000 7.5890002251 7.0370001793 4.0000000000 20.000000000 1781.0000000 1.0000000000
 1619.7500000 8.2779998779 5.9679999352 4.0000000000 20.000000000 1781.0000000 1.0000000000
 1619.8750000 13.324999809 5.0170001984 4.0000000000 20.000000000 1781.0000000 1.0000000000
 1620.0000000 23.517000198 4.6209998131 4.0000000000 20.000000000 1781.0000000 1.0000000000
 1620.1250000 24.743999481 4.4239997864 4.0000000000 20.000000000 1781.0000000 1.0000000000
 1620.2500000 16.670999527 4.6110000610 4.0000000000 20.000000000 1781.0000000 1.0000000000
 1620.3750000 15.116000175 4.8179998398 4.0000000000 20.000000000 1781.0000000 1.0000000000
 1620.5000000 16.322000504 5.0970001221 4.0000000000 20.000000000 1781.0000000 1.0000000000
 1620.6250000 19.802000046 5.4200000763 4.0000000000 20.000000000 1781.0000000 1.0000000000
 1620.7500000 22.607999802 5.8839998245 4.0000000000 20.000000000 1781.0000000 1.0000000000
 1620.8750000 20.481000900 6.7109999657 4.0000000000 20.000000000 1781.0000000 1.0000000000
 1621.0000000 13.288999557 7.6950001717 4.0000000000 20.000000000 1781.0000000 1.0000000000
 1621.1250000 10.515000343 8.6560001373 4.0000000000 20.000000000 1781.0000000 1.0000000000
 1621.2500000 11.053000450 9.4799995422 4.0000000000 20.000000000 1781.0000000 1.0000000000
 1621.3750000 9.1359996796 9.9139995575 4.0000000000 20.000000000 1781.0000000 1.0000000000
 1621.5000000 8.8079996109 10.229999542 4.0000000000 20.000000000 1781.0000000 1.0000000000
 1621.6250000 7.2729997635 10.392999649 4.0000000000 20.000000000 1781.0000000 1.0000000000
 1621.7500000 7.9060001373 10.230999947 4.0000000000 20.000000000 1781.0000000 1.0000000000
 1621.8750000 9.3260002136 9.7539997101 4.0000000000 20.000000000 1781.0000000 1.0000000000
 1622.0000000 9.3100004196 9.4379997253 4.0000000000 20.000000000 1781.0000000 1.0000000000
 1622.1250000 8.0000000000 9.2309999466 4.0000000000 20.000000000 1781.0000000 1.0000000000
 1622.2500000 11.656999588 8.2899999619 4.0000000000 20.000000000 1781.0000000 1.0000000000
 1622.3750000 16.150999069 7.8940000534 4.0000000000 20.000000000 1781.0000000 1.0000000000
 1622.5000000 15.227999687 7.9670000076 4.0000000000 20.000000000 1781.0000000 1.0000000000
 1622.6250000 8.5900001526 8.0609998703 4.0000000000 20.000000000 1781.0000000 1.0000000000
 1622.7500000 12.305000305 7.5840001106 4.0000000000 20.000000000 1781.0000000 1.0000000000
 1622.8750000 15.227000237 7.6389999390 4.0000000000 20.000000000 1781.0000000 1.0000000000
 1623.0000000 14.449999809 8.0520000458 4.0000000000 20.000000000 1781.0000000 1.0000000000
 1623.1250000 9.9219999313 8.4530000687 4.0000000000 20.000000000 1781.0000000 1.0000000000
 1623.2500000 8.6199998856 8.7950000763 4.0000000000 20.000000000 1781.0000000 1.0000000000
 1623.3750000 9.6450004578 8.8050003052 4.0000000000 20.000000000 1781.0000000 1.0000000000
 1623.5000000 8.2469997406 8.6979999542 4.0000000000 20.000000000 1781.0000000 1.0000000000
 1623.6250000 9.3350000381 8.5579996109 4.0000000000 20.000000000 1781.0000000 1.0000000000
 1623.7500000 16.173000336 8.2279996872 4.0000000000 20.000000000 1781.0000000 1.0000000000
 1623.8750000 12.093000412 7.6560001373 4.0000000000 20.000000000 1781.0000000 1.0000000000
