# LAS format log file from PETREL
# Project units are specified as depth units
#==================================================================
~Version information
VERS.   2.0:
WRAP.   NO:
#==================================================================
~Well
STRT .m      1450.0000000 :
STOP .m      1720.0000000 :
STEP .m     0.12500000 :
NULL .        -999.250000 :
COMP.           : COMPANY
WELL.  5-17C   : WELL
FLD.            : FIELD
LOC.            : LOCATION
SRVC.           : SERVICE COMPANY
DATE.  2020-03-08 09:25:10   : Log Export Date {yyyy-MM-dd HH:mm:ss}
PROV.           : PROVINCE
UWI.      : UNIQUE WELL ID
API.            : API NUMBER
#==================================================================
~Curve
DEPT .m                   : DEPTH
RT .ohm.m                 : RT
SP .                      : SP
Fluids .                  : Fluids
POR .m3/m3                : POR
PERM .mD                  : PERM
Lith .                    : Lith
~Parameter
#==================================================================
~Ascii
# ...
 1591.3750000 2.1930000782 37.352001190  -999.250000 0.1000000015 0.1000000015 0.0000000000
 1591.5000000 2.2300000191 37.349998474  -999.250000 0.1000000015 0.1000000015 0.0000000000
 1591.6250000 2.2799999714 37.347999573  -999.250000 0.1000000015 0.1000000015 0.0000000000
 1591.7500000 2.3489999771 37.346000671  -999.250000 0.1000000015 0.1000000015 0.0000000000
 1591.8750000 2.4100000858 37.344001770  -999.250000 0.1000000015 0.1000000015 0.0000000000
 1592.0000000 2.5020000935 37.263999939  -999.250000 0.1000000015 0.1000000015 0.0000000000
 1592.1250000 2.5520000458 37.194999695  -999.250000 0.1000000015 0.1000000015 0.0000000000
 1592.2500000 2.6050000191 37.125999451  -999.250000 0.1000000015 0.1000000015 0.0000000000
 1592.3750000 2.6280000210 36.902999878  -999.250000 0.1000000015 0.1000000015 0.0000000000
 1592.5000000 2.6010000706 36.583000183  -999.250000 0.1000000015 0.1000000015 0.0000000000
 1592.6250000 2.5369999409 36.293998718  -999.250000 0.1000000015 0.1000000015 0.0000000000
 1592.7500000 2.4760000706 36.118000031  -999.250000 0.1000000015 0.1000000015 0.0000000000
 1592.8750000 2.3840000629 35.942001343  -999.250000 0.1000000015 0.1000000015 0.0000000000
 1593.0000000 2.3299999237 35.626998901  -999.250000 0.1000000015 0.1000000015 0.0000000000
 1593.1250000 2.2750000954 35.286998749  -999.250000 0.1000000015 0.1000000015 0.0000000000
 1593.2500000 2.2179999352 34.993000031  -999.250000 0.1000000015 0.1000000015 0.0000000000
 1593.3750000 2.1730000973 34.639999390  -999.250000 0.1000000015 0.1000000015 0.0000000000
 1593.5000000 2.1319999695 34.349998474  -999.250000 0.1000000015 0.1000000015 0.0000000000
 1593.6250000 2.0910000801 33.985000610  -999.250000 0.1000000015 0.1000000015 0.0000000000
 1593.7500000 2.0369999409 33.479999542  -999.250000 0.1000000015 0.1000000015 0.0000000000
 1593.8750000 2.0290000439 32.705001831  -999.250000 0.1000000015 0.1000000015 0.0000000000
 1594.0000000 2.0000000000 31.920999527  -999.250000 0.1000000015 0.1000000015 0.0000000000
 1594.1250000 1.9889999628 31.243999481  -999.250000 0.1000000015 0.1000000015 0.0000000000
 1594.2500000 1.9769999981 30.652999878  -999.250000 0.1000000015 0.1000000015 0.0000000000
 1594.3750000 1.9750000238 29.959999084  -999.250000 0.1000000015 0.1000000015 0.0000000000
 1594.5000000 1.9739999771 29.438999176  -999.250000 0.1000000015 0.1000000015 0.0000000000
 1594.6250000 1.9320000410 28.981000900  -999.250000 0.1000000015 0.1000000015 0.0000000000
 1594.7500000 1.9249999523 28.423000336  -999.250000 0.1000000015 0.1000000015 0.0000000000
 1594.8750000 1.9220000505 28.115999222  -999.250000 0.1000000015 0.1000000015 0.0000000000
 1595.0000000 1.9210000038 27.808000565  -999.250000 0.1000000015 0.1000000015 0.0000000000
 1595.1250000 1.9190000296 27.483999252  -999.250000 0.1000000015 0.1000000015 0.0000000000
 1595.2500000 1.9830000401 27.145999908  -999.250000 0.1000000015 0.1000000015 0.0000000000
 1595.3750000 2.4119999409 26.806999207  -999.250000 0.1000000015 0.1000000015 0.0000000000
 1595.5000000 2.6600000858 26.420000076  -999.250000 0.1000000015 0.1000000015 0.0000000000
 1595.6250000 2.9230000973 26.031000137  -999.250000 0.1000000015 0.1000000015 0.0000000000
 1595.7500000 3.1919999123 25.725999832  -999.250000 0.1000000015 0.1000000015 0.0000000000
 1595.8750000 3.4010000229 25.420999527  -999.250000 0.1000000015 0.1000000015 0.0000000000
 1596.0000000 3.5490000248 25.031999588  -999.250000 0.1000000015 0.1000000015 0.0000000000
 1596.1250000 3.6340000629 24.642000198  -999.250000 0.1000000015 0.1000000015 0.0000000000
 1596.2500000 3.6970000267 24.177000046  -999.250000 0.1000000015 0.1000000015 0.0000000000
 1596.3750000 3.7369999886 23.840999603  -999.250000 0.1000000015 0.1000000015 0.0000000000
 1596.5000000 3.8020000458 23.558000565  -999.250000 0.1000000015 0.1000000015 0.0000000000
 1596.6250000 3.8610000610 23.509000778  -999.250000 0.1000000015 0.1000000015 0.0000000000
 1596.7500000 3.9059998989 23.488000870  -999.250000 0.1000000015 0.1000000015 0.0000000000
 1596.8750000 3.9509999752 23.479000092  -999.250000 0.1000000015 0.1000000015 0.0000000000
 1597.0000000 3.9790000916 23.475000381  -999.250000 0.1000000015 0.1000000015 0.0000000000
 1597.1250000 3.9930000305 23.544000626  -999.250000 0.1000000015 0.1000000015 0.0000000000
 1597.2500000 3.9969999790 23.622999191  -999.250000 0.1000000015 0.1000000015 0.0000000000
 1597.3750000 4.0009999275 23.725000381  -999.250000 0.1000000015 0.1000000015 0.0000000000
 1597.5000000 4.0009999275 23.771999359  -999.250000 0.1000000015 0.1000000015 0.0000000000
 1597.6250000 4.0000000000 23.843000412  -999.250000 0.1000000015 0.1000000015 0.0000000000
 1597.7500000 3.9990000725 23.913999557  -999.250000 0.1000000015 0.1000000015 0.0000000000
 1597.8750000 3.9979999065 23.954000473  -999.250000 0.1000000015 0.1000000015 0.0000000000
 1598.0000000 3.9969999790 23.995000839  -999.250000 0.1000000015 0.1000000015 0.0000000000
 1598.1250000 3.9670000076 24.010999680  -999.250000 0.1000000015 0.1000000015 0.0000000000
 1598.2500000 3.9219999313 23.954000473  -999.250000 0.1000000015 0.1000000015 0.0000000000
 1598.3750000 3.8689999580 23.930000305  -999.250000 0.1000000015 0.1000000015 0.0000000000
 1598.5000000 3.8269999027 23.906000137  -999.250000 0.1000000015 0.1000000015 0.0000000000
 1598.6250000 3.7769999504 23.826999664  -999.250000 0.1000000015 0.1000000015 0.0000000000
 1598.7500000 3.7219998837 23.715999603  -999.250000 0.1000000015 0.1000000015 0.0000000000
 1598.8750000 3.6659998894 23.556999207  -999.250000 0.1000000015 0.1000000015 0.0000000000
 1599.0000000 3.5950000286 23.270999908  -999.250000 0.1000000015 0.1000000015 0.0000000000
 1599.1250000 3.5599999428 19.187999725  -999.250000 0.1000000015 0.1000000015 0.0000000000
 1599.2500000 3.5480000973 16.691999435  -999.250000 0.1000000015 0.1000000015 0.0000000000
 1599.3750000 3.5360000134 15.199999809  -999.250000 0.1000000015 0.1000000015 0.0000000000
 1599.5000000 3.5350000858 13.914999962  -999.250000 0.1000000015 0.1000000015 0.0000000000
 1599.6250000 3.5639998913 12.630000114  -999.250000 0.1000000015 0.1000000015 0.0000000000
 1599.7500000 3.6400001049 11.493000031  -999.250000 0.1000000015 0.1000000015 0.0000000000
 1599.8750000 3.6889998913 10.395000458  -999.250000 0.1000000015 0.1000000015 0.0000000000
 1600.0000000 3.7400000095 9.2440004349  -999.250000 0.1000000015 0.1000000015 0.0000000000
 1600.1250000 3.8239998817 8.2329998016  -999.250000 0.1000000015 0.1000000015 0.0000000000
 1600.2500000 3.9230000973 7.5289998055  -999.250000 0.1000000015 0.1000000015 0.0000000000
 1600.3750000 4.0630002022 6.7049999237  -999.250000 0.1000000015 0.1000000015 0.0000000000
 1600.5000000 4.1810002327 5.9840002060  -999.250000 0.1000000015 0.1000000015 0.0000000000
 1600.6250000 4.3540000916 5.3959999084  -999.250000 0.1000000015 0.1000000015 0.0000000000
 1600.7500000 4.5229997635 4.9340000153  -999.250000 0.1000000015 0.1000000015 0.0000000000
 1600.8750000 4.6519999504 4.5139999390  -999.250000 0.1000000015 0.1000000015 0.0000000000
 1601.0000000 3.9260001183 4.1139998436  -999.250000 0.1000000015 0.1000000015 0.0000000000
 1601.1250000 4.3280000687 3.6270000935  -999.250000 0.1000000015 0.1000000015 0.0000000000
 1601.2500000 4.7309999466 3.1860001087  -999.250000 0.1000000015 0.1000000015 0.0000000000
 1601.3750000 5.2569999695 2.6129999161  -999.250000 0.1000000015 0.1000000015 0.0000000000
 1601.5000000 5.7989997864 2.1649999619  -999.250000 0.1000000015 0.1000000015 0.0000000000
 1601.6250000 6.3489999771 1.6610000134  -999.250000 0.1000000015 0.1000000015 0.0000000000
 1601.7500000 6.7630000114 1.9170000553  -999.250000 0.1000000015 0.1000000015 0.0000000000
 1601.8750000 7.2529997826 3.6940000057  -999.250000 0.1000000015 0.1000000015 0.0000000000
 1602.0000000 7.7789998055 7.6310000420  -999.250000 0.1000000015 0.1000000015 0.0000000000
 1602.1250000 8.3229999542 9.4040002823  -999.250000 0.1000000015 0.1000000015 0.0000000000
