# LAS format log file from PETREL
# Project units are specified as depth units
#==================================================================
~Version information
VERS.   2.0:
WRAP.   NO:
#==================================================================
~Well
STRT .m      1385.0000000 :
STOP .m      1720.0000000 :
STEP .m     0.12500000 :
NULL .        -999.250000 :
COMP.           : COMPANY
WELL.  5-17C2   : WELL
FLD.            : FIELD
LOC.            : LOCATION
SRVC.           : SERVICE COMPANY
DATE.  2020-03-08 09:25:10   : Log Export Date {yyyy-MM-dd HH:mm:ss}
PROV.           : PROVINCE
UWI.      : UNIQUE WELL ID
API.            : API NUMBER
#==================================================================
~Curve
DEPT .m                   : DEPTH
RT .ohm.m                 : RT
SP .                      : SP
Fluids .                  : Fluids
POR .m3/m3                : POR
PERM .mD                  : PERM
Lith .                    : Lith
~Parameter
#==================================================================
~Ascii
# ...
 1569.8750000 2.1770000458 64.259002686  -999.250000  -999.250000  -999.250000  -999.250000
 1570.0000000 2.2599999905 64.218002319  -999.250000  -999.250000  -999.250000  -999.250000
 1570.1250000 2.3770000935 64.161003113  -999.250000  -999.250000  -999.250000  -999.250000
 1570.2500000 2.5360000134 64.087997437  -999.250000  -999.250000  -999.250000  -999.250000
 1570.3750000 2.7039999962 63.972000122  -999.250000  -999.250000  -999.250000  -999.250000
 1570.5000000 2.8599998951 63.807998657  -999.250000  -999.250000  -999.250000  -999.250000
 1570.6250000 2.9849998951 63.610000610  -999.250000  -999.250000  -999.250000  -999.250000
 1570.7500000 3.0710000992 63.402999878  -999.250000  -999.250000  -999.250000  -999.250000
 1570.8750000 3.1389999390 63.210998535  -999.250000  -999.250000  -999.250000  -999.250000
 1571.0000000 3.2019999027 63.029998779  -999.250000  -999.250000  -999.250000  -999.250000
 1571.1250000 3.2739999294 62.854999542  -999.250000  -999.250000  -999.250000  -999.250000
 1571.2500000 3.3399999142 62.647998810  -999.250000  -999.250000  -999.250000  -999.250000
 1571.3750000 3.3949999809 62.396999359  -999.250000  -999.250000  -999.250000  -999.250000
 1571.5000000 3.4330000877 62.097999573  -999.250000  -999.250000  -999.250000  -999.250000
 1571.6250000 3.4739999771 61.777000427  -999.250000  -999.250000  -999.250000  -999.250000
 1571.7500000 3.5420000553 61.458999634  -999.250000  -999.250000  -999.250000  -999.250000
 1571.8750000 3.6389999390 61.151000977 0.0000000000 8.0000000000 5.0000000000 1.0000000000
 1572.0000000 3.7349998951 60.868000031 0.0000000000 8.0000000000 5.0000000000 1.0000000000
 1572.1250000 3.8259999752 60.602001190 0.0000000000 8.0000000000 5.0000000000 1.0000000000
 1572.2500000 3.8650000095 60.375000000 0.0000000000 8.0000000000 5.0000000000 1.0000000000
 1572.3750000 3.8350000381 60.187999725  -999.250000 0.1000000015 0.1000000015 0.0000000000
 1572.5000000 3.7420001030 60.060001373  -999.250000 0.1000000015 0.1000000015 0.0000000000
 1572.6250000 3.6510000229 59.986999512 3.0000000000 9.0000000000 16.000000000 1.0000000000
 1572.7500000 3.5699999332 59.970001221 3.0000000000 9.0000000000 16.000000000 1.0000000000
 1572.8750000 3.4330000877 59.998001099 3.0000000000 9.0000000000 16.000000000 1.0000000000
 1573.0000000 3.3389999866 60.063999176 3.0000000000 9.0000000000 16.000000000 1.0000000000
 1573.1250000 3.3759999275 60.176998138 3.0000000000 9.0000000000 16.000000000 1.0000000000
 1573.2500000 3.5390000343 60.333000183 3.0000000000 9.0000000000 16.000000000 1.0000000000
 1573.3750000 3.6930000782 60.556999207 3.0000000000 9.0000000000 16.000000000 1.0000000000
 1573.5000000 3.7820000648 60.838001251 3.0000000000 9.0000000000 16.000000000 1.0000000000
 1573.6250000 3.8429999352 61.172000885 3.0000000000 9.0000000000 16.000000000 1.0000000000
 1573.7500000 3.8800001144 61.534000397 3.0000000000 9.0000000000 16.000000000 1.0000000000
 1573.8750000 3.9660000801 61.915000916 3.0000000000 9.0000000000 16.000000000 1.0000000000
 1574.0000000 4.1339998245 62.296001434 3.0000000000 9.0000000000 16.000000000 1.0000000000
 1574.1250000 4.4210000038 62.658000946 3.0000000000 9.0000000000 16.000000000 1.0000000000
 1574.2500000 4.8210000992 62.999000549 3.0000000000 9.0000000000 16.000000000 1.0000000000
 1574.3750000 5.2309999466 63.308998108 3.0000000000 9.0000000000 16.000000000 1.0000000000
 1574.5000000 5.5380001068 63.599998474  -999.250000 0.1000000015 0.1000000015 0.0000000000
 1574.6250000 5.7129998207 63.872001648  -999.250000 0.1000000015 0.1000000015 0.0000000000
 1574.7500000 5.6880002022 64.135002136  -999.250000 0.1000000015 0.1000000015 0.0000000000
 1574.8750000 5.4219999313 64.376998901  -999.250000 0.1000000015 0.1000000015 0.0000000000
 1575.0000000 4.9320001602 64.591003418  -999.250000 0.1000000015 0.1000000015 0.0000000000
 1575.1250000 4.4180002213 64.764999390  -999.250000 0.1000000015 0.1000000015 0.0000000000
 1575.2500000 4.0409998894 64.888000488  -999.250000 0.1000000015 0.1000000015 0.0000000000
 1575.3750000 3.7860000134 64.970001221  -999.250000 0.1000000015 0.1000000015 0.0000000000
 1575.5000000 3.5969998837 65.013000488  -999.250000 0.1000000015 0.1000000015 0.0000000000
 1575.6250000 3.4479999542 65.047996521  -999.250000 0.1000000015 0.1000000015 0.0000000000
 1575.7500000 3.3059999943 65.072998047  -999.250000 0.1000000015 0.1000000015 0.0000000000
 1575.8750000 3.1659998894 65.094001770  -999.250000 0.1000000015 0.1000000015 0.0000000000
 1576.0000000 3.0329999924 65.094001770  -999.250000 0.1000000015 0.1000000015 0.0000000000
 1576.1250000 2.9449999332 65.085998535  -999.250000 0.1000000015 0.1000000015 0.0000000000
 1576.2500000 2.8889999390 65.081001282  -999.250000 0.1000000015 0.1000000015 0.0000000000
 1576.3750000 2.8640000820 65.079002380  -999.250000 0.1000000015 0.1000000015 0.0000000000
 1576.5000000 2.8529999256 65.088996887  -999.250000 0.1000000015 0.1000000015 0.0000000000
 1576.6250000 2.8610000610 65.100997925  -999.250000 0.1000000015 0.1000000015 0.0000000000
 1576.7500000 2.8670001030 65.125999451  -999.250000 0.1000000015 0.1000000015 0.0000000000
 1576.8750000 2.8719999790 65.146003723  -999.250000 0.1000000015 0.1000000015 0.0000000000
 1577.0000000 2.8729999065 65.166000366  -999.250000 0.1000000015 0.1000000015 0.0000000000
 1577.1250000 2.8699998856 65.168998718  -999.250000 0.1000000015 0.1000000015 0.0000000000
 1577.2500000 2.8759999275 65.166999817  -999.250000 0.1000000015 0.1000000015 0.0000000000
 1577.3750000 2.8929998875 65.166000366  -999.250000 0.1000000015 0.1000000015 0.0000000000
 1577.5000000 2.8989999294 65.168998718  -999.250000 0.1000000015 0.1000000015 0.0000000000
 1577.6250000 2.8489999771 65.180000305  -999.250000 0.1000000015 0.1000000015 0.0000000000
 1577.7500000 2.7520000935 65.180000305  -999.250000 0.1000000015 0.1000000015 0.0000000000
 1577.8750000 2.6270000935 65.178001404  -999.250000 0.1000000015 0.1000000015 0.0000000000
 1578.0000000 2.4779999256 65.166999817  -999.250000 0.1000000015 0.1000000015 0.0000000000
 1578.1250000 2.3399999142 65.165000916  -999.250000 0.1000000015 0.1000000015 0.0000000000
 1578.2500000 2.2019999027 65.160003662  -999.250000 0.1000000015 0.1000000015 0.0000000000
 1578.3750000 2.1070001125 65.158996582  -999.250000 0.1000000015 0.1000000015 0.0000000000
 1578.5000000 2.0280001163 65.156997681  -999.250000 0.1000000015 0.1000000015 0.0000000000
 1578.6250000 1.9789999723 65.146003723  -999.250000 0.1000000015 0.1000000015 0.0000000000
 1578.7500000 1.9720000029 65.132003784  -999.250000 0.1000000015 0.1000000015 0.0000000000
 1578.8750000 2.0250000954 65.119003296  -999.250000 0.1000000015 0.1000000015 0.0000000000
 1579.0000000 2.1199998856 65.119003296  -999.250000 0.1000000015 0.1000000015 0.0000000000
 1579.1250000 2.2479999065 65.119003296  -999.250000 0.1000000015 0.1000000015 0.0000000000
 1579.2500000 2.4089999199 65.125000000  -999.250000 0.1000000015 0.1000000015 0.0000000000
 1579.3750000 2.5350000858 65.124000549  -999.250000 0.1000000015 0.1000000015 0.0000000000
 1579.5000000 2.5559999943 65.107002258  -999.250000 0.1000000015 0.1000000015 0.0000000000
 1579.6250000 2.4340000153 65.067001343  -999.250000 0.1000000015 0.1000000015 0.0000000000
 1579.7500000 2.1989998817 65.013999939  -999.250000 0.1000000015 0.1000000015 0.0000000000
 1579.8750000 1.9379999638 64.969001770  -999.250000 0.1000000015 0.1000000015 0.0000000000
 1580.0000000 1.7439999580 64.928001404  -999.250000 0.1000000015 0.1000000015 0.0000000000
 1580.1250000 1.6779999733 64.891998291  -999.250000 0.1000000015 0.1000000015 0.0000000000
 1580.2500000 1.6729999781 64.832000732  -999.250000 0.1000000015 0.1000000015 0.0000000000
 1580.3750000 1.7020000219 64.751998901  -999.250000 0.1000000015 0.1000000015 0.0000000000
 1580.5000000 1.7389999628 64.649002075  -999.250000 0.1000000015 0.1000000015 0.0000000000
 1580.6250000 1.7749999762 64.549003601  -999.250000 0.1000000015 0.1000000015 0.0000000000
