# LAS format log file from PETREL
# Project units are specified as depth units
#==================================================================
~Version information
VERS.   2.0:
WRAP.   NO:
#==================================================================
~Well
STRT .m      1385.0000000 :
STOP .m      1720.0000000 :
STEP .m     0.12500000 :
NULL .        -999.250000 :
COMP.           : COMPANY
WELL.  5-17C2   : WELL
FLD.            : FIELD
LOC.            : LOCATION
SRVC.           : SERVICE COMPANY
DATE.  2020-03-08 09:25:10   : Log Export Date {yyyy-MM-dd HH:mm:ss}
PROV.           : PROVINCE
UWI.      : UNIQUE WELL ID
API.            : API NUMBER
#==================================================================
~Curve
DEPT .m                   : DEPTH
RT .ohm.m                 : RT
SP .                      : SP
Fluids .                  : Fluids
POR .m3/m3                : POR
PERM .mD                  : PERM
Lith .                    : Lith
~Parameter
#==================================================================
~Ascii
# ...
 1689.5000000 2.5759999752 66.027999878  -999.250000 0.1000000015 0.1000000015 0.0000000000
 1689.6250000 2.5650000572 65.999000549  -999.250000 0.1000000015 0.1000000015 0.0000000000
 1689.7500000 2.5439999104 65.980003357  -999.250000 0.1000000015 0.1000000015 0.0000000000
 1689.8750000 2.5260000229 65.967002869  -999.250000 0.1000000015 0.1000000015 0.0000000000
 1690.0000000 2.5309998989 65.959999084  -999.250000 0.1000000015 0.1000000015 0.0000000000
 1690.1250000 2.6070001125 65.954002380  -999.250000 0.1000000015 0.1000000015 0.0000000000
 1690.2500000 2.7119998932 65.944999695  -999.250000 0.1000000015 0.1000000015 0.0000000000
 1690.3750000 2.8090000153 65.940002441  -999.250000 0.1000000015 0.1000000015 0.0000000000
 1690.5000000 2.8619999886 65.934997559  -999.250000 0.1000000015 0.1000000015 0.0000000000
 1690.6250000 2.8989999294 65.940002441  -999.250000 0.1000000015 0.1000000015 0.0000000000
 1690.7500000 2.9479999542 65.944000244  -999.250000 0.1000000015 0.1000000015 0.0000000000
 1690.8750000 3.0020000935 65.944999695  -999.250000 0.1000000015 0.1000000015 0.0000000000
 1691.0000000 3.0780000687 65.932998657  -999.250000 0.1000000015 0.1000000015 0.0000000000
 1691.1250000 3.1659998894 65.916000366  -999.250000 0.1000000015 0.1000000015 0.0000000000
 1691.2500000 3.2860000134 65.902000427  -999.250000 0.1000000015 0.1000000015 0.0000000000
 1691.3750000 3.4249999523 65.892997742  -999.250000 0.1000000015 0.1000000015 0.0000000000
 1691.5000000 3.5780000687 65.894996643  -999.250000 0.1000000015 0.1000000015 0.0000000000
 1691.6250000 3.6949999332 65.896003723  -999.250000 0.1000000015 0.1000000015 0.0000000000
 1691.7500000 3.7539999485 65.902999878  -999.250000 0.1000000015 0.1000000015 0.0000000000
 1691.8750000 3.7239999771 65.892997742  -999.250000 0.1000000015 0.1000000015 0.0000000000
 1692.0000000 3.6240000725 65.873001099  -999.250000 0.1000000015 0.1000000015 0.0000000000
 1692.1250000 3.5020000935 65.843002319  -999.250000 0.1000000015 0.1000000015 0.0000000000
 1692.2500000 3.3710000515 65.815002441  -999.250000 0.1000000015 0.1000000015 0.0000000000
 1692.3750000 3.2049999237 65.793998718  -999.250000 0.1000000015 0.1000000015 0.0000000000
 1692.5000000 2.9839999676 65.766998291  -999.250000 0.1000000015 0.1000000015 0.0000000000
 1692.6250000 2.7190001011 65.732002258  -999.250000 0.1000000015 0.1000000015 0.0000000000
 1692.7500000 2.4509999752 65.683998108  -999.250000 0.1000000015 0.1000000015 0.0000000000
 1692.8750000 2.2090001106 65.639999390  -999.250000 0.1000000015 0.1000000015 0.0000000000
 1693.0000000 2.0160000324 65.603996277  -999.250000 0.1000000015 0.1000000015 0.0000000000
 1693.1250000 1.8660000563 65.585998535  -999.250000 0.1000000015 0.1000000015 0.0000000000
 1693.2500000 1.7079999447 65.570999146  -999.250000 0.1000000015 0.1000000015 0.0000000000
 1693.3750000 1.5520000458 65.547996521  -999.250000 0.1000000015 0.1000000015 0.0000000000
 1693.5000000 1.4210000038 65.514999390  -999.250000 0.1000000015 0.1000000015 0.0000000000
 1693.6250000 1.3480000496 65.470001221  -999.250000 0.1000000015 0.1000000015 0.0000000000
 1693.7500000 1.3309999704 65.426002502  -999.250000 0.1000000015 0.1000000015 0.0000000000
 1693.8750000 1.3719999790 65.376998901  -999.250000 0.1000000015 0.1000000015 0.0000000000
 1694.0000000 1.4379999638 65.343002319  -999.250000 0.1000000015 0.1000000015 0.0000000000
 1694.1250000 1.5249999762 65.313003540  -999.250000 0.1000000015 0.1000000015 0.0000000000
 1694.2500000 1.6419999599 65.293998718  -999.250000 0.1000000015 0.1000000015 0.0000000000
 1694.3750000 1.7769999504 65.276000977  -999.250000 0.1000000015 0.1000000015 0.0000000000
 1694.5000000 1.9220000505 65.264999390  -999.250000 0.1000000015 0.1000000015 0.0000000000
 1694.6250000 2.0520000458 65.271003723  -999.250000 0.1000000015 0.1000000015 0.0000000000
 1694.7500000 2.2090001106 65.295997620  -999.250000 0.1000000015 0.1000000015 0.0000000000
 1694.8750000 2.4170000553 65.341003418  -999.250000 0.1000000015 0.1000000015 0.0000000000
 1695.0000000 2.6870000362 65.385002136  -999.250000 0.1000000015 0.1000000015 0.0000000000
 1695.1250000 3.0369999409 65.429000854  -999.250000 0.1000000015 0.1000000015 0.0000000000
 1695.2500000 3.4509999752 65.464996338  -999.250000 0.1000000015 0.1000000015 0.0000000000
 1695.3750000 3.9519999027 65.508003235  -999.250000 0.1000000015 0.1000000015 0.0000000000
 1695.5000000 4.4949998856 65.563003540  -999.250000 0.1000000015 0.1000000015 0.0000000000
 1695.6250000 5.0539999008 65.632003784  -999.250000 0.1000000015 0.1000000015 0.0000000000
 1695.7500000 5.5269999504 65.708000183  -999.250000 0.1000000015 0.1000000015 0.0000000000
 1695.8750000 5.8480000496 65.782997131  -999.250000 0.1000000015 0.1000000015 0.0000000000
 1696.0000000 5.9970002174 65.863998413  -999.250000 0.1000000015 0.1000000015 0.0000000000
 1696.1250000 5.9780001640 65.939002991  -999.250000 0.1000000015 0.1000000015 0.0000000000
 1696.2500000 5.8150000572 66.018997192  -999.250000 0.1000000015 0.1000000015 0.0000000000
 1696.3750000 5.5609998703 66.093002319  -999.250000 0.1000000015 0.1000000015 0.0000000000
 1696.5000000 5.2410001755 66.161003113  -999.250000 0.1000000015 0.1000000015 0.0000000000
 1696.6250000 4.8649997711 66.214996338  -999.250000 0.1000000015 0.1000000015 0.0000000000
 1696.7500000 4.4270000458 66.248001099  -999.250000 0.1000000015 0.1000000015 0.0000000000
 1696.8750000 3.9219999313 66.265998840  -999.250000 0.1000000015 0.1000000015 0.0000000000
 1697.0000000 3.3780000210 66.269996643  -999.250000 0.1000000015 0.1000000015 0.0000000000
 1697.1250000 2.8090000153 66.274002075  -999.250000 0.1000000015 0.1000000015 0.0000000000
 1697.2500000 2.2730000019 66.276000977  -999.250000 0.1000000015 0.1000000015 0.0000000000
 1697.3750000 1.7920000553 66.277000427  -999.250000 0.1000000015 0.1000000015 0.0000000000
 1697.5000000 1.4090000391 66.268997192  -999.250000 0.1000000015 0.1000000015 0.0000000000
 1697.6250000 1.1169999838 66.254997253  -999.250000 0.1000000015 0.1000000015 0.0000000000
 1697.7500000 0.9319999814 66.236999512  -999.250000 0.1000000015 0.1000000015 0.0000000000
 1697.8750000 0.8299999833 66.222000122  -999.250000 0.1000000015 0.1000000015 0.0000000000
 1698.0000000 0.7850000262 66.211997986  -999.250000 0.1000000015 0.1000000015 0.0000000000
 1698.1250000 0.7710000277 66.197998047  -999.250000 0.1000000015 0.1000000015 0.0000000000
 1698.2500000 0.7990000248 66.186996460  -999.250000 0.1000000015 0.1000000015 0.0000000000
 1698.3750000 0.8740000129 66.168998718  -999.250000 0.1000000015 0.1000000015 0.0000000000
 1698.5000000 0.9750000238 66.153999329  -999.250000 0.1000000015 0.1000000015 0.0000000000
 1698.6250000 1.0880000591 66.137001038  -999.250000 0.1000000015 0.1000000015 0.0000000000
 1698.7500000 1.2159999609 66.125999451  -999.250000 0.1000000015 0.1000000015 0.0000000000
 1698.8750000 1.3739999533 66.119003296  -999.250000 0.1000000015 0.1000000015 0.0000000000
 1699.0000000 1.5579999685 66.111000061  -999.250000 0.1000000015 0.1000000015 0.0000000000
 1699.1250000 1.7640000582 66.110000610  -999.250000 0.1000000015 0.1000000015 0.0000000000
 1699.2500000 1.9720000029 66.111999512  -999.250000 0.1000000015 0.1000000015 0.0000000000
 1699.3750000 2.1909999847 66.126998901  -999.250000 0.1000000015 0.1000000015 0.0000000000
 1699.5000000 2.4059998989 66.144996643  -999.250000 0.1000000015 0.1000000015 0.0000000000
 1699.6250000 2.5889999866 66.165000916  -999.250000 0.1000000015 0.1000000015 0.0000000000
 1699.7500000 2.7190001011 66.192001343  -999.250000 0.1000000015 0.1000000015 0.0000000000
 1699.8750000 2.7980000973 66.213996887  -999.250000 0.1000000015 0.1000000015 0.0000000000
 1700.0000000 2.8350000381 66.228996277  -999.250000 0.1000000015 0.1000000015 0.0000000000
 1700.1250000 2.8450000286 66.231002808  -999.250000 0.1000000015 0.1000000015 0.0000000000
 1700.2500000 2.8399999142 66.230003357  -999.250000 0.1000000015 0.1000000015 0.0000000000
