# LAS format log file from PETREL
# Project units are specified as depth units
#==================================================================
~Version information
VERS.   2.0:
WRAP.   NO:
#==================================================================
~Well
STRT .m      1350.0000000 :
STOP .m      1720.0000000 :
STEP .m     0.12500000 :
NULL .        -999.250000 :
COMP.           : COMPANY
WELL.  5-172C   : WELL
FLD.            : FIELD
LOC.            : LOCATION
SRVC.           : SERVICE COMPANY
DATE.  2020-03-08 09:25:10   : Log Export Date {yyyy-MM-dd HH:mm:ss}
PROV.           : PROVINCE
UWI.      : UNIQUE WELL ID
API.            : API NUMBER
#==================================================================
~Curve
DEPT .m                   : DEPTH
RT .ohm.m                 : RT
SP .                      : SP
Fluids .                  : Fluids
POR .m3/m3                : POR
PERM .mD                  : PERM
Lith .                    : Lith
~Parameter
#==================================================================
~Ascii
# ...
 1567.5000000 1.3109999895 16.169000626  -999.250000 0.1000000015 0.1000000015 0.0000000000
 1567.6250000 1.3099999428 16.118000031  -999.250000 0.1000000015 0.1000000015 0.0000000000
 1567.7500000 1.3099999428 16.066999435  -999.250000 0.1000000015 0.1000000015 0.0000000000
 1567.8750000 1.3099999428 16.062000275  -999.250000 0.1000000015 0.1000000015 0.0000000000
 1568.0000000 1.3300000429 16.059999466  -999.250000 0.1000000015 0.1000000015 0.0000000000
 1568.1250000 1.3500000238 16.058000565  -999.250000 0.1000000015 0.1000000015 0.0000000000
 1568.2500000 1.3960000277 16.058000565  -999.250000 0.1000000015 0.1000000015 0.0000000000
 1568.3750000 1.4049999714 16.058000565  -999.250000 0.1000000015 0.1000000015 0.0000000000
 1568.5000000 1.4470000267 16.058000565  -999.250000 0.1000000015 0.1000000015 0.0000000000
 1568.6250000 1.4889999628 16.059000015  -999.250000 0.1000000015 0.1000000015 0.0000000000
 1568.7500000 1.5429999828 16.059000015  -999.250000 0.1000000015 0.1000000015 0.0000000000
 1568.8750000 1.6030000448 16.059000015  -999.250000 0.1000000015 0.1000000015 0.0000000000
 1569.0000000 1.6649999619 16.059999466  -999.250000 0.1000000015 0.1000000015 0.0000000000
 1569.1250000 1.7139999866 16.059999466  -999.250000 0.1000000015 0.1000000015 0.0000000000
 1569.2500000 1.7699999809 16.061000824  -999.250000 0.1000000015 0.1000000015 0.0000000000
 1569.3750000 1.7960000038 16.061000824  -999.250000 0.1000000015 0.1000000015 0.0000000000
 1569.5000000 1.8329999447 16.061000824  -999.250000 0.1000000015 0.1000000015 0.0000000000
 1569.6250000 1.8179999590 16.062000275  -999.250000 0.1000000015 0.1000000015 0.0000000000
 1569.7500000 1.8140000105 16.062000275  -999.250000 0.1000000015 0.1000000015 0.0000000000
 1569.8750000 1.7790000439 16.062000275  -999.250000 0.1000000015 0.1000000015 0.0000000000
 1570.0000000 1.7690000534 16.062999725  -999.250000 0.1000000015 0.1000000015 0.0000000000
 1570.1250000 1.7389999628 15.987000465  -999.250000 0.1000000015 0.1000000015 0.0000000000
 1570.2500000 1.7230000496 15.965000153  -999.250000 0.1000000015 0.1000000015 0.0000000000
 1570.3750000 1.7480000257 15.878999710  -999.250000 0.1000000015 0.1000000015 0.0000000000
 1570.5000000 1.7580000162 15.847000122  -999.250000 0.1000000015 0.1000000015 0.0000000000
 1570.6250000 1.7920000553 15.838000298  -999.250000 0.1000000015 0.1000000015 0.0000000000
 1570.7500000 1.8070000410 15.729999542  -999.250000 0.1000000015 0.1000000015 0.0000000000
 1570.8750000 1.7680000067 15.623000145  -999.250000 0.1000000015 0.1000000015 0.0000000000
 1571.0000000 1.7640000582 15.440999985  -999.250000 0.1000000015 0.1000000015 0.0000000000
 1571.1250000 1.7189999819 15.288999557  -999.250000 0.1000000015 0.1000000015 0.0000000000
 1571.2500000 1.7150000334 15.213000298  -999.250000 0.1000000015 0.1000000015 0.0000000000
 1571.3750000 1.7139999866 15.125000000  -999.250000 0.1000000015 0.1000000015 0.0000000000
 1571.5000000 1.6909999847 15.012999535  -999.250000 0.1000000015 0.1000000015 0.0000000000
 1571.6250000 1.6670000553 14.885999680  -999.250000 0.1000000015 0.1000000015 0.0000000000
 1571.7500000 1.6649999619 14.835000038  -999.250000 0.1000000015 0.1000000015 0.0000000000
 1571.8750000 1.6640000343 14.751000404  -999.250000 0.1000000015 0.1000000015 0.0000000000
 1572.0000000 1.7000000477 14.633000374  -999.250000 0.1000000015 0.1000000015 0.0000000000
 1572.1250000 1.7539999485 14.532999992  -999.250000 0.1000000015 0.1000000015 0.0000000000
 1572.2500000 1.8150000572 14.409000397  -999.250000 0.1000000015 0.1000000015 0.0000000000
 1572.3750000 1.8650000095 14.307999611  -999.250000 0.1000000015 0.1000000015 0.0000000000
 1572.5000000 1.8919999599 14.267000198  -999.250000 0.1000000015 0.1000000015 0.0000000000
 1572.6250000 1.9370000362 14.256999969  -999.250000 0.1000000015 0.1000000015 0.0000000000
 1572.7500000 1.9559999704 14.336000443  -999.250000 0.1000000015 0.1000000015 0.0000000000
 1572.8750000 2.0039999485 14.553999901  -999.250000 0.1000000015 0.1000000015 0.0000000000
 1573.0000000 2.0109999180 14.677000046  -999.250000 0.1000000015 0.1000000015 0.0000000000
 1573.1250000 2.0130000114 14.798999786  -999.250000 0.1000000015 0.1000000015 0.0000000000
 1573.2500000 2.0130000114 14.965000153  -999.250000 0.1000000015 0.1000000015 0.0000000000
 1573.3750000 1.9830000401 15.130999565  -999.250000 0.1000000015 0.1000000015 0.0000000000
 1573.5000000 1.9340000153 15.236000061  -999.250000 0.1000000015 0.1000000015 0.0000000000
 1573.6250000 1.8350000381 15.460000038  -999.250000 0.1000000015 0.1000000015 0.0000000000
 1573.7500000 1.7660000324 15.654000282  -999.250000 0.1000000015 0.1000000015 0.0000000000
 1573.8750000 1.7239999771 15.774000168  -999.250000 0.1000000015 0.1000000015 0.0000000000
 1574.0000000 1.7159999609 15.939999580  -999.250000 0.1000000015 0.1000000015 0.0000000000
 1574.1250000 1.6749999523 16.062999725  -999.250000 0.1000000015 0.1000000015 0.0000000000
 1574.2500000 1.6690000296 16.186000824  -999.250000 0.1000000015 0.1000000015 0.0000000000
 1574.3750000 1.6670000553 16.299999237  -999.250000 0.1000000015 0.1000000015 0.0000000000
 1574.5000000 1.6670000553 16.413999557  -999.250000 0.1000000015 0.1000000015 0.0000000000
 1574.6250000 1.7070000172 16.509000778  -999.250000 0.1000000015 0.1000000015 0.0000000000
 1574.7500000 1.7649999857 16.603000641  -999.250000 0.1000000015 0.1000000015 0.0000000000
 1574.8750000 1.8070000410 16.636999130  -999.250000 0.1000000015 0.1000000015 0.0000000000
 1575.0000000 1.8159999847 16.721000671  -999.250000 0.1000000015 0.1000000015 0.0000000000
 1575.1250000 1.9079999924 16.750999451  -999.250000 0.1000000015 0.1000000015 0.0000000000
 1575.2500000 2.0179998875 16.759000778  -999.250000 0.1000000015 0.1000000015 0.0000000000
 1575.3750000 2.1380000114 16.759000778  -999.250000 0.1000000015 0.1000000015 0.0000000000
 1575.5000000 2.1649999619 16.760000229  -999.250000 0.1000000015 0.1000000015 0.0000000000
 1575.6250000 2.1659998894 16.704999924  -999.250000 0.1000000015 0.1000000015 0.0000000000
 1575.7500000 2.1659998894 16.649999619  -999.250000 0.1000000015 0.1000000015 0.0000000000
 1575.8750000 1.1369999647 16.444000244  -999.250000 0.1000000015 0.1000000015 0.0000000000
 1576.0000000 0.7929999828 16.249000549  -999.250000 0.1000000015 0.1000000015 0.0000000000
 1576.1250000 0.7829999924 15.944000244  -999.250000 0.1000000015 0.1000000015 0.0000000000
 1576.2500000 0.7730000019 15.574999809  -999.250000 0.1000000015 0.1000000015 0.0000000000
 1576.3750000 0.7329999804 15.171999931  -999.250000 0.1000000015 0.1000000015 0.0000000000
 1576.5000000 0.7229999900 14.649999619  -999.250000 0.1000000015 0.1000000015 0.0000000000
 1576.6250000 0.7229999900 14.263999939  -999.250000 0.1000000015 0.1000000015 0.0000000000
 1576.7500000 0.7689999938 13.746999741  -999.250000 0.1000000015 0.1000000015 0.0000000000
 1576.8750000 1.2769999504 13.185000420  -999.250000 0.1000000015 0.1000000015 0.0000000000
 1577.0000000 1.7840000391 12.623000145  -999.250000 0.1000000015 0.1000000015 0.0000000000
 1577.1250000 1.9689999819 11.993000031  -999.250000 0.1000000015 0.1000000015 0.0000000000
 1577.2500000 2.1549999714 11.324000359  -999.250000 0.1000000015 0.1000000015 0.0000000000
 1577.3750000 2.4909999371 10.633000374  -999.250000 0.1000000015 0.1000000015 0.0000000000
 1577.5000000 2.6919999123 10.041000366  -999.250000 0.1000000015 0.1000000015 0.0000000000
 1577.6250000 2.8559999466 9.3819999695  -999.250000 0.1000000015 0.1000000015 0.0000000000
 1577.7500000 2.9939999580 8.5920000076  -999.250000 0.1000000015 0.1000000015 0.0000000000
 1577.8750000 3.0959999561 8.0080003738  -999.250000 0.1000000015 0.1000000015 0.0000000000
 1578.0000000 3.1770000458 7.4369997978  -999.250000 0.1000000015 0.1000000015 0.0000000000
 1578.1250000 3.2070000172 6.7410001755  -999.250000 0.1000000015 0.1000000015 0.0000000000
 1578.2500000 3.1789999008 6.0679998398  -999.250000 0.1000000015 0.1000000015 0.0000000000
