# LAS format log file from PETREL
# Project units are specified as depth units
#==================================================================
~Version information
VERS.   2.0:
WRAP.   NO:
#==================================================================
~Well
STRT .m      1300.0000000 :
STOP .m      1750.0000000 :
STEP .m     0.12500000 :
NULL .        -999.250000 :
COMP.           : COMPANY
WELL.  5-176   : WELL
FLD.            : FIELD
LOC.            : LOCATION
SRVC.           : SERVICE COMPANY
DATE.  2020-03-08 09:25:10   : Log Export Date {yyyy-MM-dd HH:mm:ss}
PROV.           : PROVINCE
UWI.      : UNIQUE WELL ID
API.            : API NUMBER
#==================================================================
~Curve
DEPT .m                   : DEPTH
RT .ohm.m                 : RT
SP .                      : SP
Fluids .                  : Fluids
POR .m3/m3                : POR
PERM .mD                  : PERM
Lith .                    : Lith
~Parameter
#==================================================================
~Ascii
# ...
 1637.1250000 2.2769999504 29.111000061  -999.250000 0.1000000015 0.1000000015 0.0000000000
 1637.2500000 2.2769999504 29.113000870  -999.250000 0.1000000015 0.1000000015 0.0000000000
 1637.3750000 2.2769999504 29.114000320  -999.250000 0.1000000015 0.1000000015 0.0000000000
 1637.5000000 2.2769999504 29.114999771  -999.250000 0.1000000015 0.1000000015 0.0000000000
 1637.6250000 2.2769999504 29.115999222  -999.250000 0.1000000015 0.1000000015 0.0000000000
 1637.7500000 2.2769999504 29.117000580  -999.250000 0.1000000015 0.1000000015 0.0000000000
 1637.8750000 2.2769999504 29.118000031  -999.250000 0.1000000015 0.1000000015 0.0000000000
 1638.0000000 2.2309999466 29.118999481  -999.250000 0.1000000015 0.1000000015 0.0000000000
 1638.1250000 2.2009999752 29.120000839  -999.250000 0.1000000015 0.1000000015 0.0000000000
 1638.2500000 2.1649999619 29.121000290  -999.250000 0.1000000015 0.1000000015 0.0000000000
 1638.3750000 2.1289999485 29.121999741  -999.250000 0.1000000015 0.1000000015 0.0000000000
 1638.5000000 2.1280000210 29.122999191  -999.250000 0.1000000015 0.1000000015 0.0000000000
 1638.6250000 2.1259999275 29.124000549  -999.250000 0.1000000015 0.1000000015 0.0000000000
 1638.7500000 2.1259999275 29.125000000  -999.250000 0.1000000015 0.1000000015 0.0000000000
 1638.8750000 2.1259999275 29.125999451  -999.250000 0.1000000015 0.1000000015 0.0000000000
 1639.0000000 2.1259999275 29.127000809  -999.250000 0.1000000015 0.1000000015 0.0000000000
 1639.1250000 2.1259999275 29.128000259  -999.250000 0.1000000015 0.1000000015 0.0000000000
 1639.2500000 2.1259999275 29.128999710  -999.250000 0.1000000015 0.1000000015 0.0000000000
 1639.3750000 2.1259999275 29.129999161  -999.250000 0.1000000015 0.1000000015 0.0000000000
 1639.5000000 2.1540000439 29.131000519  -999.250000 0.1000000015 0.1000000015 0.0000000000
 1639.6250000 2.1649999619 29.149000168  -999.250000 0.1000000015 0.1000000015 0.0000000000
 1639.7500000 2.1760001183 29.167999268  -999.250000 0.1000000015 0.1000000015 0.0000000000
 1639.8750000 2.2130000591 29.186000824  -999.250000 0.1000000015 0.1000000015 0.0000000000
 1640.0000000 2.2219998837 29.204000473  -999.250000 0.1000000015 0.1000000015 0.0000000000
 1640.1250000 2.2509999275 29.222000122  -999.250000 0.1000000015 0.1000000015 0.0000000000
 1640.2500000 2.2939999104 29.239999771  -999.250000 0.1000000015 0.1000000015 0.0000000000
 1640.3750000 2.3350000381 29.260999680  -999.250000 0.1000000015 0.1000000015 0.0000000000
 1640.5000000 2.3770000935 29.283000946  -999.250000 0.1000000015 0.1000000015 0.0000000000
 1640.6250000 2.3780000210 29.304000854  -999.250000 0.1000000015 0.1000000015 0.0000000000
 1640.7500000 2.4100000858 29.325000763  -999.250000 0.1000000015 0.1000000015 0.0000000000
 1640.8750000 2.4200000763 29.347000122  -999.250000 0.1000000015 0.1000000015 0.0000000000
 1641.0000000 2.4549999237 29.368000031 4.0000000000 18.000000000 1230.0000000 1.0000000000
 1641.1250000 2.4920001030 29.399000168 4.0000000000 18.000000000 1230.0000000 1.0000000000
 1641.2500000 2.5399999619 29.429000854 4.0000000000 18.000000000 1230.0000000 1.0000000000
 1641.3750000 2.5829999447 29.459999084 4.0000000000 18.000000000 1230.0000000 1.0000000000
 1641.5000000 2.6259999275 29.489999771 4.0000000000 18.000000000 1230.0000000 1.0000000000
 1641.6250000 2.7400000095 29.490999222 4.0000000000 18.000000000 1230.0000000 1.0000000000
 1641.7500000 2.7839999199 29.492000580 4.0000000000 18.000000000 1230.0000000 1.0000000000
 1641.8750000 2.8280000687 29.493999481 4.0000000000 18.000000000 1230.0000000 1.0000000000
 1642.0000000 2.8020000458 29.495000839 4.0000000000 18.000000000 1230.0000000 1.0000000000
 1642.1250000 2.7430000305 29.496000290 4.0000000000 18.000000000 1230.0000000 1.0000000000
 1642.2500000 2.6830000877 29.496999741 4.0000000000 18.000000000 1230.0000000 1.0000000000
 1642.3750000 2.5950000286 29.497999191 4.0000000000 18.000000000 1230.0000000 1.0000000000
 1642.5000000 2.5539999008 29.499000549 4.0000000000 18.000000000 1230.0000000 1.0000000000
 1642.6250000 2.5020000935 29.500000000 4.0000000000 18.000000000 1230.0000000 1.0000000000
 1642.7500000 2.4849998951 29.500999451 4.0000000000 18.000000000 1230.0000000 1.0000000000
 1642.8750000 2.4489998817 29.503000259 4.0000000000 18.000000000 1230.0000000 1.0000000000
 1643.0000000 2.4389998913 29.503999710 4.0000000000 18.000000000 1230.0000000 1.0000000000
 1643.1250000 2.4030001163 29.504999161 4.0000000000 18.000000000 1230.0000000 1.0000000000
 1643.2500000 2.3910000324 29.506000519 4.0000000000 18.000000000 1230.0000000 1.0000000000
 1643.3750000 2.3849999905 29.506999969 4.0000000000 18.000000000 1230.0000000 1.0000000000
 1643.5000000 2.3810000420 29.507999420 4.0000000000 18.000000000 1230.0000000 1.0000000000
 1643.6250000 2.3800001144 29.509000778 4.0000000000 18.000000000 1230.0000000 1.0000000000
 1643.7500000 2.3800001144 29.510000229 4.0000000000 18.000000000 1230.0000000 1.0000000000
 1643.8750000 2.3800001144 29.510999680 4.0000000000 18.000000000 1230.0000000 1.0000000000
 1644.0000000 2.3800001144 29.511999130 4.0000000000 18.000000000 1230.0000000 1.0000000000
 1644.1250000 2.4089999199 29.513000488 4.0000000000 18.000000000 1230.0000000 1.0000000000
 1644.2500000 2.4219999313 29.513999939 4.0000000000 18.000000000 1230.0000000 1.0000000000
 1644.3750000 2.4630000591 29.537000656 4.0000000000 18.000000000 1230.0000000 1.0000000000
 1644.5000000 2.5160000324 29.559999466 4.0000000000 18.000000000 1230.0000000 1.0000000000
 1644.6250000 2.5899999142 29.583999634 4.0000000000 18.000000000 1230.0000000 1.0000000000
 1644.7500000 2.6400001049 29.607000351 4.0000000000 18.000000000 1230.0000000 1.0000000000
 1644.8750000 2.7249999046 29.629999161 4.0000000000 18.000000000 1230.0000000 1.0000000000
 1645.0000000 2.7799999714 29.631999969 4.0000000000 18.000000000 1230.0000000 1.0000000000
 1645.1250000 2.8090000153 29.634000778 4.0000000000 18.000000000 1230.0000000 1.0000000000
 1645.2500000 2.8239998817 29.636999130 4.0000000000 18.000000000 1230.0000000 1.0000000000
 1645.3750000 2.8550000191 29.638000488  -999.250000 0.1000000015 0.1000000015 0.0000000000
 1645.5000000 2.8710000515 29.638999939  -999.250000 0.1000000015 0.1000000015 0.0000000000
 1645.6250000 2.8789999485 29.639999390  -999.250000 0.1000000015 0.1000000015 0.0000000000
 1645.7500000 2.8819999695 29.641000748  -999.250000 0.1000000015 0.1000000015 0.0000000000
 1645.8750000 2.8829998970 29.642000198 3.0000000000 14.000000000 124.00000000 1.0000000000
 1646.0000000 2.8829998970 29.642999649 3.0000000000 14.000000000 124.00000000 1.0000000000
 1646.1250000 2.8129999638 29.643999100 3.0000000000 14.000000000 124.00000000 1.0000000000
 1646.2500000 2.7109999657 29.645000458 3.0000000000 14.000000000 124.00000000 1.0000000000
 1646.3750000 2.5529999733 29.614000320 3.0000000000 14.000000000 124.00000000 1.0000000000
 1646.5000000 2.3949999809 29.583000183  -999.250000 0.1000000015 0.1000000015 0.0000000000
 1646.6250000 2.2230000496 29.552999496  -999.250000 0.1000000015 0.1000000015 0.0000000000
 1646.7500000 2.0920000076 29.520000458  -999.250000 0.1000000015 0.1000000015 0.0000000000
 1646.8750000 1.9450000525 29.488000870  -999.250000 0.1000000015 0.1000000015 0.0000000000
 1647.0000000 1.8880000114 29.455999374  -999.250000 0.1000000015 0.1000000015 0.0000000000
 1647.1250000 1.8320000172 29.447000504  -999.250000 0.1000000015 0.1000000015 0.0000000000
 1647.2500000 1.7910000086 29.438999176  -999.250000 0.1000000015 0.1000000015 0.0000000000
 1647.3750000 1.7369999886 29.430999756  -999.250000 0.1000000015 0.1000000015 0.0000000000
 1647.5000000 1.6959999800 29.398000717  -999.250000 0.1000000015 0.1000000015 0.0000000000
 1647.6250000 1.6849999428 29.364999771  -999.250000 0.1000000015 0.1000000015 0.0000000000
 1647.7500000 1.6480000019 29.332000732  -999.250000 0.1000000015 0.1000000015 0.0000000000
 1647.8750000 1.6089999676 29.326999664 4.0000000000 29.000000000 5800.0000000 1.0000000000
