# LAS format log file from PETREL
# Project units are specified as depth units
#==================================================================
~Version information
VERS.   2.0:
WRAP.   NO:
#==================================================================
~Well
STRT .m      1350.0000000 :
STOP .m      1720.0000000 :
STEP .m     0.12500000 :
NULL .        -999.250000 :
COMP.           : COMPANY
WELL.  5-172C   : WELL
FLD.            : FIELD
LOC.            : LOCATION
SRVC.           : SERVICE COMPANY
DATE.  2020-03-08 09:25:10   : Log Export Date {yyyy-MM-dd HH:mm:ss}
PROV.           : PROVINCE
UWI.      : UNIQUE WELL ID
API.            : API NUMBER
#==================================================================
~Curve
DEPT .m                   : DEPTH
RT .ohm.m                 : RT
SP .                      : SP
Fluids .                  : Fluids
POR .m3/m3                : POR
PERM .mD                  : PERM
Lith .                    : Lith
~Parameter
#==================================================================
~Ascii
# ...
 1513.1250000 1.6920000315 11.142999649  -999.250000 0.1000000015 0.1000000015 0.0000000000
 1513.2500000 1.6579999924 11.133999825  -999.250000 0.1000000015 0.1000000015 0.0000000000
 1513.3750000 1.6189999580 11.133999825  -999.250000 0.1000000015 0.1000000015 0.0000000000
 1513.5000000 1.6009999514 11.133999825  -999.250000 0.1000000015 0.1000000015 0.0000000000
 1513.6250000 1.5950000286 11.133999825  -999.250000 0.1000000015 0.1000000015 0.0000000000
 1513.7500000 1.5930000544 11.133999825  -999.250000 0.1000000015 0.1000000015 0.0000000000
 1513.8750000 1.5930000544 11.135000229  -999.250000 0.1000000015 0.1000000015 0.0000000000
 1514.0000000 1.5930000544 11.135000229  -999.250000 0.1000000015 0.1000000015 0.0000000000
 1514.1250000 1.6820000410 11.083000183  -999.250000 0.1000000015 0.1000000015 0.0000000000
 1514.2500000 1.7410000563 11.031999588  -999.250000 0.1000000015 0.1000000015 0.0000000000
 1514.3750000 1.7899999619 11.029999733  -999.250000 0.1000000015 0.1000000015 0.0000000000
 1514.5000000 1.8389999866 11.027000427  -999.250000 0.1000000015 0.1000000015 0.0000000000
 1514.6250000 1.8999999762 11.024999619  -999.250000 0.1000000015 0.1000000015 0.0000000000
 1514.7500000 1.9490000010 11.024999619  -999.250000 0.1000000015 0.1000000015 0.0000000000
 1514.8750000 2.0039999485 11.024999619  -999.250000 0.1000000015 0.1000000015 0.0000000000
 1515.0000000 2.0969998837 11.024999619  -999.250000 0.1000000015 0.1000000015 0.0000000000
 1515.1250000 2.1710000038 11.024999619  -999.250000 0.1000000015 0.1000000015 0.0000000000
 1515.2500000 2.1909999847 11.024999619  -999.250000 0.1000000015 0.1000000015 0.0000000000
 1515.3750000 2.2309999466 11.024999619  -999.250000 0.1000000015 0.1000000015 0.0000000000
 1515.5000000 2.2420001030 11.046999931  -999.250000 0.1000000015 0.1000000015 0.0000000000
 1515.6250000 2.2809998989 11.069000244  -999.250000 0.1000000015 0.1000000015 0.0000000000
 1515.7500000 2.2890000343 11.090999603  -999.250000 0.1000000015 0.1000000015 0.0000000000
 1515.8750000 2.2920000553 11.112999916  -999.250000 0.1000000015 0.1000000015 0.0000000000
 1516.0000000 2.2929999828 11.135000229  -999.250000 0.1000000015 0.1000000015 0.0000000000
 1516.1250000 2.2699999809 11.137000084  -999.250000 0.1000000015 0.1000000015 0.0000000000
 1516.2500000 2.2460000515 11.138999939  -999.250000 0.1000000015 0.1000000015 0.0000000000
 1516.3750000 2.1870000362 11.140999794  -999.250000 0.1000000015 0.1000000015 0.0000000000
 1516.5000000 2.1649999619 11.142000198  -999.250000 0.1000000015 0.1000000015 0.0000000000
 1516.6250000 2.1240000725 11.142000198  -999.250000 0.1000000015 0.1000000015 0.0000000000
 1516.7500000 2.0720000267 11.163999557  -999.250000 0.1000000015 0.1000000015 0.0000000000
 1516.8750000 2.0520000458 11.185999870  -999.250000 0.1000000015 0.1000000015 0.0000000000
 1517.0000000 2.0150001049 11.208000183  -999.250000 0.1000000015 0.1000000015 0.0000000000
 1517.1250000 2.0009999275 11.229999542  -999.250000 0.1000000015 0.1000000015 0.0000000000
 1517.2500000 1.9529999495 11.251999855  -999.250000 0.1000000015 0.1000000015 0.0000000000
 1517.3750000 1.8799999952 11.253999710  -999.250000 0.1000000015 0.1000000015 0.0000000000
 1517.5000000 1.8070000410 11.255999565  -999.250000 0.1000000015 0.1000000015 0.0000000000
 1517.6250000 1.7560000420 11.258999825  -999.250000 0.1000000015 0.1000000015 0.0000000000
 1517.7500000 1.7050000429 11.293000221  -999.250000 0.1000000015 0.1000000015 0.0000000000
 1517.8750000 1.6160000563 11.328000069  -999.250000 0.1000000015 0.1000000015 0.0000000000
 1518.0000000 1.5089999437 11.362999916  -999.250000 0.1000000015 0.1000000015 0.0000000000
 1518.1250000 1.4179999828 11.430999756  -999.250000 0.1000000015 0.1000000015 0.0000000000
 1518.2500000 1.3580000401 11.498999596  -999.250000 0.1000000015 0.1000000015 0.0000000000
 1518.3750000 1.2970000505 11.567000389  -999.250000 0.1000000015 0.1000000015 0.0000000000
 1518.5000000 1.2979999781 11.612000465  -999.250000 0.1000000015 0.1000000015 0.0000000000
 1518.6250000 1.3279999495 11.656999588  -999.250000 0.1000000015 0.1000000015 0.0000000000
 1518.7500000 1.3420000076 11.701999664  -999.250000 0.1000000015 0.1000000015 0.0000000000
 1518.8750000 1.3470000029 11.779000282  -999.250000 0.1000000015 0.1000000015 0.0000000000
 1519.0000000 1.4119999409 11.857000351  -999.250000 0.1000000015 0.1000000015 0.0000000000
 1519.1250000 1.4759999514 11.934000015  -999.250000 0.1000000015 0.1000000015 0.0000000000
 1519.2500000 1.6230000257 12.039999962  -999.250000 0.1000000015 0.1000000015 0.0000000000
 1519.3750000 1.7269999981 12.145000458  -999.250000 0.1000000015 0.1000000015 0.0000000000
 1519.5000000 1.8300000429 12.250000000  -999.250000 0.1000000015 0.1000000015 0.0000000000
 1519.6250000 1.8969999552 12.328000069  -999.250000 0.1000000015 0.1000000015 0.0000000000
 1519.7500000 1.9299999475 12.407999992  -999.250000 0.1000000015 0.1000000015 0.0000000000
 1519.8750000 1.9800000191 12.487999916  -999.250000 0.1000000015 0.1000000015 0.0000000000
 1520.0000000 1.9609999657 12.567999840  -999.250000 0.1000000015 0.1000000015 0.0000000000
 1520.1250000 1.9170000553 12.659000397  -999.250000 0.1000000015 0.1000000015 0.0000000000
 1520.2500000 1.8609999418 12.751000404  -999.250000 0.1000000015 0.1000000015 0.0000000000
 1520.3750000 1.7819999456 12.842000008  -999.250000 0.1000000015 0.1000000015 0.0000000000
 1520.5000000 1.7139999866 12.892000198  -999.250000 0.1000000015 0.1000000015 0.0000000000
 1520.6250000 1.6339999437 12.942999840  -999.250000 0.1000000015 0.1000000015 0.0000000000
 1520.7500000 1.5249999762 13.029000282  -999.250000 0.1000000015 0.1000000015 0.0000000000
 1520.8750000 1.4040000439 13.114999771  -999.250000 0.1000000015 0.1000000015 0.0000000000
 1521.0000000 1.3619999886 13.182000160  -999.250000 0.1000000015 0.1000000015 0.0000000000
 1521.1250000 1.3530000448 13.248000145  -999.250000 0.1000000015 0.1000000015 0.0000000000
 1521.2500000 1.3530000448 13.345999718  -999.250000 0.1000000015 0.1000000015 0.0000000000
 1521.3750000 1.3040000200 13.444000244  -999.250000 0.1000000015 0.1000000015 0.0000000000
 1521.5000000 1.4880000353 13.515000343  -999.250000 0.1000000015 0.1000000015 0.0000000000
 1521.6250000 1.6330000162 13.585000038  -999.250000 0.1000000015 0.1000000015 0.0000000000
 1521.7500000 1.7979999781 13.656000137  -999.250000 0.1000000015 0.1000000015 0.0000000000
 1521.8750000 1.9759999514 13.727000237  -999.250000 0.1000000015 0.1000000015 0.0000000000
 1522.0000000 2.0829999447 13.772999763  -999.250000 0.1000000015 0.1000000015 0.0000000000
 1522.1250000 2.2009999752 13.819999695  -999.250000 0.1000000015 0.1000000015 0.0000000000
 1522.2500000 2.3629999161 13.866000175  -999.250000 0.1000000015 0.1000000015 0.0000000000
 1522.3750000 2.6419999599 13.873999596  -999.250000 0.1000000015 0.1000000015 0.0000000000
 1522.5000000 2.8510000706 13.881999969  -999.250000 0.1000000015 0.1000000015 0.0000000000
 1522.6250000 3.0429999828 13.939999580  -999.250000 0.1000000015 0.1000000015 0.0000000000
 1522.7500000 3.0769999027 13.998000145  -999.250000 0.1000000015 0.1000000015 0.0000000000
 1522.8750000 3.0230000019 14.034000397  -999.250000 0.1000000015 0.1000000015 0.0000000000
 1523.0000000 2.7620000839 14.069999695  -999.250000 0.1000000015 0.1000000015 0.0000000000
 1523.1250000 2.3220000267 14.105999947  -999.250000 0.1000000015 0.1000000015 0.0000000000
 1523.2500000 1.9479999542 14.161000252  -999.250000 0.1000000015 0.1000000015 0.0000000000
 1523.3750000 1.3420000076 14.215000153  -999.250000 0.1000000015 0.1000000015 0.0000000000
 1523.5000000 1.0820000172 14.220999718  -999.250000 0.1000000015 0.1000000015 0.0000000000
 1523.6250000 0.9350000024 14.225999832  -999.250000 0.1000000015 0.1000000015 0.0000000000
 1523.7500000 0.8299999833 14.227999687  -999.250000 0.1000000015 0.1000000015 0.0000000000
 1523.8750000 0.7810000181 14.229000092  -999.250000 0.1000000015 0.1000000015 0.0000000000
