# LAS format log file from PETREL
# Project units are specified as depth units
#==================================================================
~Version information
VERS.   2.0:
WRAP.   NO:
#==================================================================
~Well
STRT .m      1300.0000000 :
STOP .m      1750.0000000 :
STEP .m     0.12500000 :
NULL .        -999.250000 :
COMP.           : COMPANY
WELL.  5-176   : WELL
FLD.            : FIELD
LOC.            : LOCATION
SRVC.           : SERVICE COMPANY
DATE.  2020-03-08 09:25:10   : Log Export Date {yyyy-MM-dd HH:mm:ss}
PROV.           : PROVINCE
UWI.      : UNIQUE WELL ID
API.            : API NUMBER
#==================================================================
~Curve
DEPT .m                   : DEPTH
RT .ohm.m                 : RT
SP .                      : SP
Fluids .                  : Fluids
POR .m3/m3                : POR
PERM .mD                  : PERM
Lith .                    : Lith
~Parameter
#==================================================================
~Ascii
# ...
 1691.5000000 6.4790000916 14.282999992 3.0000000000 14.000000000 254.00000000 1.0000000000
 1691.6250000 6.3709998131 14.451999664 3.0000000000 14.000000000 254.00000000 1.0000000000
 1691.7500000 6.3470001221 14.739000320 3.0000000000 14.000000000 254.00000000 1.0000000000
 1691.8750000 6.3229999542 15.017999649 3.0000000000 14.000000000 254.00000000 1.0000000000
 1692.0000000 6.3769998550 15.229000092 3.0000000000 14.000000000 254.00000000 1.0000000000
 1692.1250000 6.5240001678 15.420999527 3.0000000000 14.000000000 254.00000000 1.0000000000
 1692.2500000 6.7210001945 15.614000320 3.0000000000 14.000000000 254.00000000 1.0000000000
 1692.3750000 6.8909997940 15.795999527 3.0000000000 14.000000000 254.00000000 1.0000000000
 1692.5000000 7.0640001297 16.041000366 3.0000000000 14.000000000 254.00000000 1.0000000000
 1692.6250000 7.2069997787 16.231000900 3.0000000000 14.000000000 254.00000000 1.0000000000
 1692.7500000 7.3039999008 16.561000824 3.0000000000 14.000000000 254.00000000 1.0000000000
 1692.8750000 7.3649997711 16.843999863 3.0000000000 14.000000000 254.00000000 1.0000000000
 1693.0000000 7.4250001907 17.056999207 3.0000000000 14.000000000 254.00000000 1.0000000000
 1693.1250000 7.4850001335 17.250999451 3.0000000000 14.000000000 254.00000000 1.0000000000
 1693.2500000 7.4169998169 17.444999695 3.0000000000 14.000000000 254.00000000 1.0000000000
 1693.3750000 7.1420001984 17.648000717 3.0000000000 14.000000000 254.00000000 1.0000000000
 1693.5000000 6.9260001183 17.892999649 3.0000000000 14.000000000 254.00000000 1.0000000000
 1693.6250000 6.5999999046 18.138000488 3.0000000000 14.000000000 254.00000000 1.0000000000
 1693.7500000 6.1849999428 18.356000900 3.0000000000 14.000000000 254.00000000 1.0000000000
 1693.8750000 6.0920000076 18.573999405 3.0000000000 14.000000000 254.00000000 1.0000000000
 1694.0000000 6.1170001030 18.760000229  -999.250000 0.1000000015 0.1000000015 0.0000000000
 1694.1250000 6.1560001373 18.943000793  -999.250000 0.1000000015 0.1000000015 0.0000000000
 1694.2500000 6.2500000000 19.066999435  -999.250000 0.1000000015 0.1000000015 0.0000000000
 1694.3750000 6.3169999123 19.259000778  -999.250000 0.1000000015 0.1000000015 0.0000000000
 1694.5000000 6.3949999809 19.423000336  -999.250000 0.1000000015 0.1000000015 0.0000000000
 1694.6250000 6.4600000381 19.538999557  -999.250000 0.1000000015 0.1000000015 0.0000000000
 1694.7500000 6.5689997673 19.791999817  -999.250000 0.1000000015 0.1000000015 0.0000000000
 1694.8750000 6.5720000267 20.054000854  -999.250000 0.1000000015 0.1000000015 0.0000000000
 1695.0000000 6.5729999542 20.399000168  -999.250000 0.1000000015 0.1000000015 0.0000000000
 1695.1250000 6.5729999542 20.756000519  -999.250000 0.1000000015 0.1000000015 0.0000000000
 1695.2500000 6.3959999084 21.068000793  -999.250000 0.1000000015 0.1000000015 0.0000000000
 1695.3750000 6.2309999466 21.436000824  -999.250000 0.1000000015 0.1000000015 0.0000000000
 1695.5000000 6.0599999428 21.740999222  -999.250000 0.1000000015 0.1000000015 0.0000000000
 1695.6250000 5.9210000038 21.944999695  -999.250000 0.1000000015 0.1000000015 0.0000000000
 1695.7500000 5.7820000648 22.132999420  -999.250000 0.1000000015 0.1000000015 0.0000000000
 1695.8750000 5.6620001793 22.295000076  -999.250000 0.1000000015 0.1000000015 0.0000000000
 1696.0000000 5.5430002213 22.410999298  -999.250000 0.1000000015 0.1000000015 0.0000000000
 1696.1250000 5.4239997864 22.535999298  -999.250000 0.1000000015 0.1000000015 0.0000000000
 1696.2500000 5.2600002289 22.666999817  -999.250000 0.1000000015 0.1000000015 0.0000000000
 1696.3750000 5.0949997902 22.830999374  -999.250000 0.1000000015 0.1000000015 0.0000000000
 1696.5000000 4.9200000763 22.952999115  -999.250000 0.1000000015 0.1000000015 0.0000000000
 1696.6250000 4.8000001907 23.073999405  -999.250000 0.1000000015 0.1000000015 0.0000000000
 1696.7500000 4.7670001984 23.090000153  -999.250000 0.1000000015 0.1000000015 0.0000000000
 1696.8750000 4.7290000916 23.160999298  -999.250000 0.1000000015 0.1000000015 0.0000000000
 1697.0000000 4.5980000496 23.194999695 3.0000000000 16.000000000 466.00000000 1.0000000000
 1697.1250000 4.5100002289 23.205999374 3.0000000000 16.000000000 466.00000000 1.0000000000
 1697.2500000 4.4029998779 23.211000443 3.0000000000 16.000000000 466.00000000 1.0000000000
 1697.3750000 4.4089999199 23.215999603 3.0000000000 16.000000000 466.00000000 1.0000000000
 1697.5000000 4.6840000153 23.027999878 3.0000000000 16.000000000 466.00000000 1.0000000000
 1697.6250000 4.9980001450 22.799999237 3.0000000000 16.000000000 466.00000000 1.0000000000
 1697.7500000 5.4229998589 22.625000000 3.0000000000 16.000000000 466.00000000 1.0000000000
 1697.8750000 5.7470002174 22.392000198 3.0000000000 16.000000000 466.00000000 1.0000000000
 1698.0000000 5.9019999504 22.132999420 3.0000000000 16.000000000 466.00000000 1.0000000000
 1698.1250000 6.0069999695 21.716999054 3.0000000000 16.000000000 466.00000000 1.0000000000
 1698.2500000 6.0669999123 21.226999283 3.0000000000 16.000000000 466.00000000 1.0000000000
 1698.3750000 6.1269998550 20.771999359 3.0000000000 16.000000000 466.00000000 1.0000000000
 1698.5000000 6.1490001678 20.347999573 3.0000000000 16.000000000 466.00000000 1.0000000000
 1698.6250000 6.1710000038 20.107999802 3.0000000000 16.000000000 466.00000000 1.0000000000
 1698.7500000 6.2010002136 20.041000366 3.0000000000 16.000000000 466.00000000 1.0000000000
 1698.8750000 6.2119998932 20.033000946 3.0000000000 16.000000000 466.00000000 1.0000000000
 1699.0000000 6.2170000076 20.031999588 3.0000000000 16.000000000 466.00000000 1.0000000000
 1699.1250000 6.2199997902 20.031999588 3.0000000000 16.000000000 466.00000000 1.0000000000
 1699.2500000 6.2210001945 20.093999863 3.0000000000 16.000000000 466.00000000 1.0000000000
 1699.3750000 6.2500000000 20.125999451 3.0000000000 16.000000000 466.00000000 1.0000000000
 1699.5000000 6.2610001564 20.288999557 3.0000000000 16.000000000 466.00000000 1.0000000000
 1699.6250000 6.2719998360 20.402000427 3.0000000000 16.000000000 466.00000000 1.0000000000
 1699.7500000 5.8159999847 20.525999069 3.0000000000 16.000000000 466.00000000 1.0000000000
 1699.8750000 5.3200001717 20.656999588 3.0000000000 16.000000000 466.00000000 1.0000000000
 1700.0000000 4.8709998131 20.694999695  -999.250000 0.1000000015 0.1000000015 0.0000000000
 1700.1250000 4.7119998932 20.714000702  -999.250000 0.1000000015 0.1000000015 0.0000000000
 1700.2500000 4.6490001678 20.721000671  -999.250000 0.1000000015 0.1000000015 0.0000000000
 1700.3750000 4.6939997673 20.725000381  -999.250000 0.1000000015 0.1000000015 0.0000000000
 1700.5000000 4.8660001755 20.726999283  -999.250000 0.1000000015 0.1000000015 0.0000000000
 1700.6250000 5.0419998169 20.729000092  -999.250000 0.1000000015 0.1000000015 0.0000000000
 1700.7500000 5.0939998627 20.729999542  -999.250000 0.1000000015 0.1000000015 0.0000000000
 1700.8750000 4.7100000381 20.731000900  -999.250000 0.1000000015 0.1000000015 0.0000000000
 1701.0000000 4.3020000458 20.732000351  -999.250000 0.1000000015 0.1000000015 0.0000000000
 1701.1250000 4.3289999962 20.732999802  -999.250000 0.1000000015 0.1000000015 0.0000000000
 1701.2500000 4.3550000191 20.735000610  -999.250000 0.1000000015 0.1000000015 0.0000000000
 1701.3750000 4.5479998589 20.736000061  -999.250000 0.1000000015 0.1000000015 0.0000000000
 1701.5000000 4.7090001106 20.736999512  -999.250000 0.1000000015 0.1000000015 0.0000000000
 1701.6250000 4.9239997864 20.738000870  -999.250000 0.1000000015 0.1000000015 0.0000000000
 1701.7500000 5.0890002251 20.739000320  -999.250000 0.1000000015 0.1000000015 0.0000000000
 1701.8750000 5.2630000114 20.739999771  -999.250000 0.1000000015 0.1000000015 0.0000000000
 1702.0000000 5.5269999504 20.740999222  -999.250000 0.1000000015 0.1000000015 0.0000000000
 1702.1250000 5.7680001259 20.688999176  -999.250000 0.1000000015 0.1000000015 0.0000000000
 1702.2500000 6.0349998474 20.638000488  -999.250000 0.1000000015 0.1000000015 0.0000000000
