# LAS format log file from PETREL
# Project units are specified as depth units
#==================================================================
~Version information
VERS.   2.0:
WRAP.   NO:
#==================================================================
~Well
STRT .m      1300.0000000 :
STOP .m      1750.0000000 :
STEP .m     0.12500000 :
NULL .        -999.250000 :
COMP.           : COMPANY
WELL.  5-176   : WELL
FLD.            : FIELD
LOC.            : LOCATION
SRVC.           : SERVICE COMPANY
DATE.  2020-03-08 09:25:10   : Log Export Date {yyyy-MM-dd HH:mm:ss}
PROV.           : PROVINCE
UWI.      : UNIQUE WELL ID
API.            : API NUMBER
#==================================================================
~Curve
DEPT .m                   : DEPTH
RT .ohm.m                 : RT
SP .                      : SP
Fluids .                  : Fluids
POR .m3/m3                : POR
PERM .mD                  : PERM
Lith .                    : Lith
~Parameter
#==================================================================
~Ascii
# ...
 1658.8750000 2.4619998932 22.874000549  -999.250000 0.1000000015 0.1000000015 0.0000000000
 1659.0000000 2.6749999523 22.583999634  -999.250000 0.1000000015 0.1000000015 0.0000000000
 1659.1250000 2.7650001049 22.141000748  -999.250000 0.1000000015 0.1000000015 0.0000000000
 1659.2500000 2.8090000153 21.732999802  -999.250000 0.1000000015 0.1000000015 0.0000000000
 1659.3750000 2.7609999180 21.325000763  -999.250000 0.1000000015 0.1000000015 0.0000000000
 1659.5000000 2.6310000420 20.604000092  -999.250000 0.1000000015 0.1000000015 0.0000000000
 1659.6250000 2.5720000267 20.000000000  -999.250000 0.1000000015 0.1000000015 0.0000000000
 1659.7500000 2.5469999313 19.395999908  -999.250000 0.1000000015 0.1000000015 0.0000000000
 1659.8750000 2.5390000343 18.604000092  -999.250000 0.1000000015 0.1000000015 0.0000000000
 1660.0000000 2.5360000134 17.809999466  -999.250000 0.1000000015 0.1000000015 0.0000000000
 1660.1250000 2.6059999466 16.937000275  -999.250000 0.1000000015 0.1000000015 0.0000000000
 1660.2500000 2.6300001144 16.111999512  -999.250000 0.1000000015 0.1000000015 0.0000000000
 1660.3750000 2.6659998894 15.515000343  -999.250000 0.1000000015 0.1000000015 0.0000000000
 1660.5000000 2.6809999943 14.727000237  -999.250000 0.1000000015 0.1000000015 0.0000000000
 1660.6250000 2.6849999428 13.765999794  -999.250000 0.1000000015 0.1000000015 0.0000000000
 1660.7500000 2.7190001011 12.920999527  -999.250000 0.1000000015 0.1000000015 0.0000000000
 1660.8750000 2.7690000534 11.902999878 0.0000000000 10.000000000 14.000000000 1.0000000000
 1661.0000000 2.8110001087 11.342000008 0.0000000000 10.000000000 14.000000000 1.0000000000
 1661.1250000 2.8629999161 10.520999908 0.0000000000 10.000000000 14.000000000 1.0000000000
 1661.2500000 2.9570000172 9.7180004120 0.0000000000 10.000000000 14.000000000 1.0000000000
 1661.3750000 3.0079998970 8.9200000763 0.0000000000 10.000000000 14.000000000 1.0000000000
 1661.5000000 3.0639998913 8.1899995804 0.0000000000 10.000000000 14.000000000 1.0000000000
 1661.6250000 3.1219999790 7.4219999313 0.0000000000 10.000000000 14.000000000 1.0000000000
 1661.7500000 3.2279999256 6.9479999542 0.0000000000 10.000000000 14.000000000 1.0000000000
 1661.8750000 3.3420000076 6.4429998398 0.0000000000 10.000000000 14.000000000 1.0000000000
 1662.0000000 3.5380001068 6.0739998817  -999.250000 0.1000000015 0.1000000015 0.0000000000
 1662.1250000 3.8529999256 5.6849999428  -999.250000 0.1000000015 0.1000000015 0.0000000000
 1662.2500000 4.9530000687 5.3210000992  -999.250000 0.1000000015 0.1000000015 0.0000000000
 1662.3750000 6.4939999580 5.0130000114  -999.250000 0.1000000015 0.1000000015 0.0000000000
 1662.5000000 8.0349998474 4.6050000191 3.0000000000 15.000000000 249.00000000 1.0000000000
 1662.6250000 8.7889995575 4.1300001144 3.0000000000 15.000000000 249.00000000 1.0000000000
 1662.7500000 9.4910001755 3.7360000610 3.0000000000 15.000000000 249.00000000 1.0000000000
 1662.8750000 10.199999809 3.3640000820 3.0000000000 15.000000000 249.00000000 1.0000000000
 1663.0000000 10.758999825 2.9909999371 3.0000000000 15.000000000 249.00000000 1.0000000000
 1663.1250000 11.213999748 2.5950000286 3.0000000000 15.000000000 249.00000000 1.0000000000
 1663.2500000 11.477000237 2.3800001144 3.0000000000 15.000000000 249.00000000 1.0000000000
 1663.3750000 12.074999809 2.1640000343 3.0000000000 15.000000000 249.00000000 1.0000000000
 1663.5000000 12.758999825 2.0859999657 3.0000000000 15.000000000 249.00000000 1.0000000000
 1663.6250000 13.248999596 2.0469999313 3.0000000000 15.000000000 249.00000000 1.0000000000
 1663.7500000 13.753999710 2.0920000076 3.0000000000 15.000000000 249.00000000 1.0000000000
 1663.8750000 14.260000229 2.1119999886 3.0000000000 15.000000000 249.00000000 1.0000000000
 1664.0000000 14.989000320 2.1319999695 3.0000000000 15.000000000 249.00000000 1.0000000000
 1664.1250000 15.586999893 2.2119998932 3.0000000000 15.000000000 249.00000000 1.0000000000
 1664.2500000 16.183000565 2.3269999027 3.0000000000 15.000000000 249.00000000 1.0000000000
 1664.3750000 16.891000748 2.4230000973 3.0000000000 15.000000000 249.00000000 1.0000000000
 1664.5000000 17.478000641 2.5160000324 3.0000000000 15.000000000 249.00000000 1.0000000000
 1664.6250000 18.069000244 2.6300001144 3.0000000000 15.000000000 249.00000000 1.0000000000
 1664.7500000 18.583999634 2.7860000134 3.0000000000 15.000000000 249.00000000 1.0000000000
 1664.8750000 19.025999069 2.9419999123 3.0000000000 15.000000000 249.00000000 1.0000000000
 1665.0000000 19.277000427 3.1229999065  -999.250000 0.1000000015 0.1000000015 0.0000000000
 1665.1250000 19.527000427 3.3780000210  -999.250000 0.1000000015 0.1000000015 0.0000000000
 1665.2500000 19.677999496 3.7079999447  -999.250000 0.1000000015 0.1000000015 0.0000000000
 1665.3750000 19.770000458 4.0580000877  -999.250000 0.1000000015 0.1000000015 0.0000000000
 1665.5000000 19.806999207 4.4070000648 0.0000000000 7.0000000000 3.0000000000 1.0000000000
 1665.6250000 19.843000412 4.7690000534 0.0000000000 7.0000000000 3.0000000000 1.0000000000
 1665.7500000 19.732000351 5.1310000420 0.0000000000 7.0000000000 3.0000000000 1.0000000000
 1665.8750000 17.694000244 5.5539999008 0.0000000000 7.0000000000 3.0000000000 1.0000000000
 1666.0000000 15.656000137 5.9419999123  -999.250000 0.1000000015 0.1000000015 0.0000000000
 1666.1250000 15.440999985 6.3289999962  -999.250000 0.1000000015 0.1000000015 0.0000000000
 1666.2500000 15.295000076 6.7750000954  -999.250000 0.1000000015 0.1000000015 0.0000000000
 1666.3750000 15.220000267 7.2270002365  -999.250000 0.1000000015 0.1000000015 0.0000000000
 1666.5000000 15.180000305 7.6789999008  -999.250000 0.1000000015 0.1000000015 0.0000000000
 1666.6250000 15.168999672 8.1750001907  -999.250000 0.1000000015 0.1000000015 0.0000000000
 1666.7500000 15.168000221 8.7679996490  -999.250000 0.1000000015 0.1000000015 0.0000000000
 1666.8750000 15.166999817 9.2670001984  -999.250000 0.1000000015 0.1000000015 0.0000000000
 1667.0000000 15.232000351 9.7880001068  -999.250000 0.1000000015 0.1000000015 0.0000000000
 1667.1250000 15.401000023 10.395000458  -999.250000 0.1000000015 0.1000000015 0.0000000000
 1667.2500000 15.696999550 11.128999710  -999.250000 0.1000000015 0.1000000015 0.0000000000
 1667.3750000 15.944000244 11.920999527 0.0000000000 7.0000000000 4.0000000000 1.0000000000
 1667.5000000 16.184999466 12.949999809 0.0000000000 7.0000000000 4.0000000000 1.0000000000
 1667.6250000 16.382999420 13.434000015 0.0000000000 7.0000000000 4.0000000000 1.0000000000
 1667.7500000 16.565000534 13.961000443 0.0000000000 7.0000000000 4.0000000000 1.0000000000
 1667.8750000 12.590999603 14.501999855 0.0000000000 7.0000000000 4.0000000000 1.0000000000
 1668.0000000 10.786000252 14.829999924 0.0000000000 7.0000000000 4.0000000000 1.0000000000
 1668.1250000 8.9809999466 15.157999992 0.0000000000 7.0000000000 4.0000000000 1.0000000000
 1668.2500000 8.9219999313 15.432000160 0.0000000000 7.0000000000 4.0000000000 1.0000000000
 1668.3750000 8.9580001831 15.706999779 0.0000000000 7.0000000000 4.0000000000 1.0000000000
 1668.5000000 9.0760002136 15.979999542 0.0000000000 7.0000000000 4.0000000000 1.0000000000
 1668.6250000 9.1949996948 16.082000732 0.0000000000 7.0000000000 4.0000000000 1.0000000000
 1668.7500000 9.3579998016 16.208000183 0.0000000000 7.0000000000 4.0000000000 1.0000000000
 1668.8750000 9.5349998474 16.304000854 0.0000000000 7.0000000000 4.0000000000 1.0000000000
 1669.0000000 9.6759996414 16.339000702 0.0000000000 7.0000000000 4.0000000000 1.0000000000
 1669.1250000 9.8179998398 16.350000381 0.0000000000 7.0000000000 4.0000000000 1.0000000000
 1669.2500000 9.6610002518 16.351999283 0.0000000000 7.0000000000 4.0000000000 1.0000000000
 1669.3750000 9.4930000305 16.177000046  -999.250000 0.1000000015 0.1000000015 0.0000000000
 1669.5000000 9.3529996872 15.833999634 0.0000000000 8.0000000000 11.000000000 1.0000000000
 1669.6250000 9.2259998322 15.557999611 0.0000000000 8.0000000000 11.000000000 1.0000000000
