# LAS format log file from PETREL
# Project units are specified as depth units
#==================================================================
~Version information
VERS.   2.0:
WRAP.   NO:
#==================================================================
~Well
STRT .m      1300.0000000 :
STOP .m      1750.0000000 :
STEP .m     0.12500000 :
NULL .        -999.250000 :
COMP.           : COMPANY
WELL.  5-176   : WELL
FLD.            : FIELD
LOC.            : LOCATION
SRVC.           : SERVICE COMPANY
DATE.  2020-03-08 09:25:10   : Log Export Date {yyyy-MM-dd HH:mm:ss}
PROV.           : PROVINCE
UWI.      : UNIQUE WELL ID
API.            : API NUMBER
#==================================================================
~Curve
DEPT .m                   : DEPTH
RT .ohm.m                 : RT
SP .                      : SP
Fluids .                  : Fluids
POR .m3/m3                : POR
PERM .mD                  : PERM
Lith .                    : Lith
~Parameter
#==================================================================
~Ascii
# ...
 1387.0000000 5.5029997826 29.325000763 1.0000000000 9.0000000000 11.000000000 1.0000000000
 1387.1250000 5.5460000038 28.965000153 1.0000000000 9.0000000000 11.000000000 1.0000000000
 1387.2500000 5.5199999809 28.582000732 1.0000000000 9.0000000000 11.000000000 1.0000000000
 1387.3750000 5.5139999390 28.281999588 1.0000000000 9.0000000000 11.000000000 1.0000000000
 1387.5000000 5.4409999847 27.929000854  -999.250000 0.1000000015 0.1000000015 0.0000000000
 1387.6250000 5.3369998932 27.625999451  -999.250000 0.1000000015 0.1000000015 0.0000000000
 1387.7500000 5.1739997864 27.430000305  -999.250000 0.1000000015 0.1000000015 0.0000000000
 1387.8750000 5.0529999733 27.249000549 1.0000000000 22.000000000 2557.0000000 1.0000000000
 1388.0000000 4.9340000153 27.094999313 1.0000000000 22.000000000 2557.0000000 1.0000000000
 1388.1250000 4.9180002213 26.989000320 1.0000000000 22.000000000 2557.0000000 1.0000000000
 1388.2500000 4.9120001793 26.837999344 1.0000000000 22.000000000 2557.0000000 1.0000000000
 1388.3750000 4.8680000305 26.686000824 1.0000000000 22.000000000 2557.0000000 1.0000000000
 1388.5000000 4.8619999886 26.552000046 1.0000000000 22.000000000 2557.0000000 1.0000000000
 1388.6250000 4.8600001335 26.419000626 1.0000000000 22.000000000 2557.0000000 1.0000000000
 1388.7500000 4.8920001984 26.315999985 1.0000000000 22.000000000 2557.0000000 1.0000000000
 1388.8750000 4.9409999847 26.197999954 1.0000000000 22.000000000 2557.0000000 1.0000000000
 1389.0000000 4.9959998131 26.145999908 1.0000000000 22.000000000 2557.0000000 1.0000000000
 1389.1250000 5.0720000267 26.127000809 1.0000000000 22.000000000 2557.0000000 1.0000000000
 1389.2500000 5.1500000954 26.124000549 1.0000000000 22.000000000 2557.0000000 1.0000000000
 1389.3750000 5.0359997749 26.121999741 1.0000000000 22.000000000 2557.0000000 1.0000000000
 1389.5000000 4.8930001259 26.122999191 1.0000000000 22.000000000 2557.0000000 1.0000000000
 1389.6250000 4.7049999237 26.124000549 1.0000000000 22.000000000 2557.0000000 1.0000000000
 1389.7500000 4.4600000381 26.233999252 1.0000000000 22.000000000 2557.0000000 1.0000000000
 1389.8750000 4.2740001678 26.370000839 1.0000000000 22.000000000 2557.0000000 1.0000000000
 1390.0000000 4.2199997902 26.433000565 1.0000000000 22.000000000 2557.0000000 1.0000000000
 1390.1250000 4.1649999619 26.454000473 1.0000000000 22.000000000 2557.0000000 1.0000000000
 1390.2500000 4.3530001640 26.465000153 1.0000000000 22.000000000 2557.0000000 1.0000000000
 1390.3750000 5.1479997635 26.410999298 1.0000000000 22.000000000 2557.0000000 1.0000000000
 1390.5000000 5.6399998665 26.320999146 1.0000000000 22.000000000 2557.0000000 1.0000000000
 1390.6250000 5.8460001945 26.177000046 1.0000000000 22.000000000 2557.0000000 1.0000000000
 1390.7500000 5.9780001640 26.033000946 1.0000000000 22.000000000 2557.0000000 1.0000000000
 1390.8750000 6.1030001640 25.709999084 1.0000000000 22.000000000 2557.0000000 1.0000000000
 1391.0000000 6.1869997978 25.365999222 1.0000000000 22.000000000 2557.0000000 1.0000000000
 1391.1250000 6.2950000763 25.023000717 1.0000000000 22.000000000 2557.0000000 1.0000000000
 1391.2500000 6.3790001869 24.371999741 1.0000000000 22.000000000 2557.0000000 1.0000000000
 1391.3750000 6.4840002060 23.645000458 1.0000000000 22.000000000 2557.0000000 1.0000000000
 1391.5000000 6.5989999771 23.045999527 1.0000000000 22.000000000 2557.0000000 1.0000000000
 1391.6250000 6.7179999352 22.288999557 1.0000000000 22.000000000 2557.0000000 1.0000000000
 1391.7500000 6.8359999657 21.239000320 1.0000000000 22.000000000 2557.0000000 1.0000000000
 1391.8750000 6.9549999237 20.108999252 1.0000000000 22.000000000 2557.0000000 1.0000000000
 1392.0000000 7.0380001068 19.266000748 1.0000000000 22.000000000 2557.0000000 1.0000000000
 1392.1250000 7.1449999809 18.820999146 1.0000000000 22.000000000 2557.0000000 1.0000000000
 1392.2500000 7.3049998283 18.525999069 1.0000000000 22.000000000 2557.0000000 1.0000000000
 1392.3750000 7.4279999733 18.247999191 1.0000000000 22.000000000 2557.0000000 1.0000000000
 1392.5000000 7.5479998589 17.884000778 1.0000000000 22.000000000 2557.0000000 1.0000000000
 1392.6250000 7.7579998970 17.679000854 1.0000000000 22.000000000 2557.0000000 1.0000000000
 1392.7500000 8.0850000381 17.434000015 1.0000000000 22.000000000 2557.0000000 1.0000000000
 1392.8750000 8.4119997025 17.173000336 1.0000000000 22.000000000 2557.0000000 1.0000000000
 1393.0000000 9.3280000687 16.906999588 1.0000000000 22.000000000 2557.0000000 1.0000000000
 1393.1250000 9.7340002060 16.691999435 1.0000000000 22.000000000 2557.0000000 1.0000000000
 1393.2500000 10.302000046 16.476999283 1.0000000000 22.000000000 2557.0000000 1.0000000000
 1393.3750000 10.850000381 16.218999863 1.0000000000 22.000000000 2557.0000000 1.0000000000
 1393.5000000 11.607999802 16.017000198 1.0000000000 22.000000000 2557.0000000 1.0000000000
 1393.6250000 12.565999985 15.852999687 1.0000000000 22.000000000 2557.0000000 1.0000000000
 1393.7500000 13.626999855 15.802000046 1.0000000000 22.000000000 2557.0000000 1.0000000000
 1393.8750000 14.454999924 15.777000427 1.0000000000 22.000000000 2557.0000000 1.0000000000
 1394.0000000 15.013999939 15.769000053 1.0000000000 22.000000000 2557.0000000 1.0000000000
 1394.1250000 15.522000313 15.663999557 1.0000000000 22.000000000 2557.0000000 1.0000000000
 1394.2500000 15.982000351 15.560000420 1.0000000000 22.000000000 2557.0000000 1.0000000000
 1394.3750000 16.322000504 15.432999611 1.0000000000 22.000000000 2557.0000000 1.0000000000
 1394.5000000 16.669000626 15.425000191 1.0000000000 22.000000000 2557.0000000 1.0000000000
 1394.6250000 17.020999908 15.329000473 1.0000000000 22.000000000 2557.0000000 1.0000000000
 1394.7500000 17.238000870 15.260000229 1.0000000000 22.000000000 2557.0000000 1.0000000000
 1394.8750000 17.392000198 15.159000397 1.0000000000 22.000000000 2557.0000000 1.0000000000
 1395.0000000 17.517999649 15.121999741 1.0000000000 22.000000000 2557.0000000 1.0000000000
 1395.1250000 17.673999786 15.085000038 1.0000000000 22.000000000 2557.0000000 1.0000000000
 1395.2500000 17.844999313 15.032999992 1.0000000000 22.000000000 2557.0000000 1.0000000000
 1395.3750000 18.110000610 14.979999542 1.0000000000 22.000000000 2557.0000000 1.0000000000
 1395.5000000 18.458000183 15.055000305 1.0000000000 22.000000000 2557.0000000 1.0000000000
 1395.6250000 18.770999908 15.142000198 1.0000000000 22.000000000 2557.0000000 1.0000000000
 1395.7500000 19.163000107 15.232000351 1.0000000000 22.000000000 2557.0000000 1.0000000000
 1395.8750000 19.520999908 15.343000412 1.0000000000 22.000000000 2557.0000000 1.0000000000
 1396.0000000 19.878999710 15.467000008 1.0000000000 22.000000000 2557.0000000 1.0000000000
 1396.1250000 20.472000122 15.628999710 1.0000000000 22.000000000 2557.0000000 1.0000000000
 1396.2500000 21.496999741 15.906999588 1.0000000000 22.000000000 2557.0000000 1.0000000000
 1396.3750000 22.127000809 16.125000000 1.0000000000 22.000000000 2557.0000000 1.0000000000
 1396.5000000 22.756999969 16.343000412 1.0000000000 22.000000000 2557.0000000 1.0000000000
 1396.6250000 23.176000595 16.506999969 1.0000000000 22.000000000 2557.0000000 1.0000000000
 1396.7500000 23.528999329 16.672000885 1.0000000000 22.000000000 2557.0000000 1.0000000000
 1396.8750000 23.954999924 16.850999832 1.0000000000 22.000000000 2557.0000000 1.0000000000
 1397.0000000 24.334999084 16.964000702 1.0000000000 22.000000000 2557.0000000 1.0000000000
 1397.1250000 24.877000809 17.090000153 1.0000000000 22.000000000 2557.0000000 1.0000000000
 1397.2500000 25.393999100 17.222000122 1.0000000000 22.000000000 2557.0000000 1.0000000000
 1397.3750000 26.006000519 17.322000504 1.0000000000 22.000000000 2557.0000000 1.0000000000
 1397.5000000 25.902999878 17.416999817 1.0000000000 22.000000000 2557.0000000 1.0000000000
 1397.6250000 25.444999695 17.466999054 1.0000000000 22.000000000 2557.0000000 1.0000000000
 1397.7500000 25.041000366 17.486000061 1.0000000000 22.000000000 2557.0000000 1.0000000000
