# LAS format log file from PETREL
# Project units are specified as depth units
#==================================================================
~Version information
VERS.   2.0:
WRAP.   NO:
#==================================================================
~Well
STRT .m      1450.0000000 :
STOP .m      1660.0000000 :
STEP .m     0.12500000 :
NULL .        -999.250000 :
COMP.           : COMPANY
WELL.  5-17   : WELL
FLD.            : FIELD
LOC.            : LOCATION
SRVC.           : SERVICE COMPANY
DATE.  2020-03-08 09:25:10   : Log Export Date {yyyy-MM-dd HH:mm:ss}
PROV.           : PROVINCE
UWI.      : UNIQUE WELL ID
API.            : API NUMBER
#==================================================================
~Curve
DEPT .m                   : DEPTH
RT .ohm.m                 : RT
SP .                      : SP
Fluids .                  : Fluids
POR .m3/m3                : POR
PERM .mD                  : PERM
Lith .                    : Lith
~Parameter
#==================================================================
~Ascii
# ...
 1624.0000000 10.074000359 7.7170000076 4.0000000000 20.000000000 1781.0000000 1.0000000000
 1624.1250000 8.5299997330 7.4369997978 4.0000000000 20.000000000 1781.0000000 1.0000000000
 1624.2500000 11.868000031 6.7059998512 4.0000000000 20.000000000 1781.0000000 1.0000000000
 1624.3750000 19.065999985 7.0659999847 4.0000000000 20.000000000 1781.0000000 1.0000000000
 1624.5000000 20.333000183 7.6240000725 4.0000000000 20.000000000 1781.0000000 1.0000000000
 1624.6250000 15.894000053 8.2410001755 4.0000000000 20.000000000 1781.0000000 1.0000000000
 1624.7500000 13.614999771 8.8070001602 4.0000000000 20.000000000 1781.0000000 1.0000000000
 1624.8750000 17.777999878 9.2720003128 4.0000000000 20.000000000 1781.0000000 1.0000000000
 1625.0000000 19.218999863 9.6739997864 4.0000000000 20.000000000 1781.0000000 1.0000000000
 1625.1250000 10.309000015 9.1610002518 4.0000000000 20.000000000 1781.0000000 1.0000000000
 1625.2500000 6.2560000420 8.5790004730 4.0000000000 20.000000000 1781.0000000 1.0000000000
 1625.3750000 8.1999998093 8.3109998703 4.0000000000 20.000000000 1781.0000000 1.0000000000
 1625.5000000 12.468999863 8.3830003738 4.0000000000 20.000000000 1781.0000000 1.0000000000
 1625.6250000 16.812999725 8.9409999847 4.0000000000 20.000000000 1781.0000000 1.0000000000
 1625.7500000 15.470999718 9.6890001297 4.0000000000 20.000000000 1781.0000000 1.0000000000
 1625.8750000 12.274000168 10.494000435 4.0000000000 20.000000000 1781.0000000 1.0000000000
 1626.0000000 8.9329996109 11.098999977 4.0000000000 20.000000000 1781.0000000 1.0000000000
 1626.1250000 5.7369999886 11.440999985  -999.250000 0.1000000015 0.1000000015 0.0000000000
 1626.2500000 3.4460000992 11.354999542  -999.250000 0.1000000015 0.1000000015 0.0000000000
 1626.3750000 3.2269999981 10.718999863  -999.250000 0.1000000015 0.1000000015 0.0000000000
 1626.5000000 4.6279997826 10.034999847  -999.250000 0.1000000015 0.1000000015 0.0000000000
 1626.6250000 8.1979999542 9.2449998856 4.0000000000 17.000000000 869.00000000 1.0000000000
 1626.7500000 8.9519996643 8.8909997940 4.0000000000 17.000000000 869.00000000 1.0000000000
 1626.8750000 7.3150000572 8.4639997482 4.0000000000 17.000000000 869.00000000 1.0000000000
 1627.0000000 8.8690004349 7.7789998055 4.0000000000 17.000000000 869.00000000 1.0000000000
 1627.1250000 13.335000038 7.5029997826 4.0000000000 17.000000000 869.00000000 1.0000000000
 1627.2500000 18.334999084 7.2389998436 4.0000000000 17.000000000 869.00000000 1.0000000000
 1627.3750000 22.091999054 7.0209999084 4.0000000000 17.000000000 869.00000000 1.0000000000
 1627.5000000 22.517000198 6.8090000153 4.0000000000 17.000000000 869.00000000 1.0000000000
 1627.6250000 24.613000870 7.0770001411 4.0000000000 17.000000000 869.00000000 1.0000000000
 1627.7500000 23.486000061 7.3249998093 4.0000000000 17.000000000 869.00000000 1.0000000000
 1627.8750000 23.229999542 7.6180000305 4.0000000000 17.000000000 869.00000000 1.0000000000
 1628.0000000 25.884000778 7.9800000191 4.0000000000 17.000000000 869.00000000 1.0000000000
 1628.1250000 26.811000824 8.4149999619 4.0000000000 17.000000000 869.00000000 1.0000000000
 1628.2500000 25.201999664 9.0609998703 4.0000000000 17.000000000 869.00000000 1.0000000000
 1628.3750000 21.792999268 9.7189998627 4.0000000000 17.000000000 869.00000000 1.0000000000
 1628.5000000 7.3319997787 10.003000259 4.0000000000 17.000000000 869.00000000 1.0000000000
 1628.6250000 5.4169998169 9.7180004120 4.0000000000 17.000000000 869.00000000 1.0000000000
 1628.7500000 6.5130000114 9.1610002518 4.0000000000 17.000000000 869.00000000 1.0000000000
 1628.8750000 9.7799997330 8.6520004272 4.0000000000 17.000000000 869.00000000 1.0000000000
 1629.0000000 16.431999207 8.2629995346 4.0000000000 17.000000000 869.00000000 1.0000000000
 1629.1250000 16.156000137 8.5030002594 4.0000000000 17.000000000 869.00000000 1.0000000000
 1629.2500000 15.010000229 8.9829998016 4.0000000000 17.000000000 869.00000000 1.0000000000
 1629.3750000 13.057000160 9.4320001602 4.0000000000 17.000000000 869.00000000 1.0000000000
 1629.5000000 9.6370000839 9.6649999619 4.0000000000 17.000000000 869.00000000 1.0000000000
 1629.6250000 8.8039999008 9.4750003815 4.0000000000 17.000000000 869.00000000 1.0000000000
 1629.7500000 10.081999779 9.1890001297 4.0000000000 17.000000000 869.00000000 1.0000000000
 1629.8750000 10.314000130 8.8719997406 4.0000000000 17.000000000 869.00000000 1.0000000000
 1630.0000000 9.6199998856 8.5100002289 4.0000000000 17.000000000 869.00000000 1.0000000000
 1630.1250000 9.5120000839 8.1289997101 4.0000000000 17.000000000 869.00000000 1.0000000000
 1630.2500000 14.696999550 7.7329998016 4.0000000000 17.000000000 869.00000000 1.0000000000
 1630.3750000 16.538999557 7.2709999084 4.0000000000 17.000000000 869.00000000 1.0000000000
 1630.5000000 16.381999969 6.9739999771 4.0000000000 17.000000000 869.00000000 1.0000000000
 1630.6250000 16.850999832 6.8159999847 4.0000000000 17.000000000 869.00000000 1.0000000000
 1630.7500000 17.898000717 6.7940001488 4.0000000000 17.000000000 869.00000000 1.0000000000
 1630.8750000 19.129999161 7.2080001831 4.0000000000 17.000000000 869.00000000 1.0000000000
 1631.0000000 19.158000946 7.6430001259 4.0000000000 17.000000000 869.00000000 1.0000000000
 1631.1250000 17.312000275 8.1099996567 4.0000000000 17.000000000 869.00000000 1.0000000000
 1631.2500000 15.135000229 8.5760002136 4.0000000000 17.000000000 869.00000000 1.0000000000
 1631.3750000 14.241999626 8.9519996643 4.0000000000 17.000000000 869.00000000 1.0000000000
 1631.5000000 14.718000412 9.3070001602 4.0000000000 17.000000000 869.00000000 1.0000000000
 1631.6250000 14.501000404 9.5489997864 4.0000000000 17.000000000 869.00000000 1.0000000000
 1631.7500000 13.569000244 9.7040004730 4.0000000000 17.000000000 869.00000000 1.0000000000
 1631.8750000 12.144000053 9.8929996490 4.0000000000 17.000000000 869.00000000 1.0000000000
 1632.0000000 11.904999733 10.100000381 4.0000000000 17.000000000 869.00000000 1.0000000000
 1632.1250000 13.201000214 10.493000031 4.0000000000 17.000000000 869.00000000 1.0000000000
 1632.2500000 14.569000244 10.998999596 4.0000000000 17.000000000 869.00000000 1.0000000000
 1632.3750000 16.343000412 11.559000015 4.0000000000 17.000000000 869.00000000 1.0000000000
 1632.5000000 17.971000671 12.168999672 4.0000000000 17.000000000 869.00000000 1.0000000000
 1632.6250000 15.060999870 12.739999771 4.0000000000 17.000000000 869.00000000 1.0000000000
 1632.7500000 8.8830003738 13.114000320 4.0000000000 17.000000000 869.00000000 1.0000000000
 1632.8750000 7.2810001373 13.277999878 4.0000000000 17.000000000 869.00000000 1.0000000000
 1633.0000000 7.3220000267 12.961000443 4.0000000000 17.000000000 869.00000000 1.0000000000
 1633.1250000 6.6539998055 12.774000168 4.0000000000 17.000000000 869.00000000 1.0000000000
 1633.2500000 6.9670000076 13.163000107 4.0000000000 17.000000000 869.00000000 1.0000000000
 1633.3750000 9.0260000229 13.493000031 4.0000000000 17.000000000 869.00000000 1.0000000000
 1633.5000000 5.7620000839 13.815999985 4.0000000000 17.000000000 869.00000000 1.0000000000
 1633.6250000 6.9580001831 14.204999924 4.0000000000 17.000000000 869.00000000 1.0000000000
 1633.7500000 8.5719995499 14.741999626 4.0000000000 17.000000000 869.00000000 1.0000000000
 1633.8750000 6.9949998856 15.298000336 4.0000000000 17.000000000 869.00000000 1.0000000000
 1634.0000000 5.2350001335 15.843000412  -999.250000 0.1000000015 0.1000000015 0.0000000000
 1634.1250000 4.6989998817 15.715000153  -999.250000 0.1000000015 0.1000000015 0.0000000000
 1634.2500000 5.7010002136 15.572999954  -999.250000 0.1000000015 0.1000000015 0.0000000000
 1634.3750000 6.4010000229 15.432000160 0.0000000000 11.000000000 66.000000000 1.0000000000
 1634.5000000 7.4749999046 15.293000221 0.0000000000 11.000000000 66.000000000 1.0000000000
 1634.6250000 9.9130001068 15.156999588 0.0000000000 11.000000000 66.000000000 1.0000000000
 1634.7500000 16.083999634 15.114999771 0.0000000000 11.000000000 66.000000000 1.0000000000
