# LAS format log file from PETREL
# Project units are specified as depth units
#==================================================================
~Version information
VERS.   2.0:
WRAP.   NO:
#==================================================================
~Well
STRT .m      1350.0000000 :
STOP .m      1730.0000000 :
STEP .m     0.12500000 :
NULL .        -999.250000 :
COMP.           : COMPANY
WELL.  5-172   : WELL
FLD.            : FIELD
LOC.            : LOCATION
SRVC.           : SERVICE COMPANY
DATE.  2020-03-08 09:25:10   : Log Export Date {yyyy-MM-dd HH:mm:ss}
PROV.           : PROVINCE
UWI.      : UNIQUE WELL ID
API.            : API NUMBER
#==================================================================
~Curve
DEPT .m                   : DEPTH
RT .ohm.m                 : RT
SP .                      : SP
Fluids .                  : Fluids
POR .m3/m3                : POR
PERM .mD                  : PERM
Lith .                    : Lith
~Parameter
#==================================================================
~Ascii
# ...
 1654.5000000 21.749000549 18.628000259 2.0000000000 18.000000000 931.00000000 1.0000000000
 1654.6250000 21.482000351 18.287000656 2.0000000000 18.000000000 931.00000000 1.0000000000
 1654.7500000 21.229999542 17.767999649 2.0000000000 18.000000000 931.00000000 1.0000000000
 1654.8750000 20.986000061 17.158000946 2.0000000000 18.000000000 931.00000000 1.0000000000
 1655.0000000 20.871999741 16.665000916 2.0000000000 18.000000000 931.00000000 1.0000000000
 1655.1250000 20.791000366 16.219999313 2.0000000000 18.000000000 931.00000000 1.0000000000
 1655.2500000 20.724000931 15.798000336 2.0000000000 18.000000000 931.00000000 1.0000000000
 1655.3750000 20.681999207 15.482000351 2.0000000000 18.000000000 931.00000000 1.0000000000
 1655.5000000 20.584999084 15.286000252 2.0000000000 18.000000000 931.00000000 1.0000000000
 1655.6250000 20.465999603 15.036999702 2.0000000000 18.000000000 931.00000000 1.0000000000
 1655.7500000 20.347000122 14.770000458 2.0000000000 18.000000000 931.00000000 1.0000000000
 1655.8750000 20.179000854 14.550999641 2.0000000000 18.000000000 931.00000000 1.0000000000
 1656.0000000 19.968999863 14.331999779 2.0000000000 18.000000000 931.00000000 1.0000000000
 1656.1250000 19.679000854 14.114000320 2.0000000000 18.000000000 931.00000000 1.0000000000
 1656.2500000 19.278999329 13.895999908 2.0000000000 18.000000000 931.00000000 1.0000000000
 1656.3750000 18.885000229 13.690999985 2.0000000000 18.000000000 931.00000000 1.0000000000
 1656.5000000 18.481000900 13.612000465 2.0000000000 18.000000000 931.00000000 1.0000000000
 1656.6250000 18.037000656 13.534000397 2.0000000000 18.000000000 931.00000000 1.0000000000
 1656.7500000 17.538000107 13.751000404 2.0000000000 18.000000000 931.00000000 1.0000000000
 1656.8750000 17.065000534 13.928000450 2.0000000000 18.000000000 931.00000000 1.0000000000
 1657.0000000 16.739999771 14.046999931 2.0000000000 18.000000000 931.00000000 1.0000000000
 1657.1250000 16.392999649 14.180999756 2.0000000000 18.000000000 931.00000000 1.0000000000
 1657.2500000 16.038999557 14.288999557 2.0000000000 18.000000000 931.00000000 1.0000000000
 1657.3750000 15.741000175 14.498000145 2.0000000000 18.000000000 931.00000000 1.0000000000
 1657.5000000 15.475000381 14.666000366 2.0000000000 18.000000000 931.00000000 1.0000000000
 1657.6250000 15.282999992 14.927000046 2.0000000000 18.000000000 931.00000000 1.0000000000
 1657.7500000 15.097000122 15.123999596 2.0000000000 18.000000000 931.00000000 1.0000000000
 1657.8750000 14.913999557 15.392000198 2.0000000000 18.000000000 931.00000000 1.0000000000
 1658.0000000 14.779000282 15.625000000 2.0000000000 18.000000000 931.00000000 1.0000000000
 1658.1250000 14.616999626 15.857999802 2.0000000000 18.000000000 931.00000000 1.0000000000
 1658.2500000 14.442999840 16.034999847 2.0000000000 18.000000000 931.00000000 1.0000000000
 1658.3750000 15.227999687 16.211999893 2.0000000000 18.000000000 931.00000000 1.0000000000
 1658.5000000 15.828000069 16.427999496 2.0000000000 18.000000000 931.00000000 1.0000000000
 1658.6250000 16.329000473 16.684000015 2.0000000000 18.000000000 931.00000000 1.0000000000
 1658.7500000 16.809999466 16.856000900 2.0000000000 18.000000000 931.00000000 1.0000000000
 1658.8750000 17.330999374 17.027000427 2.0000000000 18.000000000 931.00000000 1.0000000000
 1659.0000000 17.785999298 17.131000519 2.0000000000 18.000000000 931.00000000 1.0000000000
 1659.1250000 18.153999329 17.229999542 2.0000000000 18.000000000 931.00000000 1.0000000000
 1659.2500000 18.433000565 17.357999802 2.0000000000 18.000000000 931.00000000 1.0000000000
 1659.3750000 18.621000290 17.462999344 2.0000000000 18.000000000 931.00000000 1.0000000000
 1659.5000000 18.694000244 17.563999176 2.0000000000 18.000000000 931.00000000 1.0000000000
 1659.6250000 18.724000931 17.687999725 2.0000000000 18.000000000 931.00000000 1.0000000000
 1659.7500000 18.778999329 17.795000076 2.0000000000 18.000000000 931.00000000 1.0000000000
 1659.8750000 18.879999161 17.896999359 2.0000000000 18.000000000 931.00000000 1.0000000000
 1660.0000000 18.981000900 18.018999100 2.0000000000 18.000000000 931.00000000 1.0000000000
 1660.1250000 19.266000748 18.125999451 2.0000000000 18.000000000 931.00000000 1.0000000000
 1660.2500000 19.575000763 18.250999451 2.0000000000 18.000000000 931.00000000 1.0000000000
 1660.3750000 20.375999451 18.361000061 2.0000000000 18.000000000 931.00000000 1.0000000000
 1660.5000000 20.929000854 18.469999313 2.0000000000 18.000000000 931.00000000 1.0000000000
 1660.6250000 21.378000259 18.474000931 2.0000000000 18.000000000 931.00000000 1.0000000000
 1660.7500000 21.944999695 18.479000092 2.0000000000 18.000000000 931.00000000 1.0000000000
 1660.8750000 22.538999557 18.482999802 2.0000000000 18.000000000 931.00000000 1.0000000000
 1661.0000000 23.020999908 18.548999786 2.0000000000 18.000000000 931.00000000 1.0000000000
 1661.1250000 23.311000824 18.584999084 2.0000000000 18.000000000 931.00000000 1.0000000000
 1661.2500000 23.618000031 18.660999298 2.0000000000 18.000000000 931.00000000 1.0000000000
 1661.3750000 23.937000275 18.695999146 2.0000000000 18.000000000 931.00000000 1.0000000000
 1661.5000000 24.218000412 18.729999542  -999.250000 0.1000000015 0.1000000015 0.0000000000
 1661.6250000 24.482000351 18.736999512  -999.250000 0.1000000015 0.1000000015 0.0000000000
 1661.7500000 24.715999603 18.684000015  -999.250000 0.1000000015 0.1000000015 0.0000000000
 1661.8750000 24.962999344 18.610000610  -999.250000 0.1000000015 0.1000000015 0.0000000000
 1662.0000000 25.113000870 18.537000656  -999.250000 0.1000000015 0.1000000015 0.0000000000
 1662.1250000 13.539999962 18.370000839  -999.250000 0.1000000015 0.1000000015 0.0000000000
 1662.2500000 13.076000214 18.191999435  -999.250000 0.1000000015 0.1000000015 0.0000000000
 1662.3750000 13.647999763 17.961000443  -999.250000 0.1000000015 0.1000000015 0.0000000000
 1662.5000000 14.288999557 17.445999146  -999.250000 0.1000000015 0.1000000015 0.0000000000
 1662.6250000 14.934000015 16.722000122  -999.250000 0.1000000015 0.1000000015 0.0000000000
 1662.7500000 15.423999786 16.568000793  -999.250000 0.1000000015 0.1000000015 0.0000000000
 1662.8750000 15.876000404 16.415000916  -999.250000 0.1000000015 0.1000000015 0.0000000000
 1663.0000000 16.443000793 16.500000000  -999.250000 0.1000000015 0.1000000015 0.0000000000
 1663.1250000 17.009000778 16.716999054  -999.250000 0.1000000015 0.1000000015 0.0000000000
 1663.2500000 17.868999481 16.854999542  -999.250000 0.1000000015 0.1000000015 0.0000000000
 1663.3750000 13.755000114 17.069000244  -999.250000 0.1000000015 0.1000000015 0.0000000000
 1663.5000000 13.305999756 17.268999100  -999.250000 0.1000000015 0.1000000015 0.0000000000
 1663.6250000 12.857999802 17.465999603  -999.250000 0.1000000015 0.1000000015 0.0000000000
 1663.7500000 12.607000351 17.662000656  -999.250000 0.1000000015 0.1000000015 0.0000000000
 1663.8750000 12.355999947 17.903999329  -999.250000 0.1000000015 0.1000000015 0.0000000000
 1664.0000000 12.060000420 18.145000458  -999.250000 0.1000000015 0.1000000015 0.0000000000
 1664.1250000 11.951000214 18.351999283  -999.250000 0.1000000015 0.1000000015 0.0000000000
 1664.2500000 11.895999908 18.549999237  -999.250000 0.1000000015 0.1000000015 0.0000000000
 1664.3750000 11.875000000 18.722999573  -999.250000 0.1000000015 0.1000000015 0.0000000000
 1664.5000000 11.875000000 18.909999847 4.0000000000 24.000000000 3084.0000000 1.0000000000
 1664.6250000 11.880999565 19.117000580 4.0000000000 24.000000000 3084.0000000 1.0000000000
 1664.7500000 11.888999939 19.323999405 4.0000000000 24.000000000 3084.0000000 1.0000000000
 1664.8750000 11.897999763 19.590999603 4.0000000000 24.000000000 3084.0000000 1.0000000000
 1665.0000000 12.137999535 19.934999466 4.0000000000 24.000000000 3084.0000000 1.0000000000
 1665.1250000 12.378999710 20.247999191 4.0000000000 24.000000000 3084.0000000 1.0000000000
 1665.2500000 12.638999939 20.561000824 4.0000000000 24.000000000 3084.0000000 1.0000000000
