# LAS format log file from PETREL
# Project units are specified as depth units
#==================================================================
~Version information
VERS.   2.0:
WRAP.   NO:
#==================================================================
~Well
STRT .m      1350.0000000 :
STOP .m      1730.0000000 :
STEP .m     0.12500000 :
NULL .        -999.250000 :
COMP.           : COMPANY
WELL.  5-172   : WELL
FLD.            : FIELD
LOC.            : LOCATION
SRVC.           : SERVICE COMPANY
DATE.  2020-03-08 09:25:10   : Log Export Date {yyyy-MM-dd HH:mm:ss}
PROV.           : PROVINCE
UWI.      : UNIQUE WELL ID
API.            : API NUMBER
#==================================================================
~Curve
DEPT .m                   : DEPTH
RT .ohm.m                 : RT
SP .                      : SP
Fluids .                  : Fluids
POR .m3/m3                : POR
PERM .mD                  : PERM
Lith .                    : Lith
~Parameter
#==================================================================
~Ascii
# ...
 1676.2500000 36.280998230 10.501000404 2.0000000000 18.000000000 736.00000000 1.0000000000
 1676.3750000 37.261001587 10.696000099 2.0000000000 18.000000000 736.00000000 1.0000000000
 1676.5000000 38.234001160 10.862000465 2.0000000000 18.000000000 736.00000000 1.0000000000
 1676.6250000 39.002998352 11.050000191 2.0000000000 18.000000000 736.00000000 1.0000000000
 1676.7500000 39.866001129 11.241999626 2.0000000000 18.000000000 736.00000000 1.0000000000
 1676.8750000 40.787998199 11.435000420 2.0000000000 18.000000000 736.00000000 1.0000000000
 1677.0000000 42.155998230 11.628999710 2.0000000000 18.000000000 736.00000000 1.0000000000
 1677.1250000 42.922000885 11.822999954 2.0000000000 18.000000000 736.00000000 1.0000000000
 1677.2500000 43.610000610 12.017000198 2.0000000000 18.000000000 736.00000000 1.0000000000
 1677.3750000 44.261001587 12.211000443 2.0000000000 18.000000000 736.00000000 1.0000000000
 1677.5000000 45.071998596 12.376999855 2.0000000000 18.000000000 736.00000000 1.0000000000
 1677.6250000 47.355998993 12.529999733 2.0000000000 18.000000000 736.00000000 1.0000000000
 1677.7500000 47.757999420 12.741000175 2.0000000000 18.000000000 736.00000000 1.0000000000
 1677.8750000 47.206001282 12.883999825 2.0000000000 18.000000000 736.00000000 1.0000000000
 1678.0000000 46.652999878 13.027000427 2.0000000000 18.000000000 736.00000000 1.0000000000
 1678.1250000 45.777999878 13.102999687 2.0000000000 18.000000000 736.00000000 1.0000000000
 1678.2500000 45.040000916 13.255999565 2.0000000000 18.000000000 736.00000000 1.0000000000
 1678.3750000 44.390998840 13.477000237 2.0000000000 18.000000000 736.00000000 1.0000000000
 1678.5000000 43.615001678 13.817000389 2.0000000000 18.000000000 736.00000000 1.0000000000
 1678.6250000 42.768001556 14.125000000 2.0000000000 18.000000000 736.00000000 1.0000000000
 1678.7500000 41.883998871 14.336999893 2.0000000000 18.000000000 736.00000000 1.0000000000
 1678.8750000 41.388000488 14.505999565 2.0000000000 18.000000000 736.00000000 1.0000000000
 1679.0000000 40.825000763 14.657999992 2.0000000000 18.000000000 736.00000000 1.0000000000
 1679.1250000 40.233001709 11.032999992 2.0000000000 18.000000000 736.00000000 1.0000000000
 1679.2500000 39.630001068 10.690999985 2.0000000000 18.000000000 736.00000000 1.0000000000
 1679.3750000 39.150001526 10.451000214 2.0000000000 18.000000000 736.00000000 1.0000000000
 1679.5000000 38.750999451 10.194999695 2.0000000000 18.000000000 736.00000000 1.0000000000
 1679.6250000 38.402000427 9.8599996567 2.0000000000 18.000000000 736.00000000 1.0000000000
 1679.7500000 37.905998230 9.6289997101 2.0000000000 18.000000000 736.00000000 1.0000000000
 1679.8750000 37.479999542 9.4449996948 2.0000000000 18.000000000 736.00000000 1.0000000000
 1680.0000000 36.953998566 9.3229999542 2.0000000000 18.000000000 736.00000000 1.0000000000
 1680.1250000 36.370998383 9.1949996948 2.0000000000 18.000000000 736.00000000 1.0000000000
 1680.2500000 35.611999512 9.1389999390 2.0000000000 18.000000000 736.00000000 1.0000000000
 1680.3750000 34.577999115 9.1250000000 2.0000000000 18.000000000 736.00000000 1.0000000000
 1680.5000000 33.412998199 9.1210002899  -999.250000 0.1000000015 0.1000000015 0.0000000000
 1680.6250000 30.104000092 9.3809995651  -999.250000 0.1000000015 0.1000000015 0.0000000000
 1680.7500000 28.306999207 9.8710002899  -999.250000 0.1000000015 0.1000000015 0.0000000000
 1680.8750000 27.159999847 10.623000145  -999.250000 0.1000000015 0.1000000015 0.0000000000
 1681.0000000 26.503000259 11.375000000  -999.250000 0.1000000015 0.1000000015 0.0000000000
 1681.1250000 25.673000336 12.038999557  -999.250000 0.1000000015 0.1000000015 0.0000000000
 1681.2500000 25.041000366 12.913999557  -999.250000 0.1000000015 0.1000000015 0.0000000000
 1681.3750000 24.225000381 13.798999786 2.0000000000 15.000000000 239.00000000 1.0000000000
 1681.5000000 23.933000565 14.463000298 2.0000000000 15.000000000 239.00000000 1.0000000000
 1681.6250000 23.839000702 15.128000259 2.0000000000 15.000000000 239.00000000 1.0000000000
 1681.7500000 23.826000214 16.145000458 2.0000000000 15.000000000 239.00000000 1.0000000000
 1681.8750000 23.834999084 17.347999573 2.0000000000 15.000000000 239.00000000 1.0000000000
 1682.0000000 24.089000702 18.246000290 2.0000000000 15.000000000 239.00000000 1.0000000000
 1682.1250000 24.857000351 19.406999588 2.0000000000 15.000000000 239.00000000 1.0000000000
 1682.2500000 25.427999496 20.599000931 2.0000000000 15.000000000 239.00000000 1.0000000000
 1682.3750000 25.716999054 21.326000214 2.0000000000 15.000000000 239.00000000 1.0000000000
 1682.5000000 25.680000305 22.287000656 2.0000000000 15.000000000 239.00000000 1.0000000000
 1682.6250000 25.510999680 23.409000397 2.0000000000 15.000000000 239.00000000 1.0000000000
 1682.7500000 25.187000275 24.375000000 2.0000000000 15.000000000 239.00000000 1.0000000000
 1682.8750000 24.724000931 25.462999344 2.0000000000 15.000000000 239.00000000 1.0000000000
 1683.0000000 24.351999283 26.525999069 2.0000000000 15.000000000 239.00000000 1.0000000000
 1683.1250000 23.809999466 28.128999710 2.0000000000 15.000000000 239.00000000 1.0000000000
 1683.2500000 23.233999252 29.368999481 2.0000000000 15.000000000 239.00000000 1.0000000000
 1683.3750000 22.451999664 30.155000687 2.0000000000 15.000000000 239.00000000 1.0000000000
 1683.5000000 21.798999786 30.834999084  -999.250000 0.1000000015 0.1000000015 0.0000000000
 1683.6250000 21.372999191 31.457000732  -999.250000 0.1000000015 0.1000000015 0.0000000000
 1683.7500000 20.610000610 32.050998688  -999.250000 0.1000000015 0.1000000015 0.0000000000
 1683.8750000 19.583000183 32.214000702  -999.250000 0.1000000015 0.1000000015 0.0000000000
 1684.0000000 18.031000137 32.213001251  -999.250000 0.1000000015 0.1000000015 0.0000000000
 1684.1250000 16.674999237 32.215999603  -999.250000 0.1000000015 0.1000000015 0.0000000000
 1684.2500000 15.053999901 32.220001221  -999.250000 0.1000000015 0.1000000015 0.0000000000
 1684.3750000 23.084999084 32.223999023  -999.250000 0.1000000015 0.1000000015 0.0000000000
 1684.5000000 22.114999771 32.376998901  -999.250000 0.1000000015 0.1000000015 0.0000000000
 1684.6250000 21.027000427 32.526000977  -999.250000 0.1000000015 0.1000000015 0.0000000000
 1684.7500000 14.272999763 32.636001587  -999.250000 0.1000000015 0.1000000015 0.0000000000
 1684.8750000 11.694000244 32.737998962  -999.250000 0.1000000015 0.1000000015 0.0000000000
 1685.0000000 10.489000320 32.862998962  -999.250000 0.1000000015 0.1000000015 0.0000000000
 1685.1250000 9.8409996033 33.034000397  -999.250000 0.1000000015 0.1000000015 0.0000000000
 1685.2500000 9.0399999619 33.193000793  -999.250000 0.1000000015 0.1000000015 0.0000000000
 1685.3750000 7.9499998093 33.344001770  -999.250000 0.1000000015 0.1000000015 0.0000000000
 1685.5000000 7.3850002289 33.589000702  -999.250000 0.1000000015 0.1000000015 0.0000000000
 1685.6250000 7.1040000916 33.790000916  -999.250000 0.1000000015 0.1000000015 0.0000000000
 1685.7500000 6.7740001678 33.986000061  -999.250000 0.1000000015 0.1000000015 0.0000000000
 1685.8750000 6.4250001907 34.152999878  -999.250000 0.1000000015 0.1000000015 0.0000000000
 1686.0000000 6.0700001717 34.499000549  -999.250000 0.1000000015 0.1000000015 0.0000000000
 1686.1250000 5.7849998474 34.793998718  -999.250000 0.1000000015 0.1000000015 0.0000000000
 1686.2500000 5.5009999275 35.090000153  -999.250000 0.1000000015 0.1000000015 0.0000000000
 1686.3750000 5.1750001907 35.444999695  -999.250000 0.1000000015 0.1000000015 0.0000000000
 1686.5000000 4.9039998055 35.762001038  -999.250000 0.1000000015 0.1000000015 0.0000000000
 1686.6250000 4.6199998856 36.131999969  -999.250000 0.1000000015 0.1000000015 0.0000000000
 1686.7500000 4.3000001907 36.610000610  -999.250000 0.1000000015 0.1000000015 0.0000000000
 1686.8750000 3.9920001030 37.236999512  -999.250000 0.1000000015 0.1000000015 0.0000000000
 1687.0000000 3.7620000839 37.835998535  -999.250000 0.1000000015 0.1000000015 0.0000000000
