# LAS format log file from PETREL
# Project units are specified as depth units
#==================================================================
~Version information
VERS.   2.0:
WRAP.   NO:
#==================================================================
~Well
STRT .m      1385.0000000 :
STOP .m      1720.0000000 :
STEP .m     0.12500000 :
NULL .        -999.250000 :
COMP.           : COMPANY
WELL.  5-17C2   : WELL
FLD.            : FIELD
LOC.            : LOCATION
SRVC.           : SERVICE COMPANY
DATE.  2020-03-08 09:25:10   : Log Export Date {yyyy-MM-dd HH:mm:ss}
PROV.           : PROVINCE
UWI.      : UNIQUE WELL ID
API.            : API NUMBER
#==================================================================
~Curve
DEPT .m                   : DEPTH
RT .ohm.m                 : RT
SP .                      : SP
Fluids .                  : Fluids
POR .m3/m3                : POR
PERM .mD                  : PERM
Lith .                    : Lith
~Parameter
#==================================================================
~Ascii
# ...
 1656.8750000 5.4850001335 63.257999420 4.0000000000 20.000000000 1474.0000000 1.0000000000
 1657.0000000 5.5970001221 63.352001190 4.0000000000 20.000000000 1474.0000000 1.0000000000
 1657.1250000 5.8480000496 63.448001862 4.0000000000 20.000000000 1474.0000000 1.0000000000
 1657.2500000 6.2150001526 63.539001465 4.0000000000 20.000000000 1474.0000000 1.0000000000
 1657.3750000 6.6989998817 63.645999908 4.0000000000 20.000000000 1474.0000000 1.0000000000
 1657.5000000 7.3039999008 63.762001038 4.0000000000 20.000000000 1474.0000000 1.0000000000
 1657.6250000 8.0100002289 63.890998840 4.0000000000 20.000000000 1474.0000000 1.0000000000
 1657.7500000 8.7440004349 64.035003662 4.0000000000 20.000000000 1474.0000000 1.0000000000
 1657.8750000 9.3990001678 64.189002991 0.0000000000 12.000000000 47.000000000 1.0000000000
 1658.0000000 9.8929996490 64.353996277 0.0000000000 12.000000000 47.000000000 1.0000000000
 1658.1250000 10.111000061 64.515998840 0.0000000000 12.000000000 47.000000000 1.0000000000
 1658.2500000 10.062000275 64.675003052 0.0000000000 12.000000000 47.000000000 1.0000000000
 1658.3750000 9.8100004196 64.803001404 0.0000000000 12.000000000 47.000000000 1.0000000000
 1658.5000000 9.4759998322 64.890998840 0.0000000000 12.000000000 47.000000000 1.0000000000
 1658.6250000 9.1490001678 64.925003052  -999.250000 0.1000000015 0.1000000015 0.0000000000
 1658.7500000 8.9200000763 64.918998718  -999.250000 0.1000000015 0.1000000015 0.0000000000
 1658.8750000 8.8140001297 64.894996643  -999.250000 0.1000000015 0.1000000015 0.0000000000
 1659.0000000 8.8109998703 64.853996277  -999.250000 0.1000000015 0.1000000015 0.0000000000
 1659.1250000 8.8050003052 64.805000305  -999.250000 0.1000000015 0.1000000015 0.0000000000
 1659.2500000 8.7659997940 64.738998413  -999.250000 0.1000000015 0.1000000015 0.0000000000
 1659.3750000 8.8559999466 64.661003113  -999.250000 0.1000000015 0.1000000015 0.0000000000
 1659.5000000 9.2700004578 64.547996521  -999.250000 0.1000000015 0.1000000015 0.0000000000
 1659.6250000 10.079000473 64.415000916  -999.250000 0.1000000015 0.1000000015 0.0000000000
 1659.7500000 11.027000427 64.275001526  -999.250000 0.1000000015 0.1000000015 0.0000000000
 1659.8750000 11.583000183 64.148002625  -999.250000 0.1000000015 0.1000000015 0.0000000000
 1660.0000000 11.357000351 64.035003662  -999.250000 0.1000000015 0.1000000015 0.0000000000
 1660.1250000 10.340000153 63.923000336  -999.250000 0.1000000015 0.1000000015 0.0000000000
 1660.2500000 8.8900003433 63.812000275  -999.250000 0.1000000015 0.1000000015 0.0000000000
 1660.3750000 7.5910000801 63.703998566  -999.250000 0.1000000015 0.1000000015 0.0000000000
 1660.5000000 6.6840000153 63.620998383  -999.250000 0.1000000015 0.1000000015 0.0000000000
 1660.6250000 6.0970001221 63.550998688  -999.250000 0.1000000015 0.1000000015 0.0000000000
 1660.7500000 5.6310000420 63.490001678  -999.250000 0.1000000015 0.1000000015 0.0000000000
 1660.8750000 5.2930002213 63.409000397 3.0000000000 9.0000000000 14.000000000 1.0000000000
 1661.0000000 5.1040000916 63.298999786 3.0000000000 9.0000000000 14.000000000 1.0000000000
 1661.1250000 5.0669999123 63.173000336 3.0000000000 9.0000000000 14.000000000 1.0000000000
 1661.2500000 5.1339998245 63.039001465 3.0000000000 9.0000000000 14.000000000 1.0000000000
 1661.3750000 5.2940001488 62.907001495 3.0000000000 9.0000000000 14.000000000 1.0000000000
 1661.5000000 5.4679999352 62.782001495 3.0000000000 9.0000000000 14.000000000 1.0000000000
 1661.6250000 5.5580000877 62.687000275 3.0000000000 9.0000000000 14.000000000 1.0000000000
 1661.7500000 5.6030001640 62.611000061 3.0000000000 9.0000000000 14.000000000 1.0000000000
 1661.8750000 5.6739997864 62.547000885 3.0000000000 9.0000000000 14.000000000 1.0000000000
 1662.0000000 5.8150000572 62.464000702 3.0000000000 9.0000000000 14.000000000 1.0000000000
 1662.1250000 6.0139999390 62.352001190 3.0000000000 9.0000000000 14.000000000 1.0000000000
 1662.2500000 6.2690000534 62.210998535 3.0000000000 9.0000000000 14.000000000 1.0000000000
 1662.3750000 6.5469999313 62.056999207 3.0000000000 9.0000000000 14.000000000 1.0000000000
 1662.5000000 6.8619999886 61.894001007 3.0000000000 9.0000000000 14.000000000 1.0000000000
 1662.6250000 7.1939997673 61.720001221 3.0000000000 9.0000000000 14.000000000 1.0000000000
 1662.7500000 7.4380002022 61.562000275 3.0000000000 9.0000000000 14.000000000 1.0000000000
 1662.8750000 7.5789999962 61.433998108 3.0000000000 9.0000000000 14.000000000 1.0000000000
 1663.0000000 7.5539999008 61.358001709 3.0000000000 9.0000000000 14.000000000 1.0000000000
 1663.1250000 7.4289999008 61.314998627 3.0000000000 9.0000000000 14.000000000 1.0000000000
 1663.2500000 7.2540001869 61.278999329 3.0000000000 9.0000000000 14.000000000 1.0000000000
 1663.3750000 7.1170001030 61.222999573 3.0000000000 9.0000000000 14.000000000 1.0000000000
 1663.5000000 7.0170001984 61.145999908 3.0000000000 9.0000000000 14.000000000 1.0000000000
 1663.6250000 6.9699997902 61.069000244 3.0000000000 9.0000000000 14.000000000 1.0000000000
 1663.7500000 7.0100002289 60.991001129 3.0000000000 9.0000000000 14.000000000 1.0000000000
 1663.8750000 7.1539998055 60.916999817 3.0000000000 9.0000000000 14.000000000 1.0000000000
 1664.0000000 7.4260001183 60.844001770 3.0000000000 9.0000000000 14.000000000 1.0000000000
 1664.1250000 7.7340002060 60.796001434 3.0000000000 9.0000000000 14.000000000 1.0000000000
 1664.2500000 8.0190000534 60.783000946 3.0000000000 9.0000000000 14.000000000 1.0000000000
 1664.3750000 8.2469997406 60.819000244 3.0000000000 9.0000000000 14.000000000 1.0000000000
 1664.5000000 8.4040002823 60.893001556 3.0000000000 9.0000000000 14.000000000 1.0000000000
 1664.6250000 8.4790000916 60.980998993 3.0000000000 9.0000000000 14.000000000 1.0000000000
 1664.7500000 8.5410003662 61.076999664 3.0000000000 9.0000000000 14.000000000 1.0000000000
 1664.8750000 8.6160001755 61.164001465 3.0000000000 9.0000000000 14.000000000 1.0000000000
 1665.0000000 8.7390003204 61.244998932 3.0000000000 9.0000000000 14.000000000 1.0000000000
 1665.1250000 8.9390001297 61.317001343 3.0000000000 9.0000000000 14.000000000 1.0000000000
 1665.2500000 9.2069997787 61.409000397 3.0000000000 9.0000000000 14.000000000 1.0000000000
 1665.3750000 9.4910001755 61.532001495 3.0000000000 9.0000000000 14.000000000 1.0000000000
 1665.5000000 9.7220001221 61.687999725 3.0000000000 9.0000000000 14.000000000 1.0000000000
 1665.6250000 9.9049997330 61.854000092 3.0000000000 9.0000000000 14.000000000 1.0000000000
 1665.7500000 10.024999619 62.000999451 3.0000000000 9.0000000000 14.000000000 1.0000000000
 1665.8750000 10.053000450 62.127998352 3.0000000000 9.0000000000 14.000000000 1.0000000000
 1666.0000000 9.9510002136 62.229999542 3.0000000000 9.0000000000 14.000000000 1.0000000000
 1666.1250000 9.7089996338 62.326000214 3.0000000000 9.0000000000 14.000000000 1.0000000000
 1666.2500000 9.3850002289 62.402000427 3.0000000000 9.0000000000 14.000000000 1.0000000000
 1666.3750000 9.0579996109 62.462001801 3.0000000000 9.0000000000 14.000000000 1.0000000000
 1666.5000000 8.7440004349 62.495998383 3.0000000000 9.0000000000 14.000000000 1.0000000000
 1666.6250000 8.4540004730 62.507999420  -999.250000 0.1000000015 0.1000000015 0.0000000000
 1666.7500000 8.2100000381 62.508998871  -999.250000 0.1000000015 0.1000000015 0.0000000000
 1666.8750000 8.0410003662 62.500000000  -999.250000 0.1000000015 0.1000000015 0.0000000000
 1667.0000000 7.8569998741 62.493999481  -999.250000 0.1000000015 0.1000000015 0.0000000000
 1667.1250000 7.7690000534 62.472999573  -999.250000 0.1000000015 0.1000000015 0.0000000000
 1667.2500000 7.8480000496 62.436000824  -999.250000 0.1000000015 0.1000000015 0.0000000000
 1667.3750000 8.1319999695 62.354999542 3.0000000000 16.000000000 358.00000000 1.0000000000
 1667.5000000 8.6129999161 62.234001160 3.0000000000 16.000000000 358.00000000 1.0000000000
 1667.6250000 9.2720003128 62.090000153 3.0000000000 16.000000000 358.00000000 1.0000000000
