# LAS format log file from PETREL
# Project units are specified as depth units
#==================================================================
~Version information
VERS.   2.0:
WRAP.   NO:
#==================================================================
~Well
STRT .m      1450.0000000 :
STOP .m      1720.0000000 :
STEP .m     0.12500000 :
NULL .        -999.250000 :
COMP.           : COMPANY
WELL.  5-17C   : WELL
FLD.            : FIELD
LOC.            : LOCATION
SRVC.           : SERVICE COMPANY
DATE.  2020-03-08 09:25:10   : Log Export Date {yyyy-MM-dd HH:mm:ss}
PROV.           : PROVINCE
UWI.      : UNIQUE WELL ID
API.            : API NUMBER
#==================================================================
~Curve
DEPT .m                   : DEPTH
RT .ohm.m                 : RT
SP .                      : SP
Fluids .                  : Fluids
POR .m3/m3                : POR
PERM .mD                  : PERM
Lith .                    : Lith
~Parameter
#==================================================================
~Ascii
# ...
 1634.8750000 20.545000076 33.152000427  -999.250000 0.1000000015 0.1000000015 0.0000000000
 1635.0000000 20.233999252 34.582000732  -999.250000 0.1000000015 0.1000000015 0.0000000000
 1635.1250000 19.958000183 36.373001099  -999.250000 0.1000000015 0.1000000015 0.0000000000
 1635.2500000 19.600999832 37.023998260  -999.250000 0.1000000015 0.1000000015 0.0000000000
 1635.3750000 18.872999191 37.513000488  -999.250000 0.1000000015 0.1000000015 0.0000000000
 1635.5000000 18.204999924 37.930999756  -999.250000 0.1000000015 0.1000000015 0.0000000000
 1635.6250000 17.839000702 38.319999695  -999.250000 0.1000000015 0.1000000015 0.0000000000
 1635.7500000 17.402000427 38.606998444  -999.250000 0.1000000015 0.1000000015 0.0000000000
 1635.8750000 16.938999176 38.715999603 3.0000000000 18.000000000 595.00000000 1.0000000000
 1636.0000000 15.803000450 38.805999756 3.0000000000 18.000000000 595.00000000 1.0000000000
 1636.1250000 15.032999992 38.848999023 3.0000000000 18.000000000 595.00000000 1.0000000000
 1636.2500000 14.480999947 38.862998962 3.0000000000 18.000000000 595.00000000 1.0000000000
 1636.3750000 14.142999649 38.876998901 3.0000000000 18.000000000 595.00000000 1.0000000000
 1636.5000000 13.734000206 38.875999451 3.0000000000 18.000000000 595.00000000 1.0000000000
 1636.6250000 13.253000259 38.742000580 3.0000000000 18.000000000 595.00000000 1.0000000000
 1636.7500000 12.659000397 38.465999603 3.0000000000 18.000000000 595.00000000 1.0000000000
 1636.8750000 12.234000206 38.081001282  -999.250000 0.1000000015 0.1000000015 0.0000000000
 1637.0000000 11.560999870 37.431999207  -999.250000 0.1000000015 0.1000000015 0.0000000000
 1637.1250000 10.642999649 36.780998230 4.0000000000 19.000000000 1383.0000000 1.0000000000
 1637.2500000 9.5109996796 35.971000671 4.0000000000 19.000000000 1383.0000000 1.0000000000
 1637.3750000 8.3780002594 35.001998901 4.0000000000 19.000000000 1383.0000000 1.0000000000
 1637.5000000 8.0799999237 33.869998932 4.0000000000 19.000000000 1383.0000000 1.0000000000
 1637.6250000 8.0520000458 33.039001465 4.0000000000 19.000000000 1383.0000000 1.0000000000
 1637.7500000 8.0039997101 31.709999084 4.0000000000 19.000000000 1383.0000000 1.0000000000
 1637.8750000 7.9939999580 29.763000488 4.0000000000 19.000000000 1383.0000000 1.0000000000
 1638.0000000 8.0139999390 27.326999664 4.0000000000 19.000000000 1383.0000000 1.0000000000
 1638.1250000 8.0349998474 25.280000687 4.0000000000 19.000000000 1383.0000000 1.0000000000
 1638.2500000 8.1450004578 23.232999802 4.0000000000 19.000000000 1383.0000000 1.0000000000
 1638.3750000 8.3439998627 20.979000092 4.0000000000 19.000000000 1383.0000000 1.0000000000
 1638.5000000 9.3020000458 19.308000565 4.0000000000 19.000000000 1383.0000000 1.0000000000
 1638.6250000 10.260000229 17.500000000 4.0000000000 19.000000000 1383.0000000 1.0000000000
 1638.7500000 10.824999809 15.532999992 4.0000000000 19.000000000 1383.0000000 1.0000000000
 1638.8750000 10.967000008 13.734999657 4.0000000000 19.000000000 1383.0000000 1.0000000000
 1639.0000000 11.088000298 12.817999840 4.0000000000 19.000000000 1383.0000000 1.0000000000
 1639.1250000 11.281999588 11.899999619 4.0000000000 19.000000000 1383.0000000 1.0000000000
 1639.2500000 11.404999733 10.869000435 4.0000000000 19.000000000 1383.0000000 1.0000000000
 1639.3750000 11.468000412 9.8120002747 4.0000000000 19.000000000 1383.0000000 1.0000000000
 1639.5000000 11.498999596 8.9790000916 4.0000000000 19.000000000 1383.0000000 1.0000000000
 1639.6250000 11.362999916 8.1470003128 4.0000000000 19.000000000 1383.0000000 1.0000000000
 1639.7500000 10.902000427 7.0980000496 4.0000000000 19.000000000 1383.0000000 1.0000000000
 1639.8750000 10.550999641 6.0440001488 4.0000000000 19.000000000 1383.0000000 1.0000000000
 1640.0000000 10.201000214 5.2199997902 4.0000000000 19.000000000 1383.0000000 1.0000000000
 1640.1250000 9.8859996796 4.8039999008 4.0000000000 19.000000000 1383.0000000 1.0000000000
 1640.2500000 9.6960000992 4.4010000229 4.0000000000 19.000000000 1383.0000000 1.0000000000
 1640.3750000 9.6350002289 4.0060000420 4.0000000000 19.000000000 1383.0000000 1.0000000000
 1640.5000000 10.156000137 3.6930000782 4.0000000000 19.000000000 1383.0000000 1.0000000000
 1640.6250000 10.718000412 3.4839999676 4.0000000000 19.000000000 1383.0000000 1.0000000000
 1640.7500000 11.204000473 3.2479999065 4.0000000000 19.000000000 1383.0000000 1.0000000000
 1640.8750000 11.758000374 3.0539999008 4.0000000000 19.000000000 1383.0000000 1.0000000000
 1641.0000000 12.895000458 2.8910000324 4.0000000000 19.000000000 1383.0000000 1.0000000000
 1641.1250000 21.663999557 2.7439999580 4.0000000000 19.000000000 1383.0000000 1.0000000000
 1641.2500000 24.163000107 2.6779999733 4.0000000000 19.000000000 1383.0000000 1.0000000000
 1641.3750000 25.091999054 2.5729999542 4.0000000000 19.000000000 1383.0000000 1.0000000000
 1641.5000000 25.504999161 2.5429999828 4.0000000000 19.000000000 1383.0000000 1.0000000000
 1641.6250000 26.167999268 2.4609999657 4.0000000000 19.000000000 1383.0000000 1.0000000000
 1641.7500000 29.423999786 2.3759999275 4.0000000000 19.000000000 1383.0000000 1.0000000000
 1641.8750000 31.006000519 2.2899999619 4.0000000000 19.000000000 1383.0000000 1.0000000000
 1642.0000000 31.732000351 2.2880001068 4.0000000000 19.000000000 1383.0000000 1.0000000000
 1642.1250000 32.268001556 2.2850000858 4.0000000000 19.000000000 1383.0000000 1.0000000000
 1642.2500000 32.566001892 2.3840000629 4.0000000000 19.000000000 1383.0000000 1.0000000000
 1642.3750000 32.618000031 2.3880000114 4.0000000000 19.000000000 1383.0000000 1.0000000000
 1642.5000000 32.507999420 2.4309999943 4.0000000000 19.000000000 1383.0000000 1.0000000000
 1642.6250000 32.341999054 2.4739999771  -999.250000 0.1000000015 0.1000000015 0.0000000000
 1642.7500000 29.972999573 2.4909999371  -999.250000 0.1000000015 0.1000000015 0.0000000000
 1642.8750000 28.652000427 2.4960000515  -999.250000 0.1000000015 0.1000000015 0.0000000000
 1643.0000000 27.959999084 2.4949998856  -999.250000 0.1000000015 0.1000000015 0.0000000000
 1643.1250000 27.718999863 2.4939999580  -999.250000 0.1000000015 0.1000000015 0.0000000000
 1643.2500000 27.566999435 2.4920001030  -999.250000 0.1000000015 0.1000000015 0.0000000000
 1643.3750000 27.486000061 2.5399999619  -999.250000 0.1000000015 0.1000000015 0.0000000000
 1643.5000000 27.403999329 2.5869998932  -999.250000 0.1000000015 0.1000000015 0.0000000000
 1643.6250000 27.392999649 2.6640000343  -999.250000 0.1000000015 0.1000000015 0.0000000000
 1643.7500000 27.370000839 2.6940000057  -999.250000 0.1000000015 0.1000000015 0.0000000000
 1643.8750000 27.346000671 2.7009999752  -999.250000 0.1000000015 0.1000000015 0.0000000000
 1644.0000000 27.405000687 2.6500000954  -999.250000 0.1000000015 0.1000000015 0.0000000000
 1644.1250000 27.420999527 2.5989999771  -999.250000 0.1000000015 0.1000000015 0.0000000000
 1644.2500000 27.424999237 2.4800000191  -999.250000 0.1000000015 0.1000000015 0.0000000000
 1644.3750000 27.429000854 2.3750000000  -999.250000 0.1000000015 0.1000000015 0.0000000000
 1644.5000000 27.009000778 2.2699999809  -999.250000 0.1000000015 0.1000000015 0.0000000000
 1644.6250000 26.226999283 2.1449999809  -999.250000 0.1000000015 0.1000000015 0.0000000000
 1644.7500000 26.197999954 2.0550000668  -999.250000 0.1000000015 0.1000000015 0.0000000000
 1644.8750000 26.170000076 1.9670000076  -999.250000 0.1000000015 0.1000000015 0.0000000000
 1645.0000000 26.159000397 1.8559999466  -999.250000 0.1000000015 0.1000000015 0.0000000000
 1645.1250000 26.153999329 1.8079999685  -999.250000 0.1000000015 0.1000000015 0.0000000000
 1645.2500000 26.148000717 1.7929999828  -999.250000 0.1000000015 0.1000000015 0.0000000000
 1645.3750000 26.288999557 1.8380000591  -999.250000 0.1000000015 0.1000000015 0.0000000000
 1645.5000000 26.334999084 1.8819999695  -999.250000 0.1000000015 0.1000000015 0.0000000000
 1645.6250000 26.381000519 2.0989999771  -999.250000 0.1000000015 0.1000000015 0.0000000000
