# LAS format log file from PETREL
# Project units are specified as depth units
#==================================================================
~Version information
VERS.   2.0:
WRAP.   NO:
#==================================================================
~Well
STRT .m      1350.0000000 :
STOP .m      1720.0000000 :
STEP .m     0.12500000 :
NULL .        -999.250000 :
COMP.           : COMPANY
WELL.  5-172C   : WELL
FLD.            : FIELD
LOC.            : LOCATION
SRVC.           : SERVICE COMPANY
DATE.  2020-03-08 09:25:10   : Log Export Date {yyyy-MM-dd HH:mm:ss}
PROV.           : PROVINCE
UWI.      : UNIQUE WELL ID
API.            : API NUMBER
#==================================================================
~Curve
DEPT .m                   : DEPTH
RT .ohm.m                 : RT
SP .                      : SP
Fluids .                  : Fluids
POR .m3/m3                : POR
PERM .mD                  : PERM
Lith .                    : Lith
~Parameter
#==================================================================
~Ascii
# ...
 1698.0000000 -1.297999978 24.115999222  -999.250000 0.1000000015 0.1000000015 0.0000000000
 1698.1250000 -1.348999977 24.004999161  -999.250000 0.1000000015 0.1000000015 0.0000000000
 1698.2500000 -1.370000005 24.017999649  -999.250000 0.1000000015 0.1000000015 0.0000000000
 1698.3750000 -1.376999974 24.031000137  -999.250000 0.1000000015 0.1000000015 0.0000000000
 1698.5000000 -1.197000027 24.201000214  -999.250000 0.1000000015 0.1000000015 0.0000000000
 1698.6250000 -0.995999992 24.371000290  -999.250000 0.1000000015 0.1000000015 0.0000000000
 1698.7500000 -0.552999973 24.725000381  -999.250000 0.1000000015 0.1000000015 0.0000000000
 1698.8750000 0.0109999999 25.118999481  -999.250000 0.1000000015 0.1000000015 0.0000000000
 1699.0000000 1.1840000153 25.361000061  -999.250000 0.1000000015 0.1000000015 0.0000000000
 1699.1250000 2.0260000229 25.705999374  -999.250000 0.1000000015 0.1000000015 0.0000000000
 1699.2500000 3.7460000515 26.104999542  -999.250000 0.1000000015 0.1000000015 0.0000000000
 1699.3750000 3.2799999714 26.413000107  -999.250000 0.1000000015 0.1000000015 0.0000000000
 1699.5000000 2.9419999123 26.697000504  -999.250000 0.1000000015 0.1000000015 0.0000000000
 1699.6250000 2.6649999619 26.870000839  -999.250000 0.1000000015 0.1000000015 0.0000000000
 1699.7500000 2.4849998951 27.082000732  -999.250000 0.1000000015 0.1000000015 0.0000000000
 1699.8750000 2.2599999905 27.176000595  -999.250000 0.1000000015 0.1000000015 0.0000000000
 1700.0000000 1.9869999886 27.062999725  -999.250000 0.1000000015 0.1000000015 0.0000000000
 1700.1250000 1.7569999695 26.777000427  -999.250000 0.1000000015 0.1000000015 0.0000000000
 1700.2500000 1.6540000439 26.312999725  -999.250000 0.1000000015 0.1000000015 0.0000000000
 1700.3750000 1.6330000162 25.558000565 0.0000000000 8.0000000000 5.0000000000 1.0000000000
 1700.5000000 1.8719999790 23.790000916 0.0000000000 8.0000000000 5.0000000000 1.0000000000
 1700.6250000 2.2009999752 22.021999359 0.0000000000 8.0000000000 5.0000000000 1.0000000000
 1700.7500000 2.4660000801 21.333000183 0.0000000000 8.0000000000 5.0000000000 1.0000000000
 1700.8750000 2.8710000515 20.711000443  -999.250000 0.1000000015 0.1000000015 0.0000000000
 1701.0000000 3.2950000763 20.125000000  -999.250000 0.1000000015 0.1000000015 0.0000000000
 1701.1250000 3.5559999943 19.705999374  -999.250000 0.1000000015 0.1000000015 0.0000000000
 1701.2500000 3.7750000954 19.197999954  -999.250000 0.1000000015 0.1000000015 0.0000000000
 1701.3750000 4.0560002327 18.649999619  -999.250000 0.1000000015 0.1000000015 0.0000000000
 1701.5000000 4.3359999657 18.343999863  -999.250000 0.1000000015 0.1000000015 0.0000000000
 1701.6250000 4.6009998322 18.055000305  -999.250000 0.1000000015 0.1000000015 0.0000000000
 1701.7500000 4.8000001907 17.836999893  -999.250000 0.1000000015 0.1000000015 0.0000000000
 1701.8750000 5.0240001678 17.659000397 0.0000000000 6.0000000000 2.0000000000 1.0000000000
 1702.0000000 5.1909999847 17.587999344 0.0000000000 6.0000000000 2.0000000000 1.0000000000
 1702.1250000 5.3260002136 17.572999954 0.0000000000 6.0000000000 2.0000000000 1.0000000000
 1702.2500000 5.3839998245 17.482999802 0.0000000000 6.0000000000 2.0000000000 1.0000000000
 1702.3750000 5.4450001717 17.357000351 0.0000000000 6.0000000000 2.0000000000 1.0000000000
 1702.5000000 5.4539999962 17.259000778 0.0000000000 6.0000000000 2.0000000000 1.0000000000
 1702.6250000 5.2519998550 17.131999969 0.0000000000 6.0000000000 2.0000000000 1.0000000000
 1702.7500000 1.4279999733 16.951000214 0.0000000000 6.0000000000 2.0000000000 1.0000000000
 1702.8750000 1.1469999552 16.763999939 0.0000000000 6.0000000000 2.0000000000 1.0000000000
 1703.0000000 1.0319999456 16.440000534 0.0000000000 6.0000000000 2.0000000000 1.0000000000
 1703.1250000 1.0279999971 16.048000336 0.0000000000 6.0000000000 2.0000000000 1.0000000000
 1703.2500000 1.0939999819 15.914999962 0.0000000000 6.0000000000 2.0000000000 1.0000000000
 1703.3750000 1.2330000401 15.776000023  -999.250000  -999.250000  -999.250000  -999.250000
 1703.5000000 1.3630000353 15.697999954  -999.250000  -999.250000  -999.250000  -999.250000
 1703.6250000 1.4900000095 15.873000145  -999.250000  -999.250000  -999.250000  -999.250000
 1703.7500000 1.6619999409 16.271999359  -999.250000  -999.250000  -999.250000  -999.250000
 1703.8750000 1.8680000305 16.655000687  -999.250000  -999.250000  -999.250000  -999.250000
 1704.0000000 2.5280001163 17.225000381  -999.250000  -999.250000  -999.250000  -999.250000
 1704.1250000 3.2460000515 17.792999268  -999.250000  -999.250000  -999.250000  -999.250000
 1704.2500000 3.8780000210 18.474000931  -999.250000  -999.250000  -999.250000  -999.250000
 1704.3750000 4.5060000420 19.113000870  -999.250000  -999.250000  -999.250000  -999.250000
 1704.5000000 4.7859997749 19.791999817  -999.250000  -999.250000  -999.250000  -999.250000
 1704.6250000 5.0460000038 20.774999619  -999.250000  -999.250000  -999.250000  -999.250000
 1704.7500000 5.1950001717 21.565999985  -999.250000  -999.250000  -999.250000  -999.250000
 1704.8750000 5.3280000687 22.302999496  -999.250000  -999.250000  -999.250000  -999.250000
 1705.0000000 5.4190001488 22.906000137  -999.250000  -999.250000  -999.250000  -999.250000
 1705.1250000 5.4530000687 23.193000793  -999.250000  -999.250000  -999.250000  -999.250000
 1705.2500000 5.4140000343 23.589000702  -999.250000  -999.250000  -999.250000  -999.250000
 1705.3750000 5.0250000954 24.084999084  -999.250000  -999.250000  -999.250000  -999.250000
 1705.5000000 4.6789999008 24.461000443  -999.250000  -999.250000  -999.250000  -999.250000
 1705.6250000 4.3169999123 24.683000565  -999.250000  -999.250000  -999.250000  -999.250000
 1705.7500000 3.9489998817 24.878000259  -999.250000  -999.250000  -999.250000  -999.250000
 1705.8750000 3.2560000420 25.038000107  -999.250000  -999.250000  -999.250000  -999.250000
 1706.0000000 2.8970000744 25.184000015  -999.250000  -999.250000  -999.250000  -999.250000
 1706.1250000 2.6779999733 25.131000519  -999.250000  -999.250000  -999.250000  -999.250000
 1706.2500000 2.5710000992 25.077999115  -999.250000  -999.250000  -999.250000  -999.250000
 1706.3750000 2.4849998951 25.076000214  -999.250000  -999.250000  -999.250000  -999.250000
 1706.5000000 2.5109999180 25.076000214  -999.250000  -999.250000  -999.250000  -999.250000
 1706.6250000 2.6059999466 24.597000122  -999.250000  -999.250000  -999.250000  -999.250000
 1706.7500000 2.7160000801 23.155000687  -999.250000  -999.250000  -999.250000  -999.250000
 1706.8750000 2.8080000877 22.809999466  -999.250000  -999.250000  -999.250000  -999.250000
 1707.0000000 2.9159998894 23.191999435  -999.250000  -999.250000  -999.250000  -999.250000
 1707.1250000 3.0350000858 23.959999084  -999.250000  -999.250000  -999.250000  -999.250000
 1707.2500000 3.1129999161 24.365999222  -999.250000  -999.250000  -999.250000  -999.250000
 1707.3750000 3.1579999924 24.489999771  -999.250000  -999.250000  -999.250000  -999.250000
 1707.5000000 3.2149999142 24.614000320  -999.250000  -999.250000  -999.250000  -999.250000
 1707.6250000 3.2420001030 23.281999588  -999.250000  -999.250000  -999.250000  -999.250000
 1707.7500000 3.2690000534 22.733999252  -999.250000  -999.250000  -999.250000  -999.250000
 1707.8750000 3.2709999084 22.510000229  -999.250000  -999.250000  -999.250000  -999.250000
 1708.0000000 3.2070000172 22.783000946  -999.250000  -999.250000  -999.250000  -999.250000
 1708.1250000 3.1879999638 23.149999619  -999.250000  -999.250000  -999.250000  -999.250000
 1708.2500000 3.1459999084 23.450000763  -999.250000  -999.250000  -999.250000  -999.250000
 1708.3750000 3.1300001144 23.913999557  -999.250000  -999.250000  -999.250000  -999.250000
 1708.5000000 3.0810000896 24.247999191  -999.250000  -999.250000  -999.250000  -999.250000
 1708.6250000 3.0090000629 24.336999893  -999.250000  -999.250000  -999.250000  -999.250000
 1708.7500000 2.9360001087 24.304000854  -999.250000  -999.250000  -999.250000  -999.250000
