# LAS format log file from PETREL
# Project units are specified as depth units
#==================================================================
~Version information
VERS.   2.0:
WRAP.   NO:
#==================================================================
~Well
STRT .m      1350.0000000 :
STOP .m      1730.0000000 :
STEP .m     0.12500000 :
NULL .        -999.250000 :
COMP.           : COMPANY
WELL.  5-172   : WELL
FLD.            : FIELD
LOC.            : LOCATION
SRVC.           : SERVICE COMPANY
DATE.  2020-03-08 09:25:10   : Log Export Date {yyyy-MM-dd HH:mm:ss}
PROV.           : PROVINCE
UWI.      : UNIQUE WELL ID
API.            : API NUMBER
#==================================================================
~Curve
DEPT .m                   : DEPTH
RT .ohm.m                 : RT
SP .                      : SP
Fluids .                  : Fluids
POR .m3/m3                : POR
PERM .mD                  : PERM
Lith .                    : Lith
~Parameter
#==================================================================
~Ascii
# ...
 1698.0000000 30.572000504 3.5050001144 2.0000000000 16.000000000 380.00000000 1.0000000000
 1698.1250000 30.447999954 3.3489999771 2.0000000000 16.000000000 380.00000000 1.0000000000
 1698.2500000 30.253999710 3.2030000687 2.0000000000 16.000000000 380.00000000 1.0000000000
 1698.3750000 30.059000015 2.9839999676 2.0000000000 16.000000000 380.00000000 1.0000000000
 1698.5000000 29.684999466 2.8610000610 2.0000000000 16.000000000 380.00000000 1.0000000000
 1698.6250000 29.309999466 2.6540000439 2.0000000000 16.000000000 380.00000000 1.0000000000
 1698.7500000 28.825000763 2.4660000801 2.0000000000 16.000000000 380.00000000 1.0000000000
 1698.8750000 24.822000504 2.3059999943  -999.250000 0.1000000015 0.1000000015 0.0000000000
 1699.0000000 22.569999695 2.0769999027  -999.250000 0.1000000015 0.1000000015 0.0000000000
 1699.1250000 20.972000122 1.9140000343  -999.250000 0.1000000015 0.1000000015 0.0000000000
 1699.2500000 19.104000092 1.7350000143  -999.250000 0.1000000015 0.1000000015 0.0000000000
 1699.3750000 17.989999771 1.5850000381 2.0000000000 15.000000000 218.00000000 1.0000000000
 1699.5000000 17.485000610 1.4869999886 2.0000000000 15.000000000 218.00000000 1.0000000000
 1699.6250000 17.058000565 1.2749999762 2.0000000000 15.000000000 218.00000000 1.0000000000
 1699.7500000 16.673000336 1.2269999981 2.0000000000 15.000000000 218.00000000 1.0000000000
 1699.8750000 16.306999207 1.1619999409 2.0000000000 15.000000000 218.00000000 1.0000000000
 1700.0000000 15.947999954 1.0820000172 2.0000000000 15.000000000 218.00000000 1.0000000000
 1700.1250000 15.862999916 1.0410000086 2.0000000000 15.000000000 218.00000000 1.0000000000
 1700.2500000 15.729000092 0.9700000286 2.0000000000 15.000000000 218.00000000 1.0000000000
 1700.3750000 15.637000084 0.8700000048 2.0000000000 15.000000000 218.00000000 1.0000000000
 1700.5000000 15.585000038 0.7519999743 2.0000000000 15.000000000 218.00000000 1.0000000000
 1700.6250000 15.598999977 0.5910000205 2.0000000000 15.000000000 218.00000000 1.0000000000
 1700.7500000 15.699000359 0.4429999888 2.0000000000 15.000000000 218.00000000 1.0000000000
 1700.8750000 15.967000008 0.3339999914 2.0000000000 15.000000000 218.00000000 1.0000000000
 1701.0000000 16.275999069 0.2790000141 2.0000000000 15.000000000 218.00000000 1.0000000000
 1701.1250000 16.156000137 0.2020000070 2.0000000000 15.000000000 218.00000000 1.0000000000
 1701.2500000 16.003999710 0.0979999974 2.0000000000 15.000000000 218.00000000 1.0000000000
 1701.3750000 15.869999886 0.0610000007 2.0000000000 15.000000000 218.00000000 1.0000000000
 1701.5000000 15.746000290 0.0439999998 2.0000000000 15.000000000 218.00000000 1.0000000000
 1701.6250000 15.522000313 0.0979999974 2.0000000000 15.000000000 218.00000000 1.0000000000
 1701.7500000 15.604999542 0.2579999864 2.0000000000 15.000000000 218.00000000 1.0000000000
 1701.8750000 15.895000458 0.5580000281 2.0000000000 15.000000000 218.00000000 1.0000000000
 1702.0000000 16.184999466 0.9169999957 2.0000000000 15.000000000 218.00000000 1.0000000000
 1702.1250000 16.541000366 1.3919999599 2.0000000000 15.000000000 218.00000000 1.0000000000
 1702.2500000 16.923000336 1.8439999819 2.0000000000 15.000000000 218.00000000 1.0000000000
 1702.3750000 17.378999710 2.2460000515  -999.250000 0.1000000015 0.1000000015 0.0000000000
 1702.5000000 17.840999603 2.6689999104  -999.250000 0.1000000015 0.1000000015 0.0000000000
 1702.6250000 18.406000137 3.1010000706  -999.250000 0.1000000015 0.1000000015 0.0000000000
 1702.7500000 18.989999771 3.3169999123  -999.250000 0.1000000015 0.1000000015 0.0000000000
 1702.8750000 19.729000092 3.6889998913 3.0000000000 16.000000000 292.00000000 1.0000000000
 1703.0000000 19.780000687 3.8120000362 3.0000000000 16.000000000 292.00000000 1.0000000000
 1703.1250000 19.431999207 4.0539999008 3.0000000000 16.000000000 292.00000000 1.0000000000
 1703.2500000 18.704999924 4.2729997635 3.0000000000 16.000000000 292.00000000 1.0000000000
 1703.3750000 18.052999496 4.4549999237  -999.250000 0.1000000015 0.1000000015 0.0000000000
 1703.5000000 16.847000122 4.6149997711  -999.250000 0.1000000015 0.1000000015 0.0000000000
 1703.6250000 15.762000084 4.6539998055  -999.250000 0.1000000015 0.1000000015 0.0000000000
 1703.7500000 14.899000168 4.7560000420  -999.250000 0.1000000015 0.1000000015 0.0000000000
 1703.8750000 14.102999687 4.7829999924 2.0000000000 17.000000000 548.00000000 1.0000000000
 1704.0000000 13.482000351 4.7150001526 2.0000000000 17.000000000 548.00000000 1.0000000000
 1704.1250000 13.168999672 4.6319999695 2.0000000000 17.000000000 548.00000000 1.0000000000
 1704.2500000 12.951000214 4.5190000534 2.0000000000 17.000000000 548.00000000 1.0000000000
 1704.3750000 12.888999939 4.3920001984 2.0000000000 17.000000000 548.00000000 1.0000000000
 1704.5000000 13.335000038 4.2579998970 2.0000000000 17.000000000 548.00000000 1.0000000000
 1704.6250000 14.026000023 4.1230001450 2.0000000000 17.000000000 548.00000000 1.0000000000
 1704.7500000 14.557000160 4.0170001984 2.0000000000 17.000000000 548.00000000 1.0000000000
 1704.8750000 15.046999931 3.8970000744 2.0000000000 17.000000000 548.00000000 1.0000000000
 1705.0000000 15.251000404 3.7699999809 2.0000000000 17.000000000 548.00000000 1.0000000000
 1705.1250000 15.454999924 3.7190001011 2.0000000000 17.000000000 548.00000000 1.0000000000
 1705.2500000 15.649999619 3.7100000381 2.0000000000 17.000000000 548.00000000 1.0000000000
 1705.3750000 15.564000130 3.7090001106  -999.250000 0.1000000015 0.1000000015 0.0000000000
 1705.5000000 15.241000175 3.7109999657  -999.250000 0.1000000015 0.1000000015 0.0000000000
 1705.6250000 14.871999741 3.7149999142  -999.250000 0.1000000015 0.1000000015 0.0000000000
 1705.7500000 14.479000092 3.7880001068  -999.250000 0.1000000015 0.1000000015 0.0000000000
 1705.8750000 13.043000221 3.9010000229  -999.250000 0.1000000015 0.1000000015 0.0000000000
 1706.0000000 12.560000420 4.0040001869  -999.250000 0.1000000015 0.1000000015 0.0000000000
 1706.1250000 12.262999535 4.2080001831  -999.250000 0.1000000015 0.1000000015 0.0000000000
 1706.2500000 12.067999840 4.4039998055  -999.250000 0.1000000015 0.1000000015 0.0000000000
 1706.3750000 12.130000114 4.7300000191  -999.250000 0.1000000015 0.1000000015 0.0000000000
 1706.5000000 12.625000000 5.0329999924 4.0000000000 17.000000000 665.00000000 1.0000000000
 1706.6250000 13.119000435 5.4349999428 4.0000000000 17.000000000 665.00000000 1.0000000000
 1706.7500000 14.092000008 5.8000001907 4.0000000000 17.000000000 665.00000000 1.0000000000
 1706.8750000 14.710000038 6.1240000725 4.0000000000 17.000000000 665.00000000 1.0000000000
 1707.0000000 15.034000397 6.4239997864 4.0000000000 17.000000000 665.00000000 1.0000000000
 1707.1250000 15.357000351 6.7189998627 4.0000000000 17.000000000 665.00000000 1.0000000000
 1707.2500000 15.647999763 7.0100002289 4.0000000000 17.000000000 665.00000000 1.0000000000
 1707.3750000 15.937999725 7.3810000420  -999.250000  -999.250000  -999.250000  -999.250000
 1707.5000000 16.169000626 7.7639999390  -999.250000  -999.250000  -999.250000  -999.250000
 1707.6250000 16.309000015 8.2580003738  -999.250000  -999.250000  -999.250000  -999.250000
 1707.7500000 16.259000778 8.6199998856  -999.250000  -999.250000  -999.250000  -999.250000
 1707.8750000 15.852000237 9.0030002594  -999.250000  -999.250000  -999.250000  -999.250000
 1708.0000000 15.277999878 9.3179998398  -999.250000  -999.250000  -999.250000  -999.250000
 1708.1250000 14.597999573 9.6809997559  -999.250000  -999.250000  -999.250000  -999.250000
 1708.2500000 9.8140001297 10.001000404  -999.250000  -999.250000  -999.250000  -999.250000
 1708.3750000 7.1640000343 10.319999695  -999.250000  -999.250000  -999.250000  -999.250000
 1708.5000000 5.7989997864 10.611000061  -999.250000  -999.250000  -999.250000  -999.250000
 1708.6250000 5.3309998512 11.133000374  -999.250000  -999.250000  -999.250000  -999.250000
 1708.7500000 5.0700001717 11.423999786  -999.250000  -999.250000  -999.250000  -999.250000
