# LAS format log file from PETREL
# Project units are specified as depth units
#==================================================================
~Version information
VERS.   2.0:
WRAP.   NO:
#==================================================================
~Well
STRT .m      1450.0000000 :
STOP .m      1720.0000000 :
STEP .m     0.12500000 :
NULL .        -999.250000 :
COMP.           : COMPANY
WELL.  5-17C   : WELL
FLD.            : FIELD
LOC.            : LOCATION
SRVC.           : SERVICE COMPANY
DATE.  2020-03-08 09:25:10   : Log Export Date {yyyy-MM-dd HH:mm:ss}
PROV.           : PROVINCE
UWI.      : UNIQUE WELL ID
API.            : API NUMBER
#==================================================================
~Curve
DEPT .m                   : DEPTH
RT .ohm.m                 : RT
SP .                      : SP
Fluids .                  : Fluids
POR .m3/m3                : POR
PERM .mD                  : PERM
Lith .                    : Lith
~Parameter
#==================================================================
~Ascii
# ...
 1667.5000000 14.657999992 17.799999237  -999.250000 0.1000000015 0.1000000015 0.0000000000
 1667.6250000 14.781000137 18.094999313  -999.250000 0.1000000015 0.1000000015 0.0000000000
 1667.7500000 14.848999977 18.363000870  -999.250000 0.1000000015 0.1000000015 0.0000000000
 1667.8750000 14.607999802 18.681999207  -999.250000 0.1000000015 0.1000000015 0.0000000000
 1668.0000000 14.368000031 19.033000946  -999.250000 0.1000000015 0.1000000015 0.0000000000
 1668.1250000 13.428999901 19.469999313  -999.250000 0.1000000015 0.1000000015 0.0000000000
 1668.2500000 10.949999809 19.870000839  -999.250000 0.1000000015 0.1000000015 0.0000000000
 1668.3750000 9.6820001602 20.336999893  -999.250000 0.1000000015 0.1000000015 0.0000000000
 1668.5000000 9.1689996719 20.649999619  -999.250000 0.1000000015 0.1000000015 0.0000000000
 1668.6250000 8.7130002975 20.913999557  -999.250000 0.1000000015 0.1000000015 0.0000000000
 1668.7500000 8.3210000992 21.166999817  -999.250000 0.1000000015 0.1000000015 0.0000000000
 1668.8750000 7.9180002213 21.419000626 3.0000000000 12.000000000 86.000000000 1.0000000000
 1669.0000000 7.8420000076 21.604000092 3.0000000000 12.000000000 86.000000000 1.0000000000
 1669.1250000 7.9409999847 21.756000519 3.0000000000 12.000000000 86.000000000 1.0000000000
 1669.2500000 8.1510000229 21.919000626 3.0000000000 12.000000000 86.000000000 1.0000000000
 1669.3750000 8.4049997330 22.062999725 3.0000000000 12.000000000 86.000000000 1.0000000000
 1669.5000000 8.6319999695 22.263999939 3.0000000000 12.000000000 86.000000000 1.0000000000
 1669.6250000 8.8559999466 22.330999374 3.0000000000 12.000000000 86.000000000 1.0000000000
 1669.7500000 9.1110000610 22.399000168 3.0000000000 12.000000000 86.000000000 1.0000000000
 1669.8750000 9.3439998627 22.499000549 3.0000000000 12.000000000 86.000000000 1.0000000000
 1670.0000000 9.5690002441 22.597999573 3.0000000000 12.000000000 86.000000000 1.0000000000
 1670.1250000 9.7010002136 22.618000031 3.0000000000 12.000000000 86.000000000 1.0000000000
 1670.2500000 9.8529996872 22.618000031 3.0000000000 12.000000000 86.000000000 1.0000000000
 1670.3750000 10.048000336 22.666999817 3.0000000000 12.000000000 86.000000000 1.0000000000
 1670.5000000 10.178999901 22.715999603 3.0000000000 12.000000000 86.000000000 1.0000000000
 1670.6250000 10.241000175 22.826000214 3.0000000000 12.000000000 86.000000000 1.0000000000
 1670.7500000 9.9709997177 22.891000748 3.0000000000 12.000000000 86.000000000 1.0000000000
 1670.8750000 9.5030002594 23.048999786 3.0000000000 12.000000000 86.000000000 1.0000000000
 1671.0000000 8.9919996262 23.121999741 3.0000000000 12.000000000 86.000000000 1.0000000000
 1671.1250000 8.6579999924 23.201999664 3.0000000000 12.000000000 86.000000000 1.0000000000
 1671.2500000 8.4209995270 23.243000031 3.0000000000 12.000000000 86.000000000 1.0000000000
 1671.3750000 8.1070003510 23.205999374 3.0000000000 12.000000000 86.000000000 1.0000000000
 1671.5000000 7.8569998741 23.170000076 3.0000000000 12.000000000 86.000000000 1.0000000000
 1671.6250000 7.6799998283 23.160999298 3.0000000000 12.000000000 86.000000000 1.0000000000
 1671.7500000 7.5170001984 23.059999466 3.0000000000 12.000000000 86.000000000 1.0000000000
 1671.8750000 7.3540000916 22.958999634 3.0000000000 12.000000000 86.000000000 1.0000000000
 1672.0000000 7.2329998016 22.834999084 3.0000000000 12.000000000 86.000000000 1.0000000000
 1672.1250000 7.1160001755 22.705999374 3.0000000000 12.000000000 86.000000000 1.0000000000
 1672.2500000 7.0789999962 22.549999237 3.0000000000 12.000000000 86.000000000 1.0000000000
 1672.3750000 7.0700001717 22.395000458 3.0000000000 12.000000000 86.000000000 1.0000000000
 1672.5000000 7.1160001755 22.055000305 3.0000000000 12.000000000 86.000000000 1.0000000000
 1672.6250000 7.1160001755 21.628999710 3.0000000000 12.000000000 86.000000000 1.0000000000
 1672.7500000 7.0859999657 21.049999237 3.0000000000 12.000000000 86.000000000 1.0000000000
 1672.8750000 7.0770001411 20.513999939 3.0000000000 12.000000000 86.000000000 1.0000000000
 1673.0000000 7.0679998398 19.989999771 3.0000000000 12.000000000 86.000000000 1.0000000000
 1673.1250000 7.0650000572 19.724000931 3.0000000000 12.000000000 86.000000000 1.0000000000
 1673.2500000 7.0440001488 19.368999481 3.0000000000 12.000000000 86.000000000 1.0000000000
 1673.3750000 7.0229997635 19.090999603 3.0000000000 12.000000000 86.000000000 1.0000000000
 1673.5000000 7.0170001984 18.829999924 3.0000000000 12.000000000 86.000000000 1.0000000000
 1673.6250000 7.0110001564 18.635999680 3.0000000000 12.000000000 86.000000000 1.0000000000
 1673.7500000 7.0329999924 18.406000137 3.0000000000 12.000000000 86.000000000 1.0000000000
 1673.8750000 7.0539999008 18.273000717 3.0000000000 12.000000000 86.000000000 1.0000000000
 1674.0000000 7.1240000725 18.142000198 0.0000000000 9.0000000000 8.0000000000 1.0000000000
 1674.1250000 7.1970000267 18.010999680 0.0000000000 9.0000000000 8.0000000000 1.0000000000
 1674.2500000 7.2699999809 17.881000519 0.0000000000 9.0000000000 8.0000000000 1.0000000000
 1674.3750000 7.3439998627 17.750000000 0.0000000000 9.0000000000 8.0000000000 1.0000000000
 1674.5000000 7.3839998245 17.620000839 0.0000000000 9.0000000000 8.0000000000 1.0000000000
 1674.6250000 7.4359998703 17.489000320 0.0000000000 9.0000000000 8.0000000000 1.0000000000
 1674.7500000 7.4879999161 17.358999252 0.0000000000 9.0000000000 8.0000000000 1.0000000000
 1674.8750000 7.5419998169 17.268999100 0.0000000000 9.0000000000 8.0000000000 1.0000000000
 1675.0000000 7.5799999237 17.180999756 0.0000000000 9.0000000000 8.0000000000 1.0000000000
 1675.1250000 7.7030000687 17.069000244 0.0000000000 9.0000000000 8.0000000000 1.0000000000
 1675.2500000 7.8959999084 16.947000504 0.0000000000 9.0000000000 8.0000000000 1.0000000000
 1675.3750000 8.1949996948 16.912000656 0.0000000000 9.0000000000 8.0000000000 1.0000000000
 1675.5000000 8.5839996338 16.827999115 0.0000000000 9.0000000000 8.0000000000 1.0000000000
 1675.6250000 9.3570003510 16.860000610 0.0000000000 9.0000000000 8.0000000000 1.0000000000
 1675.7500000 10.111000061 17.024000168 0.0000000000 9.0000000000 8.0000000000 1.0000000000
 1675.8750000 10.685000420 17.312999725 0.0000000000 9.0000000000 8.0000000000 1.0000000000
 1676.0000000 11.083999634 17.712999344 0.0000000000 9.0000000000 8.0000000000 1.0000000000
 1676.1250000 11.088999748 18.100000381 0.0000000000 9.0000000000 8.0000000000 1.0000000000
 1676.2500000 10.942000389 18.395000458 0.0000000000 9.0000000000 8.0000000000 1.0000000000
 1676.3750000 10.788999557 18.607999802 0.0000000000 9.0000000000 8.0000000000 1.0000000000
 1676.5000000 10.621999741 18.711000443 0.0000000000 9.0000000000 8.0000000000 1.0000000000
 1676.6250000 10.402999878 18.545000076  -999.250000 0.1000000015 0.1000000015 0.0000000000
 1676.7500000 10.135999680 18.169000626  -999.250000 0.1000000015 0.1000000015 0.0000000000
 1676.8750000 9.5190000534 17.878999710  -999.250000 0.1000000015 0.1000000015 0.0000000000
 1677.0000000 8.3070001602 17.535999298  -999.250000 0.1000000015 0.1000000015 0.0000000000
 1677.1250000 7.8600001335 17.166000366  -999.250000 0.1000000015 0.1000000015 0.0000000000
 1677.2500000 7.4980001450 16.538000107  -999.250000 0.1000000015 0.1000000015 0.0000000000
 1677.3750000 7.2140002251 15.855999947  -999.250000 0.1000000015 0.1000000015 0.0000000000
 1677.5000000 7.0539999008 15.336999893  -999.250000 0.1000000015 0.1000000015 0.0000000000
 1677.6250000 6.9479999542 14.895999908  -999.250000 0.1000000015 0.1000000015 0.0000000000
 1677.7500000 6.8699998856 14.487999916  -999.250000 0.1000000015 0.1000000015 0.0000000000
 1677.8750000 6.7659997940 13.996999741  -999.250000 0.1000000015 0.1000000015 0.0000000000
 1678.0000000 6.6560001373 13.708999634  -999.250000 0.1000000015 0.1000000015 0.0000000000
 1678.1250000 6.5920000076 13.439000130  -999.250000 0.1000000015 0.1000000015 0.0000000000
 1678.2500000 6.5279998779 13.310000420  -999.250000 0.1000000015 0.1000000015 0.0000000000
