# LAS format log file from PETREL
# Project units are specified as depth units
#==================================================================
~Version information
VERS.   2.0:
WRAP.   NO:
#==================================================================
~Well
STRT .m      1385.0000000 :
STOP .m      1720.0000000 :
STEP .m     0.12500000 :
NULL .        -999.250000 :
COMP.           : COMPANY
WELL.  5-17C2   : WELL
FLD.            : FIELD
LOC.            : LOCATION
SRVC.           : SERVICE COMPANY
DATE.  2020-03-08 09:25:10   : Log Export Date {yyyy-MM-dd HH:mm:ss}
PROV.           : PROVINCE
UWI.      : UNIQUE WELL ID
API.            : API NUMBER
#==================================================================
~Curve
DEPT .m                   : DEPTH
RT .ohm.m                 : RT
SP .                      : SP
Fluids .                  : Fluids
POR .m3/m3                : POR
PERM .mD                  : PERM
Lith .                    : Lith
~Parameter
#==================================================================
~Ascii
# ...
 1591.6250000 1.9930000305 65.669998169  -999.250000 0.1000000015 0.1000000015 0.0000000000
 1591.7500000 2.1129999161 65.651000977  -999.250000 0.1000000015 0.1000000015 0.0000000000
 1591.8750000 2.1879999638 65.624000549  -999.250000 0.1000000015 0.1000000015 0.0000000000
 1592.0000000 2.2030000687 65.597000122  -999.250000 0.1000000015 0.1000000015 0.0000000000
 1592.1250000 2.1870000362 65.577003479  -999.250000 0.1000000015 0.1000000015 0.0000000000
 1592.2500000 2.1730000973 65.572998047  -999.250000 0.1000000015 0.1000000015 0.0000000000
 1592.3750000 2.1800000668 65.568000793  -999.250000 0.1000000015 0.1000000015 0.0000000000
 1592.5000000 2.1600000858 65.569000244  -999.250000 0.1000000015 0.1000000015 0.0000000000
 1592.6250000 2.1119999886 65.559997559  -999.250000 0.1000000015 0.1000000015 0.0000000000
 1592.7500000 2.0580000877 65.558998108  -999.250000 0.1000000015 0.1000000015 0.0000000000
 1592.8750000 2.0380001068 65.555000305  -999.250000 0.1000000015 0.1000000015 0.0000000000
 1593.0000000 2.0390000343 65.550003052  -999.250000 0.1000000015 0.1000000015 0.0000000000
 1593.1250000 2.0299999714 65.544998169  -999.250000 0.1000000015 0.1000000015 0.0000000000
 1593.2500000 2.0160000324 65.532997131  -999.250000 0.1000000015 0.1000000015 0.0000000000
 1593.3750000 2.0030000210 65.519996643  -999.250000 0.1000000015 0.1000000015 0.0000000000
 1593.5000000 1.9950000048 65.491996765  -999.250000 0.1000000015 0.1000000015 0.0000000000
 1593.6250000 2.0109999180 65.471000671  -999.250000 0.1000000015 0.1000000015 0.0000000000
 1593.7500000 2.0480000973 65.453002930  -999.250000 0.1000000015 0.1000000015 0.0000000000
 1593.8750000 2.1110000610 65.452003479  -999.250000 0.1000000015 0.1000000015 0.0000000000
 1594.0000000 2.1640000343 65.453002930  -999.250000 0.1000000015 0.1000000015 0.0000000000
 1594.1250000 2.1909999847 65.453002930  -999.250000 0.1000000015 0.1000000015 0.0000000000
 1594.2500000 2.1970000267 65.444000244  -999.250000 0.1000000015 0.1000000015 0.0000000000
 1594.3750000 2.2130000591 65.428001404  -999.250000 0.1000000015 0.1000000015 0.0000000000
 1594.5000000 2.2400000095 65.416999817  -999.250000 0.1000000015 0.1000000015 0.0000000000
 1594.6250000 2.2449998856 65.405998230  -999.250000 0.1000000015 0.1000000015 0.0000000000
 1594.7500000 2.2269999981 65.403999329  -999.250000 0.1000000015 0.1000000015 0.0000000000
 1594.8750000 2.2209999561 65.389999390  -999.250000 0.1000000015 0.1000000015 0.0000000000
 1595.0000000 2.2200000286 65.375999451  -999.250000 0.1000000015 0.1000000015 0.0000000000
 1595.1250000 2.2130000591 65.360000610  -999.250000 0.1000000015 0.1000000015 0.0000000000
 1595.2500000 2.1860001087 65.352996826  -999.250000 0.1000000015 0.1000000015 0.0000000000
 1595.3750000 2.1349999905 65.353996277  -999.250000 0.1000000015 0.1000000015 0.0000000000
 1595.5000000 2.0539999008 65.365997314  -999.250000 0.1000000015 0.1000000015 0.0000000000
 1595.6250000 1.9609999657 65.391998291  -999.250000 0.1000000015 0.1000000015 0.0000000000
 1595.7500000 1.8910000324 65.408996582  -999.250000 0.1000000015 0.1000000015 0.0000000000
 1595.8750000 1.8359999657 65.416000366  -999.250000 0.1000000015 0.1000000015 0.0000000000
 1596.0000000 1.8120000362 65.406997681  -999.250000 0.1000000015 0.1000000015 0.0000000000
 1596.1250000 1.8079999685 65.404998779  -999.250000 0.1000000015 0.1000000015 0.0000000000
 1596.2500000 1.8200000525 65.408996582  -999.250000 0.1000000015 0.1000000015 0.0000000000
 1596.3750000 1.8420000076 65.419998169  -999.250000 0.1000000015 0.1000000015 0.0000000000
 1596.5000000 1.8589999676 65.429000854  -999.250000 0.1000000015 0.1000000015 0.0000000000
 1596.6250000 1.8830000162 65.431999207  -999.250000 0.1000000015 0.1000000015 0.0000000000
 1596.7500000 1.9229999781 65.435997009  -999.250000 0.1000000015 0.1000000015 0.0000000000
 1596.8750000 1.9600000381 65.438003540  -999.250000 0.1000000015 0.1000000015 0.0000000000
 1597.0000000 1.9440000057 65.456001282  -999.250000 0.1000000015 0.1000000015 0.0000000000
 1597.1250000 1.8780000210 65.476997375  -999.250000 0.1000000015 0.1000000015 0.0000000000
 1597.2500000 1.7799999714 65.501998901  -999.250000 0.1000000015 0.1000000015 0.0000000000
 1597.3750000 1.7039999962 65.513999939  -999.250000 0.1000000015 0.1000000015 0.0000000000
 1597.5000000 1.6579999924 65.516998291  -999.250000 0.1000000015 0.1000000015 0.0000000000
 1597.6250000 1.6569999456 65.509002686  -999.250000 0.1000000015 0.1000000015 0.0000000000
 1597.7500000 1.6490000486 65.494003296  -999.250000 0.1000000015 0.1000000015 0.0000000000
 1597.8750000 1.6360000372 65.495002747  -999.250000 0.1000000015 0.1000000015 0.0000000000
 1598.0000000 1.6200000048 65.502998352  -999.250000 0.1000000015 0.1000000015 0.0000000000
 1598.1250000 1.6210000515 65.521003723  -999.250000 0.1000000015 0.1000000015 0.0000000000
 1598.2500000 1.6219999790 65.531997681  -999.250000 0.1000000015 0.1000000015 0.0000000000
 1598.3750000 1.6330000162 65.549003601  -999.250000 0.1000000015 0.1000000015 0.0000000000
 1598.5000000 1.6440000534 65.559997559  -999.250000 0.1000000015 0.1000000015 0.0000000000
 1598.6250000 1.6690000296 65.579002380  -999.250000 0.1000000015 0.1000000015 0.0000000000
 1598.7500000 1.7180000544 65.608001709  -999.250000 0.1000000015 0.1000000015 0.0000000000
 1598.8750000 1.7829999924 65.639999390  -999.250000 0.1000000015 0.1000000015 0.0000000000
 1599.0000000 1.8370000124 65.665000916  -999.250000 0.1000000015 0.1000000015 0.0000000000
 1599.1250000 1.8669999838 65.667999268  -999.250000 0.1000000015 0.1000000015 0.0000000000
 1599.2500000 1.8739999533 65.657997131  -999.250000 0.1000000015 0.1000000015 0.0000000000
 1599.3750000 1.8569999933 65.634002686  -999.250000 0.1000000015 0.1000000015 0.0000000000
 1599.5000000 1.8500000238 65.610000610  -999.250000 0.1000000015 0.1000000015 0.0000000000
 1599.6250000 1.8700000048 65.587997437  -999.250000 0.1000000015 0.1000000015 0.0000000000
 1599.7500000 1.8890000582 65.581001282  -999.250000 0.1000000015 0.1000000015 0.0000000000
 1599.8750000 1.8780000210 65.583000183  -999.250000 0.1000000015 0.1000000015 0.0000000000
 1600.0000000 1.8750000000 65.583000183  -999.250000 0.1000000015 0.1000000015 0.0000000000
 1600.1250000 1.9019999504 65.592002869  -999.250000 0.1000000015 0.1000000015 0.0000000000
 1600.2500000 1.9179999828 65.602996826  -999.250000 0.1000000015 0.1000000015 0.0000000000
 1600.3750000 1.9270000458 65.623001099  -999.250000 0.1000000015 0.1000000015 0.0000000000
 1600.5000000 1.9299999475 65.633003235  -999.250000 0.1000000015 0.1000000015 0.0000000000
 1600.6250000 1.9299999475 65.643997192  -999.250000 0.1000000015 0.1000000015 0.0000000000
 1600.7500000 1.9559999704 65.642997742  -999.250000 0.1000000015 0.1000000015 0.0000000000
 1600.8750000 2.0309998989 65.635002136  -999.250000 0.1000000015 0.1000000015 0.0000000000
 1601.0000000 2.1389999390 65.621002197  -999.250000 0.1000000015 0.1000000015 0.0000000000
 1601.1250000 2.2530000210 65.611000061  -999.250000 0.1000000015 0.1000000015 0.0000000000
 1601.2500000 2.3159999847 65.619003296  -999.250000 0.1000000015 0.1000000015 0.0000000000
 1601.3750000 2.2950000763 65.637001038  -999.250000 0.1000000015 0.1000000015 0.0000000000
 1601.5000000 2.2160000801 65.666000366  -999.250000 0.1000000015 0.1000000015 0.0000000000
 1601.6250000 2.1300001144 65.693000793  -999.250000 0.1000000015 0.1000000015 0.0000000000
 1601.7500000 2.0209999084 65.726997375  -999.250000 0.1000000015 0.1000000015 0.0000000000
 1601.8750000 1.8969999552 65.742996216  -999.250000 0.1000000015 0.1000000015 0.0000000000
 1602.0000000 1.7749999762 65.749000549  -999.250000 0.1000000015 0.1000000015 0.0000000000
 1602.1250000 1.6859999895 65.736999512  -999.250000 0.1000000015 0.1000000015 0.0000000000
 1602.2500000 1.6360000372 65.704002380  -999.250000 0.1000000015 0.1000000015 0.0000000000
 1602.3750000 1.6039999723 65.664001465  -999.250000 0.1000000015 0.1000000015 0.0000000000
