# LAS format log file from PETREL
# Project units are specified as depth units
#==================================================================
~Version information
VERS.   2.0:
WRAP.   NO:
#==================================================================
~Well
STRT .m      1300.0000000 :
STOP .m      1750.0000000 :
STEP .m     0.12500000 :
NULL .        -999.250000 :
COMP.           : COMPANY
WELL.  5-176   : WELL
FLD.            : FIELD
LOC.            : LOCATION
SRVC.           : SERVICE COMPANY
DATE.  2020-03-08 09:25:10   : Log Export Date {yyyy-MM-dd HH:mm:ss}
PROV.           : PROVINCE
UWI.      : UNIQUE WELL ID
API.            : API NUMBER
#==================================================================
~Curve
DEPT .m                   : DEPTH
RT .ohm.m                 : RT
SP .                      : SP
Fluids .                  : Fluids
POR .m3/m3                : POR
PERM .mD                  : PERM
Lith .                    : Lith
~Parameter
#==================================================================
~Ascii
# ...
 1408.7500000 4.5859999657 30.665000916  -999.250000 0.1000000015 0.1000000015 0.0000000000
 1408.8750000 4.3940000534 30.945999146  -999.250000 0.1000000015 0.1000000015 0.0000000000
 1409.0000000 4.2020001411 31.221000671  -999.250000 0.1000000015 0.1000000015 0.0000000000
 1409.1250000 4.0209999084 31.590999603  -999.250000 0.1000000015 0.1000000015 0.0000000000
 1409.2500000 3.8320000172 31.992000580  -999.250000 0.1000000015 0.1000000015 0.0000000000
 1409.3750000 3.6419999599 32.176998138  -999.250000 0.1000000015 0.1000000015 0.0000000000
 1409.5000000 3.5150001049 32.527999878  -999.250000 0.1000000015 0.1000000015 0.0000000000
 1409.6250000 3.3550000191 32.752998352  -999.250000 0.1000000015 0.1000000015 0.0000000000
 1409.7500000 3.1819999218 32.978000641  -999.250000 0.1000000015 0.1000000015 0.0000000000
 1409.8750000 3.0590000153 33.134998322  -999.250000 0.1000000015 0.1000000015 0.0000000000
 1410.0000000 2.9089999199 33.313999176  -999.250000 0.1000000015 0.1000000015 0.0000000000
 1410.1250000 2.7760000229 33.368999481  -999.250000 0.1000000015 0.1000000015 0.0000000000
 1410.2500000 2.7239999771 33.381000519  -999.250000 0.1000000015 0.1000000015 0.0000000000
 1410.3750000 2.6670000553 33.382999420  -999.250000 0.1000000015 0.1000000015 0.0000000000
 1410.5000000 2.6549999714 33.455001831  -999.250000 0.1000000015 0.1000000015 0.0000000000
 1410.6250000 2.6540000439 33.486000061  -999.250000 0.1000000015 0.1000000015 0.0000000000
 1410.7500000 2.6540000439 33.584999084  -999.250000 0.1000000015 0.1000000015 0.0000000000
 1410.8750000 2.6540000439 33.604999542  -999.250000 0.1000000015 0.1000000015 0.0000000000
 1411.0000000 2.6540000439 33.660999298  -999.250000 0.1000000015 0.1000000015 0.0000000000
 1411.1250000 2.6540000439 33.716999054  -999.250000 0.1000000015 0.1000000015 0.0000000000
 1411.2500000 2.6540000439 33.728000641  -999.250000 0.1000000015 0.1000000015 0.0000000000
 1411.3750000 2.7239999771 33.730998993  -999.250000 0.1000000015 0.1000000015 0.0000000000
 1411.5000000 2.7939999104 33.734001160  -999.250000 0.1000000015 0.1000000015 0.0000000000
 1411.6250000 2.7999999523 33.736000061  -999.250000 0.1000000015 0.1000000015 0.0000000000
 1411.7500000 2.8029999733 33.736999512  -999.250000 0.1000000015 0.1000000015 0.0000000000
 1411.8750000 2.8039999008 33.692001343  -999.250000 0.1000000015 0.1000000015 0.0000000000
 1412.0000000 2.8269999027 33.646999359  -999.250000 0.1000000015 0.1000000015 0.0000000000
 1412.1250000 2.8499999046 33.639999390  -999.250000 0.1000000015 0.1000000015 0.0000000000
 1412.2500000 2.8550000191 33.631999969  -999.250000 0.1000000015 0.1000000015 0.0000000000
 1412.3750000 2.8550000191 33.631000519  -999.250000 0.1000000015 0.1000000015 0.0000000000
 1412.5000000 2.8970000744 33.630001068  -999.250000 0.1000000015 0.1000000015 0.0000000000
 1412.6250000 2.8689999580 33.631000519  -999.250000 0.1000000015 0.1000000015 0.0000000000
 1412.7500000 2.8210000992 33.631999969  -999.250000 0.1000000015 0.1000000015 0.0000000000
 1412.8750000 2.8110001087 33.632999420  -999.250000 0.1000000015 0.1000000015 0.0000000000
 1413.0000000 2.7720000744 33.633998871  -999.250000 0.1000000015 0.1000000015 0.0000000000
 1413.1250000 2.7620000839 33.634998322  -999.250000 0.1000000015 0.1000000015 0.0000000000
 1413.2500000 2.7590000629 33.636001587  -999.250000 0.1000000015 0.1000000015 0.0000000000
 1413.3750000 2.7569999695 33.637001038  -999.250000 0.1000000015 0.1000000015 0.0000000000
 1413.5000000 2.7560000420 33.689998627  -999.250000 0.1000000015 0.1000000015 0.0000000000
 1413.6250000 2.7550001144 33.743000031  -999.250000 0.1000000015 0.1000000015 0.0000000000
 1413.7500000 2.7550001144 33.750999451  -999.250000 0.1000000015 0.1000000015 0.0000000000
 1413.8750000 2.7550001144 33.840999603  -999.250000 0.1000000015 0.1000000015 0.0000000000
 1414.0000000 2.7550001144 33.860000610  -999.250000 0.1000000015 0.1000000015 0.0000000000
 1414.1250000 2.7920000553 33.868000031  -999.250000 0.1000000015 0.1000000015 0.0000000000
 1414.2500000 2.8029999733 33.870998383  -999.250000 0.1000000015 0.1000000015 0.0000000000
 1414.3750000 2.8050000668 33.873001099  -999.250000 0.1000000015 0.1000000015 0.0000000000
 1414.5000000 2.8429999352 33.875000000  -999.250000 0.1000000015 0.1000000015 0.0000000000
 1414.6250000 2.8970000744 33.875999451  -999.250000 0.1000000015 0.1000000015 0.0000000000
 1414.7500000 2.9379999638 33.876998901  -999.250000 0.1000000015 0.1000000015 0.0000000000
 1414.8750000 2.9909999371 33.877998352  -999.250000 0.1000000015 0.1000000015 0.0000000000
 1415.0000000 3.0009999275 33.879001617  -999.250000 0.1000000015 0.1000000015 0.0000000000
 1415.1250000 3.0050001144 33.880001068  -999.250000 0.1000000015 0.1000000015 0.0000000000
 1415.2500000 3.0060000420 33.881000519  -999.250000 0.1000000015 0.1000000015 0.0000000000
 1415.3750000 3.0320000648 33.835998535  -999.250000 0.1000000015 0.1000000015 0.0000000000
 1415.5000000 3.0439999104 33.790000916  -999.250000 0.1000000015 0.1000000015 0.0000000000
 1415.6250000 3.0550000668 33.729000092  -999.250000 0.1000000015 0.1000000015 0.0000000000
 1415.7500000 3.0899999142 33.666999817  -999.250000 0.1000000015 0.1000000015 0.0000000000
 1415.8750000 3.0999999046 33.661998749  -999.250000 0.1000000015 0.1000000015 0.0000000000
 1416.0000000 3.1040000916 33.661998749  -999.250000 0.1000000015 0.1000000015 0.0000000000
 1416.1250000 3.1080000401 33.660999298  -999.250000 0.1000000015 0.1000000015 0.0000000000
 1416.2500000 3.1370000839 33.660999298  -999.250000 0.1000000015 0.1000000015 0.0000000000
 1416.3750000 3.1819999218 33.661998749  -999.250000 0.1000000015 0.1000000015 0.0000000000
 1416.5000000 3.1960000992 33.662998199  -999.250000 0.1000000015 0.1000000015 0.0000000000
 1416.6250000 3.2019999027 33.664001465  -999.250000 0.1000000015 0.1000000015 0.0000000000
 1416.7500000 3.2079999447 33.665000916  -999.250000 0.1000000015 0.1000000015 0.0000000000
 1416.8750000 3.2439999580 33.666000366  -999.250000 0.1000000015 0.1000000015 0.0000000000
 1417.0000000 3.2530000210 33.666999817  -999.250000 0.1000000015 0.1000000015 0.0000000000
 1417.1250000 3.2560000420 33.667999268  -999.250000 0.1000000015 0.1000000015 0.0000000000
 1417.2500000 3.2579998970 33.668998718  -999.250000 0.1000000015 0.1000000015 0.0000000000
 1417.3750000 3.2590000629 33.669998169  -999.250000 0.1000000015 0.1000000015 0.0000000000
 1417.5000000 3.2590000629 33.598999023  -999.250000 0.1000000015 0.1000000015 0.0000000000
 1417.6250000 3.2820000648 33.587001801  -999.250000 0.1000000015 0.1000000015 0.0000000000
 1417.7500000 3.3050000668 33.574001312  -999.250000 0.1000000015 0.1000000015 0.0000000000
 1417.8750000 3.3099999428 33.562000275  -999.250000 0.1000000015 0.1000000015 0.0000000000
 1418.0000000 3.3099999428 33.479999542  -999.250000 0.1000000015 0.1000000015 0.0000000000
 1418.1250000 3.3099999428 33.410999298  -999.250000 0.1000000015 0.1000000015 0.0000000000
 1418.2500000 3.3099999428 33.341999054  -999.250000 0.1000000015 0.1000000015 0.0000000000
 1418.3750000 3.2709999084 33.338001251  -999.250000 0.1000000015 0.1000000015 0.0000000000
 1418.5000000 3.2660000324 33.338001251  -999.250000 0.1000000015 0.1000000015 0.0000000000
 1418.6250000 3.2630000114 33.262001038  -999.250000 0.1000000015 0.1000000015 0.0000000000
 1418.7500000 3.2620000839 33.244998932  -999.250000 0.1000000015 0.1000000015 0.0000000000
 1418.8750000 3.2609999180 33.229000092  -999.250000 0.1000000015 0.1000000015 0.0000000000
 1419.0000000 3.2239999771 33.167999268  -999.250000 0.1000000015 0.1000000015 0.0000000000
 1419.1250000 3.2160000801 33.151000977  -999.250000 0.1000000015 0.1000000015 0.0000000000
 1419.2500000 3.2130000591 33.132999420  -999.250000 0.1000000015 0.1000000015 0.0000000000
 1419.3750000 3.2109999657 33.116001129  -999.250000 0.1000000015 0.1000000015 0.0000000000
 1419.5000000 3.2100000381 33.049999237  -999.250000 0.1000000015 0.1000000015 0.0000000000
