# LAS format log file from PETREL
# Project units are specified as depth units
#==================================================================
~Version information
VERS.   2.0:
WRAP.   NO:
#==================================================================
~Well
STRT .m      1385.0000000 :
STOP .m      1720.0000000 :
STEP .m     0.12500000 :
NULL .        -999.250000 :
COMP.           : COMPANY
WELL.  5-17C2   : WELL
FLD.            : FIELD
LOC.            : LOCATION
SRVC.           : SERVICE COMPANY
DATE.  2020-03-08 09:25:10   : Log Export Date {yyyy-MM-dd HH:mm:ss}
PROV.           : PROVINCE
UWI.      : UNIQUE WELL ID
API.            : API NUMBER
#==================================================================
~Curve
DEPT .m                   : DEPTH
RT .ohm.m                 : RT
SP .                      : SP
Fluids .                  : Fluids
POR .m3/m3                : POR
PERM .mD                  : PERM
Lith .                    : Lith
~Parameter
#==================================================================
~Ascii
# ...
 1667.7500000 10.031000137 61.956001282 3.0000000000 16.000000000 358.00000000 1.0000000000
 1667.8750000 10.829999924 61.847000122 3.0000000000 16.000000000 358.00000000 1.0000000000
 1668.0000000 11.626999855 61.764999390 3.0000000000 16.000000000 358.00000000 1.0000000000
 1668.1250000 12.439999580 61.710998535 3.0000000000 16.000000000 358.00000000 1.0000000000
 1668.2500000 13.182999611 61.673000336 3.0000000000 16.000000000 358.00000000 1.0000000000
 1668.3750000 13.843999863 61.666999817 3.0000000000 16.000000000 358.00000000 1.0000000000
 1668.5000000 14.425999641 61.689998627 3.0000000000 16.000000000 358.00000000 1.0000000000
 1668.6250000 14.895999908 61.745998383 3.0000000000 16.000000000 358.00000000 1.0000000000
 1668.7500000 15.222999573 61.799999237 3.0000000000 16.000000000 358.00000000 1.0000000000
 1668.8750000 15.388999939 61.834999084 3.0000000000 16.000000000 358.00000000 1.0000000000
 1669.0000000 15.411000252 61.853000641 3.0000000000 16.000000000 358.00000000 1.0000000000
 1669.1250000 15.276000023 61.868000031 3.0000000000 16.000000000 358.00000000 1.0000000000
 1669.2500000 14.984000206 61.904998779 3.0000000000 16.000000000 358.00000000 1.0000000000
 1669.3750000 14.633999825 61.967998505 3.0000000000 16.000000000 358.00000000 1.0000000000
 1669.5000000 14.406000137 62.073001862 3.0000000000 16.000000000 358.00000000 1.0000000000
 1669.6250000 14.381999969 62.208999634 3.0000000000 16.000000000 358.00000000 1.0000000000
 1669.7500000 14.621999741 62.373001099 3.0000000000 16.000000000 358.00000000 1.0000000000
 1669.8750000 15.086000443 62.537998199 3.0000000000 16.000000000 358.00000000 1.0000000000
 1670.0000000 15.625000000 62.699001312 3.0000000000 16.000000000 358.00000000 1.0000000000
 1670.1250000 16.083000183 62.854000092 3.0000000000 16.000000000 358.00000000 1.0000000000
 1670.2500000 16.381999969 62.990001678 3.0000000000 16.000000000 358.00000000 1.0000000000
 1670.3750000 16.559000015 63.099998474 3.0000000000 16.000000000 358.00000000 1.0000000000
 1670.5000000 16.754999161 63.158000946 3.0000000000 16.000000000 358.00000000 1.0000000000
 1670.6250000 17.101999283 63.172000885 3.0000000000 16.000000000 358.00000000 1.0000000000
 1670.7500000 17.646999359 63.147998810 3.0000000000 16.000000000 358.00000000 1.0000000000
 1670.8750000 18.311000824 63.125999451 3.0000000000 16.000000000 358.00000000 1.0000000000
 1671.0000000 19.045999527 63.123001099 3.0000000000 16.000000000 358.00000000 1.0000000000
 1671.1250000 19.805000305 63.138999939 3.0000000000 16.000000000 358.00000000 1.0000000000
 1671.2500000 20.576999664 63.153999329 3.0000000000 16.000000000 358.00000000 1.0000000000
 1671.3750000 21.250000000 63.146999359 3.0000000000 16.000000000 358.00000000 1.0000000000
 1671.5000000 21.627000809 63.125000000 3.0000000000 16.000000000 358.00000000 1.0000000000
 1671.6250000 21.566999435 63.083000183 4.0000000000 24.000000000 3092.0000000 1.0000000000
 1671.7500000 21.125999451 63.041999817 4.0000000000 24.000000000 3092.0000000 1.0000000000
 1671.8750000 20.420000076 62.993999481 4.0000000000 24.000000000 3092.0000000 1.0000000000
 1672.0000000 19.700000763 62.948001862 4.0000000000 24.000000000 3092.0000000 1.0000000000
 1672.1250000 19.131999969 62.897998810 4.0000000000 24.000000000 3092.0000000 1.0000000000
 1672.2500000 18.867000580 62.847000122 4.0000000000 24.000000000 3092.0000000 1.0000000000
 1672.3750000 18.997999191 62.803001404 4.0000000000 24.000000000 3092.0000000 1.0000000000
 1672.5000000 19.434999466 62.775001526 4.0000000000 24.000000000 3092.0000000 1.0000000000
 1672.6250000 19.985000610 62.784000397 4.0000000000 24.000000000 3092.0000000 1.0000000000
 1672.7500000 20.579000473 62.812999725 4.0000000000 24.000000000 3092.0000000 1.0000000000
 1672.8750000 21.169000626 62.856998444 4.0000000000 24.000000000 3092.0000000 1.0000000000
 1673.0000000 21.773000717 62.896999359 4.0000000000 24.000000000 3092.0000000 1.0000000000
 1673.1250000 22.257999420 62.937999725 3.0000000000 15.000000000 238.00000000 1.0000000000
 1673.2500000 22.440999985 62.969001770 3.0000000000 15.000000000 238.00000000 1.0000000000
 1673.3750000 22.243999481 62.998001099 3.0000000000 15.000000000 238.00000000 1.0000000000
 1673.5000000 21.766000748 63.029998779 3.0000000000 15.000000000 238.00000000 1.0000000000
 1673.6250000 21.173000336 63.055000305 3.0000000000 15.000000000 238.00000000 1.0000000000
 1673.7500000 20.802000046 63.075000763 3.0000000000 15.000000000 238.00000000 1.0000000000
 1673.8750000 20.809000015 63.073001862 3.0000000000 15.000000000 238.00000000 1.0000000000
 1674.0000000 21.065999985 63.069000244 3.0000000000 15.000000000 238.00000000 1.0000000000
 1674.1250000 21.336999893 63.067001343 3.0000000000 15.000000000 238.00000000 1.0000000000
 1674.2500000 21.542999268 63.084999084 3.0000000000 15.000000000 238.00000000 1.0000000000
 1674.3750000 21.691999435 63.104999542 3.0000000000 15.000000000 238.00000000 1.0000000000
 1674.5000000 21.879999161 63.115001678 3.0000000000 15.000000000 238.00000000 1.0000000000
 1674.6250000 22.156000137 63.108001709 3.0000000000 15.000000000 238.00000000 1.0000000000
 1674.7500000 22.541000366 63.085998535 3.0000000000 15.000000000 238.00000000 1.0000000000
 1674.8750000 22.985000610 63.066001892 3.0000000000 15.000000000 238.00000000 1.0000000000
 1675.0000000 23.448999405 63.048000336 3.0000000000 15.000000000 238.00000000 1.0000000000
 1675.1250000 23.885000229 63.044998169 3.0000000000 15.000000000 238.00000000 1.0000000000
 1675.2500000 24.172000885 63.042999268 3.0000000000 15.000000000 238.00000000 1.0000000000
 1675.3750000 24.153999329 63.048999786 3.0000000000 15.000000000 238.00000000 1.0000000000
 1675.5000000 23.767000198 63.054000854  -999.250000 0.1000000015 0.1000000015 0.0000000000
 1675.6250000 22.988000870 63.063999176  -999.250000 0.1000000015 0.1000000015 0.0000000000
 1675.7500000 21.986000061 63.083999634  -999.250000 0.1000000015 0.1000000015 0.0000000000
 1675.8750000 20.945999146 63.104999542 3.0000000000 15.000000000 222.00000000 1.0000000000
 1676.0000000 20.056999207 63.131000519 3.0000000000 15.000000000 222.00000000 1.0000000000
 1676.1250000 19.563999176 63.145999908 3.0000000000 15.000000000 222.00000000 1.0000000000
 1676.2500000 19.568000793 63.150001526 3.0000000000 15.000000000 222.00000000 1.0000000000
 1676.3750000 19.989999771 63.126998901 3.0000000000 15.000000000 222.00000000 1.0000000000
 1676.5000000 20.683000565 63.090000153 3.0000000000 15.000000000 222.00000000 1.0000000000
 1676.6250000 21.438999176 63.043998718 3.0000000000 15.000000000 222.00000000 1.0000000000
 1676.7500000 22.128000259 62.997001648 3.0000000000 15.000000000 222.00000000 1.0000000000
 1676.8750000 22.649000168 62.945999146 3.0000000000 15.000000000 222.00000000 1.0000000000
 1677.0000000 23.068000793 62.877998352 3.0000000000 15.000000000 222.00000000 1.0000000000
 1677.1250000 23.430000305 62.793998718 3.0000000000 15.000000000 222.00000000 1.0000000000
 1677.2500000 23.799999237 62.691001892 3.0000000000 15.000000000 222.00000000 1.0000000000
 1677.3750000 24.202999115 62.587001801 3.0000000000 15.000000000 222.00000000 1.0000000000
 1677.5000000 24.597999573 62.479999542 3.0000000000 15.000000000 222.00000000 1.0000000000
 1677.6250000 24.923999786 62.382999420 3.0000000000 15.000000000 222.00000000 1.0000000000
 1677.7500000 25.149999619 62.284999847 3.0000000000 15.000000000 222.00000000 1.0000000000
 1677.8750000 25.287000656 62.180000305 3.0000000000 15.000000000 222.00000000 1.0000000000
 1678.0000000 25.385000229 62.070999146 3.0000000000 15.000000000 222.00000000 1.0000000000
 1678.1250000 25.486999512 61.959999084 3.0000000000 15.000000000 222.00000000 1.0000000000
 1678.2500000 25.714000702 61.868000031 3.0000000000 15.000000000 222.00000000 1.0000000000
 1678.3750000 26.194000244 61.790000916 3.0000000000 15.000000000 222.00000000 1.0000000000
 1678.5000000 27.063999176 61.733001709 3.0000000000 15.000000000 222.00000000 1.0000000000
