# LAS format log file from PETREL
# Project units are specified as depth units
#==================================================================
~Version information
VERS.   2.0:
WRAP.   NO:
#==================================================================
~Well
STRT .m      1350.0000000 :
STOP .m      1730.0000000 :
STEP .m     0.12500000 :
NULL .        -999.250000 :
COMP.           : COMPANY
WELL.  5-172   : WELL
FLD.            : FIELD
LOC.            : LOCATION
SRVC.           : SERVICE COMPANY
DATE.  2020-03-08 09:25:10   : Log Export Date {yyyy-MM-dd HH:mm:ss}
PROV.           : PROVINCE
UWI.      : UNIQUE WELL ID
API.            : API NUMBER
#==================================================================
~Curve
DEPT .m                   : DEPTH
RT .ohm.m                 : RT
SP .                      : SP
Fluids .                  : Fluids
POR .m3/m3                : POR
PERM .mD                  : PERM
Lith .                    : Lith
~Parameter
#==================================================================
~Ascii
# ...
 1491.3750000 3.0009999275 35.034999847  -999.250000 0.1000000015 0.1000000015 0.0000000000
 1491.5000000 3.0829999447 35.039001465  -999.250000 0.1000000015 0.1000000015 0.0000000000
 1491.6250000 3.1570000648 35.043998718  -999.250000 0.1000000015 0.1000000015 0.0000000000
 1491.7500000 3.1940000057 35.048000336  -999.250000 0.1000000015 0.1000000015 0.0000000000
 1491.8750000 3.1779999733 35.051998138  -999.250000 0.1000000015 0.1000000015 0.0000000000
 1492.0000000 3.0439999104 35.056999207  -999.250000 0.1000000015 0.1000000015 0.0000000000
 1492.1250000 2.9179999828 35.061000824  -999.250000 0.1000000015 0.1000000015 0.0000000000
 1492.2500000 2.8570001125 35.064998627  -999.250000 0.1000000015 0.1000000015 0.0000000000
 1492.3750000 2.7969999313 35.069999695  -999.250000 0.1000000015 0.1000000015 0.0000000000
 1492.5000000 2.7369999886 35.074001312  -999.250000 0.1000000015 0.1000000015 0.0000000000
 1492.6250000 2.6770000458 35.078998566  -999.250000 0.1000000015 0.1000000015 0.0000000000
 1492.7500000 2.6370000839 35.083000183  -999.250000 0.1000000015 0.1000000015 0.0000000000
 1492.8750000 2.5639998913 35.087001801  -999.250000 0.1000000015 0.1000000015 0.0000000000
 1493.0000000 2.4990000725 35.091999054  -999.250000 0.1000000015 0.1000000015 0.0000000000
 1493.1250000 2.4379999638 35.096000671  -999.250000 0.1000000015 0.1000000015 0.0000000000
 1493.2500000 2.3780000210 35.051998138  -999.250000 0.1000000015 0.1000000015 0.0000000000
 1493.3750000 2.3310000896 35.008998871  -999.250000 0.1000000015 0.1000000015 0.0000000000
 1493.5000000 2.3069999218 34.930000305  -999.250000 0.1000000015 0.1000000015 0.0000000000
 1493.6250000 2.2969999313 34.872001648  -999.250000 0.1000000015 0.1000000015 0.0000000000
 1493.7500000 2.2950000763 34.814998627  -999.250000 0.1000000015 0.1000000015 0.0000000000
 1493.8750000 2.2960000038 34.804000854  -999.250000 0.1000000015 0.1000000015 0.0000000000
 1494.0000000 2.2969999313 34.793998718  -999.250000 0.1000000015 0.1000000015 0.0000000000
 1494.1250000 2.2990000248 34.743999481  -999.250000 0.1000000015 0.1000000015 0.0000000000
 1494.2500000 2.3789999485 34.694000244  -999.250000 0.1000000015 0.1000000015 0.0000000000
 1494.3750000 2.4939999580 34.691001892  -999.250000 0.1000000015 0.1000000015 0.0000000000
 1494.5000000 2.5820000172 34.625000000  -999.250000 0.1000000015 0.1000000015 0.0000000000
 1494.6250000 2.7009999752 34.558998108  -999.250000 0.1000000015 0.1000000015 0.0000000000
 1494.7500000 2.7490000725 34.493000031  -999.250000 0.1000000015 0.1000000015 0.0000000000
 1494.8750000 2.8580000401 34.486999512  -999.250000 0.1000000015 0.1000000015 0.0000000000
 1495.0000000 2.9040000439 34.480998993  -999.250000 0.1000000015 0.1000000015 0.0000000000
 1495.1250000 2.9649999142 34.426998138  -999.250000 0.1000000015 0.1000000015 0.0000000000
 1495.2500000 2.9930000305 34.372001648  -999.250000 0.1000000015 0.1000000015 0.0000000000
 1495.3750000 3.0209999084 34.306999207  -999.250000 0.1000000015 0.1000000015 0.0000000000
 1495.5000000 2.9630000591 34.293998718  -999.250000 0.1000000015 0.1000000015 0.0000000000
 1495.6250000 2.8369998932 34.282001495  -999.250000 0.1000000015 0.1000000015 0.0000000000
 1495.7500000 2.6389999390 34.231998444  -999.250000 0.1000000015 0.1000000015 0.0000000000
 1495.8750000 2.4709999561 34.181999207  -999.250000 0.1000000015 0.1000000015 0.0000000000
 1496.0000000 2.2799999714 34.174999237  -999.250000 0.1000000015 0.1000000015 0.0000000000
 1496.1250000 2.1809999943 34.175998688  -999.250000 0.1000000015 0.1000000015 0.0000000000
 1496.2500000 2.1280000210 34.178001404  -999.250000 0.1000000015 0.1000000015 0.0000000000
 1496.3750000 2.1019999981 34.118000031  -999.250000 0.1000000015 0.1000000015 0.0000000000
 1496.5000000 2.0950000286 34.102001190  -999.250000 0.1000000015 0.1000000015 0.0000000000
 1496.6250000 2.0929999352 34.084999084  -999.250000 0.1000000015 0.1000000015 0.0000000000
 1496.7500000 2.0940001011 34.013999939  -999.250000 0.1000000015 0.1000000015 0.0000000000
 1496.8750000 2.0950000286 33.998001099  -999.250000 0.1000000015 0.1000000015 0.0000000000
 1497.0000000 2.0969998837 33.980998993  -999.250000 0.1000000015 0.1000000015 0.0000000000
 1497.1250000 2.0989999771 33.932998657  -999.250000 0.1000000015 0.1000000015 0.0000000000
 1497.2500000 2.0729999542 33.884998322  -999.250000 0.1000000015 0.1000000015 0.0000000000
 1497.3750000 2.0659999847 33.883998871  -999.250000 0.1000000015 0.1000000015 0.0000000000
 1497.5000000 2.0590000153 33.882999420  -999.250000 0.1000000015 0.1000000015 0.0000000000
 1497.6250000 2.0580000877 33.884998322  -999.250000 0.1000000015 0.1000000015 0.0000000000
 1497.7500000 2.0590000153 33.888000488  -999.250000 0.1000000015 0.1000000015 0.0000000000
 1497.8750000 2.0610001087 33.891998291  -999.250000 0.1000000015 0.1000000015 0.0000000000
 1498.0000000 2.0629999638 33.833000183  -999.250000 0.1000000015 0.1000000015 0.0000000000
 1498.1250000 2.1480000019 33.816001892  -999.250000 0.1000000015 0.1000000015 0.0000000000
 1498.2500000 2.2170000076 33.799999237  -999.250000 0.1000000015 0.1000000015 0.0000000000
 1498.3750000 2.3450000286 33.729000092  -999.250000 0.1000000015 0.1000000015 0.0000000000
 1498.5000000 2.6210000515 33.715999603  -999.250000 0.1000000015 0.1000000015 0.0000000000
 1498.6250000 3.0290000439 33.701999664  -999.250000 0.1000000015 0.1000000015 0.0000000000
 1498.7500000 3.4719998837 33.639999390  -999.250000 0.1000000015 0.1000000015 0.0000000000
 1498.8750000 3.5829999447 33.620998383  -999.250000 0.1000000015 0.1000000015 0.0000000000
 1499.0000000 3.4649999142 33.601001740  -999.250000 0.1000000015 0.1000000015 0.0000000000
 1499.1250000 3.2550001144 33.597999573  -999.250000 0.1000000015 0.1000000015 0.0000000000
 1499.2500000 3.0390000343 33.541999817  -999.250000 0.1000000015 0.1000000015 0.0000000000
 1499.3750000 2.8229999542 33.495998383  -999.250000 0.1000000015 0.1000000015 0.0000000000
 1499.5000000 2.6059999466 33.449001312  -999.250000 0.1000000015 0.1000000015 0.0000000000
 1499.6250000 2.3900001049 33.402999878  -999.250000 0.1000000015 0.1000000015 0.0000000000
 1499.7500000 2.1549999714 33.325000763  -999.250000 0.1000000015 0.1000000015 0.0000000000
 1499.8750000 2.1189999580 33.238998413  -999.250000 0.1000000015 0.1000000015 0.0000000000
 1500.0000000 2.3870000839 33.207000732  -999.250000 0.1000000015 0.1000000015 0.0000000000
 1500.1250000 2.7500000000 33.173999786  -999.250000 0.1000000015 0.1000000015 0.0000000000
 1500.2500000 3.1319999695 33.176998138  -999.250000 0.1000000015 0.1000000015 0.0000000000
 1500.3750000 3.4279999733 33.180000305  -999.250000 0.1000000015 0.1000000015 0.0000000000
 1500.5000000 3.6649999619 33.384998322  -999.250000 0.1000000015 0.1000000015 0.0000000000
 1500.6250000 3.9019999504 33.521999359  -999.250000 0.1000000015 0.1000000015 0.0000000000
 1500.7500000 4.0349998474 33.664001465  -999.250000 0.1000000015 0.1000000015 0.0000000000
 1500.8750000 4.2210001945 33.734001160  -999.250000 0.1000000015 0.1000000015 0.0000000000
 1501.0000000 4.3730001450 33.848999023  -999.250000 0.1000000015 0.1000000015 0.0000000000
 1501.1250000 4.5440001488 33.873001099  -999.250000 0.1000000015 0.1000000015 0.0000000000
 1501.2500000 4.7270002365 33.888000488  -999.250000 0.1000000015 0.1000000015 0.0000000000
 1501.3750000 4.9029998779 33.896999359  -999.250000 0.1000000015 0.1000000015 0.0000000000
 1501.5000000 4.8909997940 33.904998779  -999.250000 0.1000000015 0.1000000015 0.0000000000
 1501.6250000 4.8569998741 34.022998810  -999.250000 0.1000000015 0.1000000015 0.0000000000
 1501.7500000 4.7449998856 34.139999390  -999.250000 0.1000000015 0.1000000015 0.0000000000
 1501.8750000 4.5929999352 34.238998413  -999.250000 0.1000000015 0.1000000015 0.0000000000
 1502.0000000 4.3400001526 34.375000000  -999.250000 0.1000000015 0.1000000015 0.0000000000
 1502.1250000 4.0659999847 34.493000031  -999.250000 0.1000000015 0.1000000015 0.0000000000
