# LAS format log file from PETREL
# Project units are specified as depth units
#==================================================================
~Version information
VERS.   2.0:
WRAP.   NO:
#==================================================================
~Well
STRT .m      1450.0000000 :
STOP .m      1720.0000000 :
STEP .m     0.12500000 :
NULL .        -999.250000 :
COMP.           : COMPANY
WELL.  5-17C   : WELL
FLD.            : FIELD
LOC.            : LOCATION
SRVC.           : SERVICE COMPANY
DATE.  2020-03-08 09:25:10   : Log Export Date {yyyy-MM-dd HH:mm:ss}
PROV.           : PROVINCE
UWI.      : UNIQUE WELL ID
API.            : API NUMBER
#==================================================================
~Curve
DEPT .m                   : DEPTH
RT .ohm.m                 : RT
SP .                      : SP
Fluids .                  : Fluids
POR .m3/m3                : POR
PERM .mD                  : PERM
Lith .                    : Lith
~Parameter
#==================================================================
~Ascii
# ...
 1624.0000000 16.114999771 32.797000885 4.0000000000 23.000000000 2603.0000000 1.0000000000
 1624.1250000 16.003999710 32.659000397 4.0000000000 23.000000000 2603.0000000 1.0000000000
 1624.2500000 15.779999733 32.418998718 4.0000000000 23.000000000 2603.0000000 1.0000000000
 1624.3750000 15.581999779 31.968000412 4.0000000000 23.000000000 2603.0000000 1.0000000000
 1624.5000000 15.413000107 31.745000839 4.0000000000 23.000000000 2603.0000000 1.0000000000
 1624.6250000 15.244000435 31.521999359 4.0000000000 23.000000000 2603.0000000 1.0000000000
 1624.7500000 15.043000221 31.326000214 4.0000000000 23.000000000 2603.0000000 1.0000000000
 1624.8750000 14.895999908 31.194999695 4.0000000000 23.000000000 2603.0000000 1.0000000000
 1625.0000000 14.750000000 31.065000534 4.0000000000 23.000000000 2603.0000000 1.0000000000
 1625.1250000 14.550999641 30.934000015 4.0000000000 23.000000000 2603.0000000 1.0000000000
 1625.2500000 14.380000114 30.554000854 4.0000000000 23.000000000 2603.0000000 1.0000000000
 1625.3750000 14.208999634 30.194000244 4.0000000000 23.000000000 2603.0000000 1.0000000000
 1625.5000000 14.376000404 29.834999084 4.0000000000 23.000000000 2603.0000000 1.0000000000
 1625.6250000 15.083000183 29.562999725 4.0000000000 23.000000000 2603.0000000 1.0000000000
 1625.7500000 15.782999992 29.215999603 4.0000000000 23.000000000 2603.0000000 1.0000000000
 1625.8750000 16.531999588 28.870000839 4.0000000000 23.000000000 2603.0000000 1.0000000000
 1626.0000000 17.224000931 28.586999893 4.0000000000 23.000000000 2603.0000000 1.0000000000
 1626.1250000 17.686000824 28.305000305 4.0000000000 23.000000000 2603.0000000 1.0000000000
 1626.2500000 17.934000015 28.040000916 4.0000000000 23.000000000 2603.0000000 1.0000000000
 1626.3750000 18.169000626 27.777999878 4.0000000000 23.000000000 2603.0000000 1.0000000000
 1626.5000000 18.329000473 27.577999115 4.0000000000 23.000000000 2603.0000000 1.0000000000
 1626.6250000 18.489999771 27.341999054 4.0000000000 23.000000000 2603.0000000 1.0000000000
 1626.7500000 18.610000610 27.106000900 4.0000000000 23.000000000 2603.0000000 1.0000000000
 1626.8750000 18.510000229 26.850999832 4.0000000000 23.000000000 2603.0000000 1.0000000000
 1627.0000000 18.377000809 26.673000336 4.0000000000 23.000000000 2603.0000000 1.0000000000
 1627.1250000 18.245000839 26.438999176 4.0000000000 23.000000000 2603.0000000 1.0000000000
 1627.2500000 17.934999466 26.254999161 4.0000000000 23.000000000 2603.0000000 1.0000000000
 1627.3750000 17.645000458 25.948999405 4.0000000000 23.000000000 2603.0000000 1.0000000000
 1627.5000000 16.281000137 25.677000046 4.0000000000 23.000000000 2603.0000000 1.0000000000
 1627.6250000 15.465999603 25.410999298 4.0000000000 23.000000000 2603.0000000 1.0000000000
 1627.7500000 14.956000328 25.149000168 4.0000000000 23.000000000 2603.0000000 1.0000000000
 1627.8750000 14.604000092 24.888000488 4.0000000000 23.000000000 2603.0000000 1.0000000000
 1628.0000000 14.326999664 24.628000259 4.0000000000 23.000000000 2603.0000000 1.0000000000
 1628.1250000 14.144000053 24.368000031  -999.250000 0.1000000015 0.1000000015 0.0000000000
 1628.2500000 14.029999733 24.108999252  -999.250000 0.1000000015 0.1000000015 0.0000000000
 1628.3750000 13.916000366 23.659000397  -999.250000 0.1000000015 0.1000000015 0.0000000000
 1628.5000000 14.020000458 23.034000397  -999.250000 0.1000000015 0.1000000015 0.0000000000
 1628.6250000 14.166999817 22.239999771  -999.250000 0.1000000015 0.1000000015 0.0000000000
 1628.7500000 14.371000290 21.450000763  -999.250000 0.1000000015 0.1000000015 0.0000000000
 1628.8750000 14.722999573 20.754999161 4.0000000000 21.000000000 1465.0000000 1.0000000000
 1629.0000000 15.005999565 20.497999191 4.0000000000 21.000000000 1465.0000000 1.0000000000
 1629.1250000 15.673999786 20.239999771 4.0000000000 21.000000000 1465.0000000 1.0000000000
 1629.2500000 16.368999481 20.065999985 4.0000000000 21.000000000 1465.0000000 1.0000000000
 1629.3750000 17.062999725 19.961999893 4.0000000000 21.000000000 1465.0000000 1.0000000000
 1629.5000000 17.395000458 19.811000824 4.0000000000 21.000000000 1465.0000000 1.0000000000
 1629.6250000 17.495000839 19.697000504 4.0000000000 21.000000000 1465.0000000 1.0000000000
 1629.7500000 17.534999847 19.583000183 4.0000000000 21.000000000 1465.0000000 1.0000000000
 1629.8750000 17.542999268 19.489999771 4.0000000000 21.000000000 1465.0000000 1.0000000000
 1630.0000000 17.545999527 19.375999451 4.0000000000 21.000000000 1465.0000000 1.0000000000
 1630.1250000 17.547000885 19.281000137 4.0000000000 21.000000000 1465.0000000 1.0000000000
 1630.2500000 17.573999405 19.190999985 4.0000000000 21.000000000 1465.0000000 1.0000000000
 1630.3750000 17.606000900 19.100000381 4.0000000000 21.000000000 1465.0000000 1.0000000000
 1630.5000000 17.638999939 18.975000381 4.0000000000 21.000000000 1465.0000000 1.0000000000
 1630.6250000 17.643999100 18.871000290  -999.250000 0.1000000015 0.1000000015 0.0000000000
 1630.7500000 17.642999649 18.766000748  -999.250000 0.1000000015 0.1000000015 0.0000000000
 1630.8750000 17.642000198 18.676000595  -999.250000 0.1000000015 0.1000000015 0.0000000000
 1631.0000000 17.770000458 18.639999390  -999.250000 0.1000000015 0.1000000015 0.0000000000
 1631.1250000 17.930000305 18.798000336  -999.250000 0.1000000015 0.1000000015 0.0000000000
 1631.2500000 18.212999344 19.024999619  -999.250000 0.1000000015 0.1000000015 0.0000000000
 1631.3750000 18.496000290 19.273000717  -999.250000 0.1000000015 0.1000000015 0.0000000000
 1631.5000000 18.892000198 19.600999832  -999.250000 0.1000000015 0.1000000015 0.0000000000
 1631.6250000 19.235000610 19.961000443  -999.250000 0.1000000015 0.1000000015 0.0000000000
 1631.7500000 19.472999573 20.423999786  -999.250000 0.1000000015 0.1000000015 0.0000000000
 1631.8750000 19.721000671 20.707000732  -999.250000 0.1000000015 0.1000000015 0.0000000000
 1632.0000000 19.885000229 21.124000549  -999.250000 0.1000000015 0.1000000015 0.0000000000
 1632.1250000 20.049999237 21.594999313  -999.250000 0.1000000015 0.1000000015 0.0000000000
 1632.2500000 20.170000076 22.000000000  -999.250000 0.1000000015 0.1000000015 0.0000000000
 1632.3750000 20.131000519 22.382999420 3.0000000000 15.000000000 274.00000000 1.0000000000
 1632.5000000 20.090999603 22.649000168 3.0000000000 15.000000000 274.00000000 1.0000000000
 1632.6250000 19.995000839 22.986000061 3.0000000000 15.000000000 274.00000000 1.0000000000
 1632.7500000 19.882999420 23.256999969 3.0000000000 15.000000000 274.00000000 1.0000000000
 1632.8750000 19.724000931 23.586000443 3.0000000000 15.000000000 274.00000000 1.0000000000
 1633.0000000 19.563999176 24.017000198 3.0000000000 15.000000000 274.00000000 1.0000000000
 1633.1250000 19.115999222 24.438999176 0.0000000000 19.000000000 1535.0000000 1.0000000000
 1633.2500000 18.705999374 24.964000702 0.0000000000 19.000000000 1535.0000000 1.0000000000
 1633.3750000 18.597999573 25.476999283 0.0000000000 19.000000000 1535.0000000 1.0000000000
 1633.5000000 18.580999374 25.871000290 0.0000000000 19.000000000 1535.0000000 1.0000000000
 1633.6250000 18.472000122 26.263999939 0.0000000000 19.000000000 1535.0000000 1.0000000000
 1633.7500000 18.093000412 26.702999115 0.0000000000 19.000000000 1535.0000000 1.0000000000
 1633.8750000 18.017000198 27.240999222 0.0000000000 19.000000000 1535.0000000 1.0000000000
 1634.0000000 18.177000046 27.826999664 0.0000000000 19.000000000 1535.0000000 1.0000000000
 1634.1250000 18.572999954 28.436000824 0.0000000000 19.000000000 1535.0000000 1.0000000000
 1634.2500000 19.028999329 28.906999588 0.0000000000 19.000000000 1535.0000000 1.0000000000
 1634.3750000 19.434999466 29.457000732 0.0000000000 19.000000000 1535.0000000 1.0000000000
 1634.5000000 19.836000443 30.246999741 0.0000000000 19.000000000 1535.0000000 1.0000000000
 1634.6250000 20.405000687 31.013000488 0.0000000000 19.000000000 1535.0000000 1.0000000000
 1634.7500000 20.768999100 32.063999176 0.0000000000 19.000000000 1535.0000000 1.0000000000
