# LAS format log file from PETREL
# Project units are specified as depth units
#==================================================================
~Version information
VERS.   2.0:
WRAP.   NO:
#==================================================================
~Well
STRT .m      1300.0000000 :
STOP .m      1750.0000000 :
STEP .m     0.12500000 :
NULL .        -999.250000 :
COMP.           : COMPANY
WELL.  5-176   : WELL
FLD.            : FIELD
LOC.            : LOCATION
SRVC.           : SERVICE COMPANY
DATE.  2020-03-08 09:25:10   : Log Export Date {yyyy-MM-dd HH:mm:ss}
PROV.           : PROVINCE
UWI.      : UNIQUE WELL ID
API.            : API NUMBER
#==================================================================
~Curve
DEPT .m                   : DEPTH
RT .ohm.m                 : RT
SP .                      : SP
Fluids .                  : Fluids
POR .m3/m3                : POR
PERM .mD                  : PERM
Lith .                    : Lith
~Parameter
#==================================================================
~Ascii
# ...
 1506.6250000 2.2460000515 30.315000534  -999.250000 0.1000000015 0.1000000015 0.0000000000
 1506.7500000 2.2799999714 30.312999725  -999.250000 0.1000000015 0.1000000015 0.0000000000
 1506.8750000 2.2460000515 30.311000824  -999.250000 0.1000000015 0.1000000015 0.0000000000
 1507.0000000 2.1530001163 30.309999466  -999.250000 0.1000000015 0.1000000015 0.0000000000
 1507.1250000 2.1050000191 30.291000366  -999.250000 0.1000000015 0.1000000015 0.0000000000
 1507.2500000 2.0639998913 30.273000717  -999.250000 0.1000000015 0.1000000015 0.0000000000
 1507.3750000 2.0439999104 30.253999710  -999.250000 0.1000000015 0.1000000015 0.0000000000
 1507.5000000 2.0360000134 30.236000061  -999.250000 0.1000000015 0.1000000015 0.0000000000
 1507.6250000 2.0629999638 30.218000412  -999.250000 0.1000000015 0.1000000015 0.0000000000
 1507.7500000 2.2019999027 30.198999405  -999.250000 0.1000000015 0.1000000015 0.0000000000
 1507.8750000 2.4360001087 30.156000137  -999.250000 0.1000000015 0.1000000015 0.0000000000
 1508.0000000 2.7609999180 30.111999512  -999.250000 0.1000000015 0.1000000015 0.0000000000
 1508.1250000 3.1029999256 30.068000793  -999.250000 0.1000000015 0.1000000015 0.0000000000
 1508.2500000 3.4170000553 30.024000168  -999.250000 0.1000000015 0.1000000015 0.0000000000
 1508.3750000 3.6789999008 29.981000900  -999.250000 0.1000000015 0.1000000015 0.0000000000
 1508.5000000 3.9219999313 29.951000214  -999.250000 0.1000000015 0.1000000015 0.0000000000
 1508.6250000 3.9340000153 29.922000885  -999.250000 0.1000000015 0.1000000015 0.0000000000
 1508.7500000 3.8420000076 29.892999649  -999.250000 0.1000000015 0.1000000015 0.0000000000
 1508.8750000 3.7490000725 29.850999832  -999.250000 0.1000000015 0.1000000015 0.0000000000
 1509.0000000 3.5450000763 29.809999466  -999.250000 0.1000000015 0.1000000015 0.0000000000
 1509.1250000 3.3559999466 29.767999649  -999.250000 0.1000000015 0.1000000015 0.0000000000
 1509.2500000 3.1040000916 29.725999832  -999.250000 0.1000000015 0.1000000015 0.0000000000
 1509.3750000 2.8619999886 29.684999466  -999.250000 0.1000000015 0.1000000015 0.0000000000
 1509.5000000 2.6870000362 29.642999649  -999.250000 0.1000000015 0.1000000015 0.0000000000
 1509.6250000 2.5109999180 29.621999741  -999.250000 0.1000000015 0.1000000015 0.0000000000
 1509.7500000 2.3340001106 29.600000381  -999.250000 0.1000000015 0.1000000015 0.0000000000
 1509.8750000 2.2449998856 29.579000473  -999.250000 0.1000000015 0.1000000015 0.0000000000
 1510.0000000 2.2369999886 29.556999207  -999.250000 0.1000000015 0.1000000015 0.0000000000
 1510.1250000 2.3150000572 29.535999298  -999.250000 0.1000000015 0.1000000015 0.0000000000
 1510.2500000 2.4939999580 29.535999298  -999.250000 0.1000000015 0.1000000015 0.0000000000
 1510.3750000 2.7090001106 29.535999298  -999.250000 0.1000000015 0.1000000015 0.0000000000
 1510.5000000 2.9809999466 29.537000656  -999.250000 0.1000000015 0.1000000015 0.0000000000
 1510.6250000 3.2720000744 29.520999908  -999.250000 0.1000000015 0.1000000015 0.0000000000
 1510.7500000 3.5690000057 29.504999161  -999.250000 0.1000000015 0.1000000015 0.0000000000
 1510.8750000 3.7720000744 29.489999771  -999.250000 0.1000000015 0.1000000015 0.0000000000
 1511.0000000 3.8369998932 29.474000931  -999.250000 0.1000000015 0.1000000015 0.0000000000
 1511.1250000 3.8410000801 29.458000183  -999.250000 0.1000000015 0.1000000015 0.0000000000
 1511.2500000 3.8440001011 29.443000793  -999.250000 0.1000000015 0.1000000015 0.0000000000
 1511.3750000 3.7439999580 29.440999985  -999.250000 0.1000000015 0.1000000015 0.0000000000
 1511.5000000 3.5069999695 29.438999176  -999.250000 0.1000000015 0.1000000015 0.0000000000
 1511.6250000 3.2699999809 29.437000275  -999.250000 0.1000000015 0.1000000015 0.0000000000
 1511.7500000 2.6199998856 29.436000824  -999.250000 0.1000000015 0.1000000015 0.0000000000
 1511.8750000 2.2679998875 29.434000015  -999.250000 0.1000000015 0.1000000015 0.0000000000
 1512.0000000 1.9170000553 29.406000137  -999.250000 0.1000000015 0.1000000015 0.0000000000
 1512.1250000 1.7860000134 29.378000259  -999.250000 0.1000000015 0.1000000015 0.0000000000
 1512.2500000 1.7109999657 29.349000931  -999.250000 0.1000000015 0.1000000015 0.0000000000
 1512.3750000 1.6360000372 29.346000671  -999.250000 0.1000000015 0.1000000015 0.0000000000
 1512.5000000 1.6050000191 29.341999054  -999.250000 0.1000000015 0.1000000015 0.0000000000
 1512.6250000 1.5930000544 29.337999344  -999.250000 0.1000000015 0.1000000015 0.0000000000
 1512.7500000 1.5809999704 29.333999634  -999.250000 0.1000000015 0.1000000015 0.0000000000
 1512.8750000 1.6189999580 29.329999924  -999.250000 0.1000000015 0.1000000015 0.0000000000
 1513.0000000 1.7159999609 29.302000046  -999.250000 0.1000000015 0.1000000015 0.0000000000
 1513.1250000 1.7819999456 29.274000168  -999.250000 0.1000000015 0.1000000015 0.0000000000
 1513.2500000 1.8609999418 29.246000290  -999.250000 0.1000000015 0.1000000015 0.0000000000
 1513.3750000 1.9700000286 29.231000900  -999.250000 0.1000000015 0.1000000015 0.0000000000
 1513.5000000 2.0869998932 29.216999054  -999.250000 0.1000000015 0.1000000015 0.0000000000
 1513.6250000 2.2060000896 29.202999115  -999.250000 0.1000000015 0.1000000015 0.0000000000
 1513.7500000 2.3239998817 29.188999176  -999.250000 0.1000000015 0.1000000015 0.0000000000
 1513.8750000 2.6119999886 29.174999237  -999.250000 0.1000000015 0.1000000015 0.0000000000
 1514.0000000 2.9649999142 29.160999298  -999.250000 0.1000000015 0.1000000015 0.0000000000
 1514.1250000 3.1630001068 29.146999359  -999.250000 0.1000000015 0.1000000015 0.0000000000
 1514.2500000 3.2929999828 29.132999420  -999.250000 0.1000000015 0.1000000015 0.0000000000
 1514.3750000 3.3420000076 29.118999481  -999.250000 0.1000000015 0.1000000015 0.0000000000
 1514.5000000 3.3910000324 29.096000671  -999.250000 0.1000000015 0.1000000015 0.0000000000
 1514.6250000 3.1600000858 29.073999405  -999.250000 0.1000000015 0.1000000015 0.0000000000
 1514.7500000 2.8929998875 29.051000595  -999.250000 0.1000000015 0.1000000015 0.0000000000
 1514.8750000 2.7560000420 29.027999878  -999.250000 0.1000000015 0.1000000015 0.0000000000
 1515.0000000 2.6870000362 29.006000519  -999.250000 0.1000000015 0.1000000015 0.0000000000
 1515.1250000 2.6549999714 29.006000519  -999.250000 0.1000000015 0.1000000015 0.0000000000
 1515.2500000 2.6459999084 29.006000519  -999.250000 0.1000000015 0.1000000015 0.0000000000
 1515.3750000 2.6180000305 29.006000519  -999.250000 0.1000000015 0.1000000015 0.0000000000
 1515.5000000 2.5910000801 28.982999802  -999.250000 0.1000000015 0.1000000015 0.0000000000
 1515.6250000 2.6349999905 28.959999084  -999.250000 0.1000000015 0.1000000015 0.0000000000
 1515.7500000 2.6789999008 28.937000275  -999.250000 0.1000000015 0.1000000015 0.0000000000
 1515.8750000 2.6879999638 28.913999557  -999.250000 0.1000000015 0.1000000015 0.0000000000
 1516.0000000 2.7260000706 28.893999100  -999.250000 0.1000000015 0.1000000015 0.0000000000
 1516.1250000 2.7799999714 28.874000549  -999.250000 0.1000000015 0.1000000015 0.0000000000
 1516.2500000 2.8380000591 28.854000092  -999.250000 0.1000000015 0.1000000015 0.0000000000
 1516.3750000 3.0720000267 28.833999634  -999.250000 0.1000000015 0.1000000015 0.0000000000
 1516.5000000 3.3069999218 28.813999176  -999.250000 0.1000000015 0.1000000015 0.0000000000
 1516.6250000 3.5940001011 28.794000626  -999.250000 0.1000000015 0.1000000015 0.0000000000
 1516.7500000 3.6889998913 28.770000458  -999.250000 0.1000000015 0.1000000015 0.0000000000
 1516.8750000 3.7839999199 28.746999741  -999.250000 0.1000000015 0.1000000015 0.0000000000
 1517.0000000 3.7209999561 28.724000931  -999.250000 0.1000000015 0.1000000015 0.0000000000
 1517.1250000 3.6600000858 28.701000214  -999.250000 0.1000000015 0.1000000015 0.0000000000
 1517.2500000 3.6170001030 28.697999954  -999.250000 0.1000000015 0.1000000015 0.0000000000
 1517.3750000 3.6010000706 28.694999695  -999.250000 0.1000000015 0.1000000015 0.0000000000
