# LAS format log file from PETREL
# Project units are specified as depth units
#==================================================================
~Version information
VERS.   2.0:
WRAP.   NO:
#==================================================================
~Well
STRT .m      1300.0000000 :
STOP .m      1750.0000000 :
STEP .m     0.12500000 :
NULL .        -999.250000 :
COMP.           : COMPANY
WELL.  5-176   : WELL
FLD.            : FIELD
LOC.            : LOCATION
SRVC.           : SERVICE COMPANY
DATE.  2020-03-08 09:25:10   : Log Export Date {yyyy-MM-dd HH:mm:ss}
PROV.           : PROVINCE
UWI.      : UNIQUE WELL ID
API.            : API NUMBER
#==================================================================
~Curve
DEPT .m                   : DEPTH
RT .ohm.m                 : RT
SP .                      : SP
Fluids .                  : Fluids
POR .m3/m3                : POR
PERM .mD                  : PERM
Lith .                    : Lith
~Parameter
#==================================================================
~Ascii
# ...
 1430.5000000 3.0120000839 32.866001129  -999.250000 0.1000000015 0.1000000015 0.0000000000
 1430.6250000 2.9830000401 32.867000580  -999.250000 0.1000000015 0.1000000015 0.0000000000
 1430.7500000 2.9479999542 32.868000031  -999.250000 0.1000000015 0.1000000015 0.0000000000
 1430.8750000 2.9159998894 32.868999481  -999.250000 0.1000000015 0.1000000015 0.0000000000
 1431.0000000 2.8840000629 32.869998932  -999.250000 0.1000000015 0.1000000015 0.0000000000
 1431.1250000 2.8729999065 32.870998383  -999.250000 0.1000000015 0.1000000015 0.0000000000
 1431.2500000 2.8680000305 32.872001648  -999.250000 0.1000000015 0.1000000015 0.0000000000
 1431.3750000 2.8640000820 32.873001099  -999.250000 0.1000000015 0.1000000015 0.0000000000
 1431.5000000 2.8629999161 32.839000702  -999.250000 0.1000000015 0.1000000015 0.0000000000
 1431.6250000 2.8619999886 32.805000305  -999.250000 0.1000000015 0.1000000015 0.0000000000
 1431.7500000 2.8619999886 32.770999908  -999.250000 0.1000000015 0.1000000015 0.0000000000
 1431.8750000 2.8399999142 32.770000458  -999.250000 0.1000000015 0.1000000015 0.0000000000
 1432.0000000 2.8190000057 32.770000458  -999.250000 0.1000000015 0.1000000015 0.0000000000
 1432.1250000 2.7950000763 32.769001007  -999.250000 0.1000000015 0.1000000015 0.0000000000
 1432.2500000 2.7720000744 32.768001556  -999.250000 0.1000000015 0.1000000015 0.0000000000
 1432.3750000 2.7660000324 32.769001007  -999.250000 0.1000000015 0.1000000015 0.0000000000
 1432.5000000 2.7469999790 32.769001007  -999.250000 0.1000000015 0.1000000015 0.0000000000
 1432.6250000 2.7269999981 32.770000458  -999.250000 0.1000000015 0.1000000015 0.0000000000
 1432.7500000 2.6960000992 32.770999908  -999.250000 0.1000000015 0.1000000015 0.0000000000
 1432.8750000 2.6649999619 32.771999359  -999.250000 0.1000000015 0.1000000015 0.0000000000
 1433.0000000 2.6630001068 32.772998810  -999.250000 0.1000000015 0.1000000015 0.0000000000
 1433.1250000 2.6619999409 32.773998260  -999.250000 0.1000000015 0.1000000015 0.0000000000
 1433.2500000 2.6610000134 32.775001526  -999.250000 0.1000000015 0.1000000015 0.0000000000
 1433.3750000 2.6610000134 32.733001709  -999.250000 0.1000000015 0.1000000015 0.0000000000
 1433.5000000 2.6610000134 32.691001892  -999.250000 0.1000000015 0.1000000015 0.0000000000
 1433.6250000 2.6349999905 32.686000824  -999.250000 0.1000000015 0.1000000015 0.0000000000
 1433.7500000 2.6240000725 32.680999756  -999.250000 0.1000000015 0.1000000015 0.0000000000
 1433.8750000 2.6129999161 32.674999237  -999.250000 0.1000000015 0.1000000015 0.0000000000
 1434.0000000 2.6119999886 32.669998169  -999.250000 0.1000000015 0.1000000015 0.0000000000
 1434.1250000 2.5880000591 32.644001007  -999.250000 0.1000000015 0.1000000015 0.0000000000
 1434.2500000 2.5639998913 32.617000580  -999.250000 0.1000000015 0.1000000015 0.0000000000
 1434.3750000 2.5350000858 32.590999603  -999.250000 0.1000000015 0.1000000015 0.0000000000
 1434.5000000 2.5209999084 32.564998627  -999.250000 0.1000000015 0.1000000015 0.0000000000
 1434.6250000 2.5179998875 32.535999298  -999.250000 0.1000000015 0.1000000015 0.0000000000
 1434.7500000 2.5150001049 32.507999420  -999.250000 0.1000000015 0.1000000015 0.0000000000
 1434.8750000 2.5109999180 32.479000092  -999.250000 0.1000000015 0.1000000015 0.0000000000
 1435.0000000 2.5109999180 32.450000763  -999.250000 0.1000000015 0.1000000015 0.0000000000
 1435.1250000 2.5109999180 32.421001434  -999.250000 0.1000000015 0.1000000015 0.0000000000
 1435.2500000 2.5109999180 32.393001556  -999.250000 0.1000000015 0.1000000015 0.0000000000
 1435.3750000 2.5109999180 32.363998413  -999.250000 0.1000000015 0.1000000015 0.0000000000
 1435.5000000 2.5109999180 32.358001709  -999.250000 0.1000000015 0.1000000015 0.0000000000
 1435.6250000 2.5109999180 32.353000641  -999.250000 0.1000000015 0.1000000015 0.0000000000
 1435.7500000 2.5109999180 32.347000122  -999.250000 0.1000000015 0.1000000015 0.0000000000
 1435.8750000 2.5109999180 32.341999054  -999.250000 0.1000000015 0.1000000015 0.0000000000
 1436.0000000 2.5109999180 32.341999054  -999.250000 0.1000000015 0.1000000015 0.0000000000
 1436.1250000 2.5109999180 32.342998505  -999.250000 0.1000000015 0.1000000015 0.0000000000
 1436.2500000 2.5109999180 32.342998505  -999.250000 0.1000000015 0.1000000015 0.0000000000
 1436.3750000 2.5109999180 32.320999146  -999.250000 0.1000000015 0.1000000015 0.0000000000
 1436.5000000 2.5109999180 32.298999786  -999.250000 0.1000000015 0.1000000015 0.0000000000
 1436.6250000 2.5109999180 32.277000427  -999.250000 0.1000000015 0.1000000015 0.0000000000
 1436.7500000 2.5109999180 32.255001068  -999.250000 0.1000000015 0.1000000015 0.0000000000
 1436.8750000 2.5109999180 32.228000641  -999.250000 0.1000000015 0.1000000015 0.0000000000
 1437.0000000 2.5109999180 32.200000763  -999.250000 0.1000000015 0.1000000015 0.0000000000
 1437.1250000 2.5109999180 32.173000336  -999.250000 0.1000000015 0.1000000015 0.0000000000
 1437.2500000 2.5109999180 32.145000458  -999.250000 0.1000000015 0.1000000015 0.0000000000
 1437.3750000 2.5120000839 32.141998291  -999.250000 0.1000000015 0.1000000015 0.0000000000
 1437.5000000 2.5120000839 32.138000488  -999.250000 0.1000000015 0.1000000015 0.0000000000
 1437.6250000 2.5120000839 32.134998322  -999.250000 0.1000000015 0.1000000015 0.0000000000
 1437.7500000 2.5120000839 32.131000519  -999.250000 0.1000000015 0.1000000015 0.0000000000
 1437.8750000 2.5120000839 32.127998352  -999.250000 0.1000000015 0.1000000015 0.0000000000
 1438.0000000 2.5120000839 32.098999023  -999.250000 0.1000000015 0.1000000015 0.0000000000
 1438.1250000 2.5120000839 32.070999146  -999.250000 0.1000000015 0.1000000015 0.0000000000
 1438.2500000 2.4890000820 32.041999817  -999.250000 0.1000000015 0.1000000015 0.0000000000
 1438.3750000 2.4670000076 32.035999298  -999.250000 0.1000000015 0.1000000015 0.0000000000
 1438.5000000 2.4630000591 32.030998230  -999.250000 0.1000000015 0.1000000015 0.0000000000
 1438.6250000 2.4630000591 32.025001526  -999.250000 0.1000000015 0.1000000015 0.0000000000
 1438.7500000 2.4619998932 32.002998352  -999.250000 0.1000000015 0.1000000015 0.0000000000
 1438.8750000 2.4619998932 31.979999542  -999.250000 0.1000000015 0.1000000015 0.0000000000
 1439.0000000 2.4330000877 31.957000732  -999.250000 0.1000000015 0.1000000015 0.0000000000
 1439.1250000 2.4230000973 31.934999466  -999.250000 0.1000000015 0.1000000015 0.0000000000
 1439.2500000 2.4119999409 31.912000656  -999.250000 0.1000000015 0.1000000015 0.0000000000
 1439.3750000 2.3880000114 31.882999420  -999.250000 0.1000000015 0.1000000015 0.0000000000
 1439.5000000 2.3650000095 31.854999542  -999.250000 0.1000000015 0.1000000015 0.0000000000
 1439.6250000 2.3619999886 31.826000214  -999.250000 0.1000000015 0.1000000015 0.0000000000
 1439.7500000 2.3320000172 31.819999695  -999.250000 0.1000000015 0.1000000015 0.0000000000
 1439.8750000 2.3190000057 31.813999176  -999.250000 0.1000000015 0.1000000015 0.0000000000
 1440.0000000 2.3150000572 31.809000015  -999.250000 0.1000000015 0.1000000015 0.0000000000
 1440.1250000 2.2820000648 31.791999817  -999.250000 0.1000000015 0.1000000015 0.0000000000
 1440.2500000 2.2709999084 31.774999619  -999.250000 0.1000000015 0.1000000015 0.0000000000
 1440.3750000 2.2669999599 31.759000778  -999.250000 0.1000000015 0.1000000015 0.0000000000
 1440.5000000 2.2620000839 31.742000580  -999.250000 0.1000000015 0.1000000015 0.0000000000
 1440.6250000 2.2609999180 31.725000381  -999.250000 0.1000000015 0.1000000015 0.0000000000
 1440.7500000 2.2609999180 31.708999634  -999.250000 0.1000000015 0.1000000015 0.0000000000
 1440.8750000 2.2609999180 31.707000732  -999.250000 0.1000000015 0.1000000015 0.0000000000
 1441.0000000 2.2960000038 31.704999924  -999.250000 0.1000000015 0.1000000015 0.0000000000
 1441.1250000 2.3050000668 31.702999115  -999.250000 0.1000000015 0.1000000015 0.0000000000
 1441.2500000 2.3410000801 31.701999664  -999.250000 0.1000000015 0.1000000015 0.0000000000
