# LAS format log file from PETREL
# Project units are specified as depth units
#==================================================================
~Version information
VERS.   2.0:
WRAP.   NO:
#==================================================================
~Well
STRT .m      1450.0000000 :
STOP .m      1720.0000000 :
STEP .m     0.12500000 :
NULL .        -999.250000 :
COMP.           : COMPANY
WELL.  5-17C   : WELL
FLD.            : FIELD
LOC.            : LOCATION
SRVC.           : SERVICE COMPANY
DATE.  2020-03-08 09:25:10   : Log Export Date {yyyy-MM-dd HH:mm:ss}
PROV.           : PROVINCE
UWI.      : UNIQUE WELL ID
API.            : API NUMBER
#==================================================================
~Curve
DEPT .m                   : DEPTH
RT .ohm.m                 : RT
SP .                      : SP
Fluids .                  : Fluids
POR .m3/m3                : POR
PERM .mD                  : PERM
Lith .                    : Lith
~Parameter
#==================================================================
~Ascii
# ...
 1645.7500000 26.378000259 2.3010001183  -999.250000 0.1000000015 0.1000000015 0.0000000000
 1645.8750000 26.372999191 2.5020000935 4.0000000000 22.000000000 2394.0000000 1.0000000000
 1646.0000000 26.368999481 2.7409999371 4.0000000000 22.000000000 2394.0000000 1.0000000000
 1646.1250000 26.364000320 3.0940001011 4.0000000000 22.000000000 2394.0000000 1.0000000000
 1646.2500000 26.580999374 3.4460000992 4.0000000000 22.000000000 2394.0000000 1.0000000000
 1646.3750000 26.798000336 3.7980000973 4.0000000000 22.000000000 2394.0000000 1.0000000000
 1646.5000000 27.277000427 4.2600002289 4.0000000000 22.000000000 2394.0000000 1.0000000000
 1646.6250000 27.489999771 4.7560000420 4.0000000000 22.000000000 2394.0000000 1.0000000000
 1646.7500000 27.923999786 6.8439998627 4.0000000000 22.000000000 2394.0000000 1.0000000000
 1646.8750000 28.638000488 8.2419996262 4.0000000000 22.000000000 2394.0000000 1.0000000000
 1647.0000000 29.219999313 8.3420000076 4.0000000000 22.000000000 2394.0000000 1.0000000000
 1647.1250000 29.950000763 8.2150001526 4.0000000000 22.000000000 2394.0000000 1.0000000000
 1647.2500000 30.568000793 8.0869998932 4.0000000000 22.000000000 2394.0000000 1.0000000000
 1647.3750000 30.759000778 7.6459999084 4.0000000000 22.000000000 2394.0000000 1.0000000000
 1647.5000000 30.802000046 7.2309999466 4.0000000000 22.000000000 2394.0000000 1.0000000000
 1647.6250000 30.968999863 6.9180002213 4.0000000000 22.000000000 2394.0000000 1.0000000000
 1647.7500000 31.025999069 6.6040000916 4.0000000000 22.000000000 2394.0000000 1.0000000000
 1647.8750000 31.035999298 6.0190000534 4.0000000000 22.000000000 2394.0000000 1.0000000000
 1648.0000000 31.191999435 5.5380001068 4.0000000000 22.000000000 2394.0000000 1.0000000000
 1648.1250000 31.584999084 5.2080001831 4.0000000000 22.000000000 2394.0000000 1.0000000000
 1648.2500000 32.432998657 4.8480000496 4.0000000000 22.000000000 2394.0000000 1.0000000000
 1648.3750000 34.199001312 4.5409998894 4.0000000000 22.000000000 2394.0000000 1.0000000000
 1648.5000000 35.679000854 4.1869997978 4.0000000000 22.000000000 2394.0000000 1.0000000000
 1648.6250000 36.369998932 3.8110001087 4.0000000000 22.000000000 2394.0000000 1.0000000000
 1648.7500000 36.807998657 3.5130000114 4.0000000000 22.000000000 2394.0000000 1.0000000000
 1648.8750000 36.917999268 3.2460000515 4.0000000000 22.000000000 2394.0000000 1.0000000000
 1649.0000000 36.966999054 2.9830000401 4.0000000000 22.000000000 2394.0000000 1.0000000000
 1649.1250000 36.985000610 2.7219998837 4.0000000000 22.000000000 2394.0000000 1.0000000000
 1649.2500000 37.118999481 2.4619998932 4.0000000000 22.000000000 2394.0000000 1.0000000000
 1649.3750000 37.282001495 2.2739999294 4.0000000000 22.000000000 2394.0000000 1.0000000000
 1649.5000000 37.444999695 2.0429999828 4.0000000000 22.000000000 2394.0000000 1.0000000000
 1649.6250000 37.698001862 1.8780000210 4.0000000000 22.000000000 2394.0000000 1.0000000000
 1649.7500000 37.972000122 1.7749999762 4.0000000000 22.000000000 2394.0000000 1.0000000000
 1649.8750000 38.525001526 1.6569999456 4.0000000000 22.000000000 2394.0000000 1.0000000000
 1650.0000000 40.234001160 1.6100000143 4.0000000000 22.000000000 2394.0000000 1.0000000000
 1650.1250000 45.229000092 1.5939999819 4.0000000000 22.000000000 2394.0000000 1.0000000000
 1650.2500000 50.224998474 1.7760000229 4.0000000000 22.000000000 2394.0000000 1.0000000000
 1650.3750000 54.576999664 1.9119999409 4.0000000000 22.000000000 2394.0000000 1.0000000000
 1650.5000000 57.048000336 1.9980000257 4.0000000000 22.000000000 2394.0000000 1.0000000000
 1650.6250000 58.458999634 2.1970000267 4.0000000000 22.000000000 2394.0000000 1.0000000000
 1650.7500000 59.853000641 2.5280001163 4.0000000000 22.000000000 2394.0000000 1.0000000000
 1650.8750000 61.090999603 2.7950000763 4.0000000000 22.000000000 2394.0000000 1.0000000000
 1651.0000000 61.875000000 3.0950000286 4.0000000000 22.000000000 2394.0000000 1.0000000000
 1651.1250000 62.659000397 3.3949999809 4.0000000000 22.000000000 2394.0000000 1.0000000000
 1651.2500000 63.353000641 3.6600000858 4.0000000000 22.000000000 2394.0000000 1.0000000000
 1651.3750000 63.972999573 4.1149997711 4.0000000000 22.000000000 2394.0000000 1.0000000000
 1651.5000000 64.551002502 4.6110000610 4.0000000000 22.000000000 2394.0000000 1.0000000000
 1651.6250000 65.127998352 5.2100000381 4.0000000000 22.000000000 2394.0000000 1.0000000000
 1651.7500000 65.547996521 5.8099999428 4.0000000000 22.000000000 2394.0000000 1.0000000000
 1651.8750000 62.855998993 6.4279999733 4.0000000000 22.000000000 2394.0000000 1.0000000000
 1652.0000000 57.276000977 7.0520000458 4.0000000000 22.000000000 2394.0000000 1.0000000000
 1652.1250000 55.028999329 8.0270004272 4.0000000000 22.000000000 2394.0000000 1.0000000000
 1652.2500000 54.007999420 9.1300001144 4.0000000000 22.000000000 2394.0000000 1.0000000000
 1652.3750000 53.416999817 10.109000206 4.0000000000 22.000000000 2394.0000000 1.0000000000
 1652.5000000 53.113998413 10.831000328 4.0000000000 22.000000000 2394.0000000 1.0000000000
 1652.6250000 52.819000244 11.552000046 4.0000000000 22.000000000 2394.0000000 1.0000000000
 1652.7500000 52.527000427 12.239000320 4.0000000000 22.000000000 2394.0000000 1.0000000000
 1652.8750000 52.304000854 12.833000183 4.0000000000 22.000000000 2394.0000000 1.0000000000
 1653.0000000 52.208999634 13.508000374 4.0000000000 22.000000000 2394.0000000 1.0000000000
 1653.1250000 52.115001678 14.293999672 4.0000000000 22.000000000 2394.0000000 1.0000000000
 1653.2500000 52.311000824 14.982999802 4.0000000000 22.000000000 2394.0000000 1.0000000000
 1653.3750000 52.818000793 15.413000107 4.0000000000 22.000000000 2394.0000000 1.0000000000
 1653.5000000 59.013000488 15.880000114 4.0000000000 22.000000000 2394.0000000 1.0000000000
 1653.6250000 61.568000793 16.365999222 4.0000000000 22.000000000 2394.0000000 1.0000000000
 1653.7500000 63.673999786 16.933000565 4.0000000000 22.000000000 2394.0000000 1.0000000000
 1653.8750000 65.635002136 17.458999634 4.0000000000 22.000000000 2394.0000000 1.0000000000
 1654.0000000 67.125000000 17.777999878 4.0000000000 22.000000000 2394.0000000 1.0000000000
 1654.1250000 68.095001221 18.194999695 4.0000000000 22.000000000 2394.0000000 1.0000000000
 1654.2500000 68.973999023 18.802000046 4.0000000000 22.000000000 2394.0000000 1.0000000000
 1654.3750000 69.427001953 19.493999481 4.0000000000 22.000000000 2394.0000000 1.0000000000
 1654.5000000 69.526000977 20.142000198 4.0000000000 22.000000000 2394.0000000 1.0000000000
 1654.6250000 68.845001221 20.611000061 4.0000000000 22.000000000 2394.0000000 1.0000000000
 1654.7500000 67.471000671 21.097999573 4.0000000000 22.000000000 2394.0000000 1.0000000000
 1654.8750000 65.171997070 21.593000412 4.0000000000 22.000000000 2394.0000000 1.0000000000
 1655.0000000 61.027000427 22.091999054 4.0000000000 22.000000000 2394.0000000 1.0000000000
 1655.1250000 59.043998718 22.677000046 4.0000000000 22.000000000 2394.0000000 1.0000000000
 1655.2500000 57.061000824 23.061000824 4.0000000000 22.000000000 2394.0000000 1.0000000000
 1655.3750000 56.278999329 23.511999130 4.0000000000 22.000000000 2394.0000000 1.0000000000
 1655.5000000 55.701999664 24.069999695 4.0000000000 22.000000000 2394.0000000 1.0000000000
 1655.6250000 55.125000000 24.590000153 4.0000000000 22.000000000 2394.0000000 1.0000000000
 1655.7500000 54.550998688 25.007999420 4.0000000000 22.000000000 2394.0000000 1.0000000000
 1655.8750000 53.291999817 25.287000656 4.0000000000 22.000000000 2394.0000000 1.0000000000
 1656.0000000 51.787998199 25.624000549 4.0000000000 22.000000000 2394.0000000 1.0000000000
 1656.1250000 50.638000488 25.899000168 4.0000000000 22.000000000 2394.0000000 1.0000000000
 1656.2500000 49.487998962 26.291000366 4.0000000000 22.000000000 2394.0000000 1.0000000000
 1656.3750000 48.909000397 26.606000900 4.0000000000 22.000000000 2394.0000000 1.0000000000
 1656.5000000 48.333999634 26.958000183 4.0000000000 22.000000000 2394.0000000 1.0000000000
