# LAS format log file from PETREL
# Project units are specified as depth units
#==================================================================
~Version information
VERS.   2.0:
WRAP.   NO:
#==================================================================
~Well
STRT .m      1350.0000000 :
STOP .m      1720.0000000 :
STEP .m     0.12500000 :
NULL .        -999.250000 :
COMP.           : COMPANY
WELL.  5-172C   : WELL
FLD.            : FIELD
LOC.            : LOCATION
SRVC.           : SERVICE COMPANY
DATE.  2020-03-08 09:25:10   : Log Export Date {yyyy-MM-dd HH:mm:ss}
PROV.           : PROVINCE
UWI.      : UNIQUE WELL ID
API.            : API NUMBER
#==================================================================
~Curve
DEPT .m                   : DEPTH
RT .ohm.m                 : RT
SP .                      : SP
Fluids .                  : Fluids
POR .m3/m3                : POR
PERM .mD                  : PERM
Lith .                    : Lith
~Parameter
#==================================================================
~Ascii
# ...
 1491.3750000 2.3780000210 13.012000084  -999.250000 0.1000000015 0.1000000015 0.0000000000
 1491.5000000 2.4360001087 12.939999580  -999.250000 0.1000000015 0.1000000015 0.0000000000
 1491.6250000 2.5769999027 12.907999992  -999.250000 0.1000000015 0.1000000015 0.0000000000
 1491.7500000 2.7060000896 12.831000328  -999.250000 0.1000000015 0.1000000015 0.0000000000
 1491.8750000 2.5920000076 12.807999611  -999.250000 0.1000000015 0.1000000015 0.0000000000
 1492.0000000 2.4010000229 12.786000252  -999.250000 0.1000000015 0.1000000015 0.0000000000
 1492.1250000 2.1740000248 12.675999641  -999.250000 0.1000000015 0.1000000015 0.0000000000
 1492.2500000 1.9780000448 12.618000031  -999.250000 0.1000000015 0.1000000015 0.0000000000
 1492.3750000 1.8899999857 12.559000015  -999.250000 0.1000000015 0.1000000015 0.0000000000
 1492.5000000 1.7280000448 12.553999901  -999.250000 0.1000000015 0.1000000015 0.0000000000
 1492.6250000 1.6030000448 12.553000450  -999.250000 0.1000000015 0.1000000015 0.0000000000
 1492.7500000 1.4110000134 12.500000000  -999.250000 0.1000000015 0.1000000015 0.0000000000
 1492.8750000 1.2230000496 12.446999550  -999.250000 0.1000000015 0.1000000015 0.0000000000
 1493.0000000 1.1679999828 12.444000244  -999.250000 0.1000000015 0.1000000015 0.0000000000
 1493.1250000 1.1449999809 12.440999985  -999.250000 0.1000000015 0.1000000015 0.0000000000
 1493.2500000 1.1219999790 12.442000389  -999.250000 0.1000000015 0.1000000015 0.0000000000
 1493.3750000 1.1809999943 12.442000389  -999.250000 0.1000000015 0.1000000015 0.0000000000
 1493.5000000 1.2400000095 12.442000389  -999.250000 0.1000000015 0.1000000015 0.0000000000
 1493.6250000 1.3009999990 12.442000389  -999.250000 0.1000000015 0.1000000015 0.0000000000
 1493.7500000 1.3470000029 12.442999840  -999.250000 0.1000000015 0.1000000015 0.0000000000
 1493.8750000 1.3639999628 12.442999840  -999.250000 0.1000000015 0.1000000015 0.0000000000
 1494.0000000 1.4340000153 12.442999840  -999.250000 0.1000000015 0.1000000015 0.0000000000
 1494.1250000 1.4839999676 12.444000244  -999.250000 0.1000000015 0.1000000015 0.0000000000
 1494.2500000 1.5740000010 12.444000244  -999.250000 0.1000000015 0.1000000015 0.0000000000
 1494.3750000 1.7170000076 12.501999855  -999.250000 0.1000000015 0.1000000015 0.0000000000
 1494.5000000 1.8839999437 12.520999908  -999.250000 0.1000000015 0.1000000015 0.0000000000
 1494.6250000 2.0629999638 12.539999962  -999.250000 0.1000000015 0.1000000015 0.0000000000
 1494.7500000 2.2469999790 12.546999931  -999.250000 0.1000000015 0.1000000015 0.0000000000
 1494.8750000 2.4049999714 12.553000450  -999.250000 0.1000000015 0.1000000015 0.0000000000
 1495.0000000 2.5150001049 12.593999863  -999.250000 0.1000000015 0.1000000015 0.0000000000
 1495.1250000 2.5739998817 12.633999825  -999.250000 0.1000000015 0.1000000015 0.0000000000
 1495.2500000 2.6019999981 12.685999870  -999.250000 0.1000000015 0.1000000015 0.0000000000
 1495.3750000 2.5820000172 12.737000465  -999.250000 0.1000000015 0.1000000015 0.0000000000
 1495.5000000 2.5399999619 12.788000107  -999.250000 0.1000000015 0.1000000015 0.0000000000
 1495.6250000 2.5230000019 12.859999657  -999.250000 0.1000000015 0.1000000015 0.0000000000
 1495.7500000 2.4690001011 12.920000076  -999.250000 0.1000000015 0.1000000015 0.0000000000
 1495.8750000 2.4110000134 12.979999542  -999.250000 0.1000000015 0.1000000015 0.0000000000
 1496.0000000 2.3369998932 13.029999733  -999.250000 0.1000000015 0.1000000015 0.0000000000
 1496.1250000 2.2909998894 13.079999924  -999.250000 0.1000000015 0.1000000015 0.0000000000
 1496.2500000 2.2449998856 13.130000114  -999.250000 0.1000000015 0.1000000015 0.0000000000
 1496.3750000 2.2260000706 13.225000381  -999.250000 0.1000000015 0.1000000015 0.0000000000
 1496.5000000 2.1900000572 13.319000244  -999.250000 0.1000000015 0.1000000015 0.0000000000
 1496.6250000 2.1749999523 13.428999901  -999.250000 0.1000000015 0.1000000015 0.0000000000
 1496.7500000 2.1400001049 13.538999557  -999.250000 0.1000000015 0.1000000015 0.0000000000
 1496.8750000 2.1289999485 13.595999718  -999.250000 0.1000000015 0.1000000015 0.0000000000
 1497.0000000 2.1240000725 13.654000282  -999.250000 0.1000000015 0.1000000015 0.0000000000
 1497.1250000 2.0850000381 13.750000000  -999.250000 0.1000000015 0.1000000015 0.0000000000
 1497.2500000 2.0729999542 13.847000122  -999.250000 0.1000000015 0.1000000015 0.0000000000
 1497.3750000 2.0339999199 13.916000366  -999.250000 0.1000000015 0.1000000015 0.0000000000
 1497.5000000 1.9939999580 13.984999657  -999.250000 0.1000000015 0.1000000015 0.0000000000
 1497.6250000 1.9780000448 14.045999527  -999.250000 0.1000000015 0.1000000015 0.0000000000
 1497.7500000 2.0160000324 14.105999947  -999.250000 0.1000000015 0.1000000015 0.0000000000
 1497.8750000 2.0869998932 14.131999969  -999.250000 0.1000000015 0.1000000015 0.0000000000
 1498.0000000 2.1589999199 14.156999588  -999.250000 0.1000000015 0.1000000015 0.0000000000
 1498.1250000 2.3350000381 14.204000473  -999.250000 0.1000000015 0.1000000015 0.0000000000
 1498.2500000 2.5160000324 14.251000404  -999.250000 0.1000000015 0.1000000015 0.0000000000
 1498.3750000 2.7009999752 14.265000343  -999.250000 0.1000000015 0.1000000015 0.0000000000
 1498.5000000 2.8020000458 14.267999649  -999.250000 0.1000000015 0.1000000015 0.0000000000
 1498.6250000 2.8880000114 14.272000313  -999.250000 0.1000000015 0.1000000015 0.0000000000
 1498.7500000 2.9570000172 14.274000168  -999.250000 0.1000000015 0.1000000015 0.0000000000
 1498.8750000 2.9639999866 14.274999619  -999.250000 0.1000000015 0.1000000015 0.0000000000
 1499.0000000 2.9170000553 14.274999619  -999.250000 0.1000000015 0.1000000015 0.0000000000
 1499.1250000 2.8499999046 14.276000023  -999.250000 0.1000000015 0.1000000015 0.0000000000
 1499.2500000 2.7839999199 14.276000023  -999.250000 0.1000000015 0.1000000015 0.0000000000
 1499.3750000 2.7030000687 14.277000427  -999.250000 0.1000000015 0.1000000015 0.0000000000
 1499.5000000 2.5099999905 14.277000427  -999.250000 0.1000000015 0.1000000015 0.0000000000
 1499.6250000 2.3229999542 14.277000427  -999.250000 0.1000000015 0.1000000015 0.0000000000
 1499.7500000 2.0999999046 14.277999878  -999.250000 0.1000000015 0.1000000015 0.0000000000
 1499.8750000 1.8769999743 14.277999878  -999.250000 0.1000000015 0.1000000015 0.0000000000
 1500.0000000 1.6909999847 14.277999878  -999.250000 0.1000000015 0.1000000015 0.0000000000
 1500.1250000 1.6009999514 14.279000282  -999.250000 0.1000000015 0.1000000015 0.0000000000
 1500.2500000 1.5549999475 14.279000282  -999.250000 0.1000000015 0.1000000015 0.0000000000
 1500.3750000 1.6399999857 14.279000282  -999.250000 0.1000000015 0.1000000015 0.0000000000
 1500.5000000 1.7239999771 14.279999733  -999.250000 0.1000000015 0.1000000015 0.0000000000
 1500.6250000 1.8309999704 14.345000267  -999.250000 0.1000000015 0.1000000015 0.0000000000
 1500.7500000 1.9900000095 14.366000175  -999.250000 0.1000000015 0.1000000015 0.0000000000
 1500.8750000 2.2679998875 14.387000084  -999.250000 0.1000000015 0.1000000015 0.0000000000
 1501.0000000 2.6710000038 14.390000343  -999.250000 0.1000000015 0.1000000015 0.0000000000
 1501.1250000 3.1289999485 14.392000198  -999.250000 0.1000000015 0.1000000015 0.0000000000
 1501.2500000 3.5320000648 14.395000458  -999.250000 0.1000000015 0.1000000015 0.0000000000
 1501.3750000 4.0110001564 14.395000458  -999.250000 0.1000000015 0.1000000015 0.0000000000
 1501.5000000 4.3449997902 14.395999908  -999.250000 0.1000000015 0.1000000015 0.0000000000
 1501.6250000 4.7109999657 14.395999908  -999.250000 0.1000000015 0.1000000015 0.0000000000
 1501.7500000 4.9920001030 14.397000313  -999.250000 0.1000000015 0.1000000015 0.0000000000
 1501.8750000 5.2199997902 14.397000313  -999.250000 0.1000000015 0.1000000015 0.0000000000
 1502.0000000 5.3709998131 14.397000313  -999.250000 0.1000000015 0.1000000015 0.0000000000
 1502.1250000 5.3670001030 14.397999763  -999.250000 0.1000000015 0.1000000015 0.0000000000
