# LAS format log file from PETREL
# Project units are specified as depth units
#==================================================================
~Version information
VERS.   2.0:
WRAP.   NO:
#==================================================================
~Well
STRT .m      1450.0000000 :
STOP .m      1720.0000000 :
STEP .m     0.12500000 :
NULL .        -999.250000 :
COMP.           : COMPANY
WELL.  5-17C   : WELL
FLD.            : FIELD
LOC.            : LOCATION
SRVC.           : SERVICE COMPANY
DATE.  2020-03-08 09:25:10   : Log Export Date {yyyy-MM-dd HH:mm:ss}
PROV.           : PROVINCE
UWI.      : UNIQUE WELL ID
API.            : API NUMBER
#==================================================================
~Curve
DEPT .m                   : DEPTH
RT .ohm.m                 : RT
SP .                      : SP
Fluids .                  : Fluids
POR .m3/m3                : POR
PERM .mD                  : PERM
Lith .                    : Lith
~Parameter
#==================================================================
~Ascii
# ...
 1580.5000000 3.9110000134 36.172000885  -999.250000 0.1000000015 0.1000000015 0.0000000000
 1580.6250000 3.6110000610 36.256000519  -999.250000 0.1000000015 0.1000000015 0.0000000000
 1580.7500000 3.3640000820 36.368999481  -999.250000 0.1000000015 0.1000000015 0.0000000000
 1580.8750000 3.1549999714 36.528999329  -999.250000 0.1000000015 0.1000000015 0.0000000000
 1581.0000000 2.9449999332 36.666999817  -999.250000 0.1000000015 0.1000000015 0.0000000000
 1581.1250000 2.4130001068 36.889999390  -999.250000 0.1000000015 0.1000000015 0.0000000000
 1581.2500000 1.8830000162 37.129001617  -999.250000 0.1000000015 0.1000000015 0.0000000000
 1581.3750000 1.6499999762 37.303001404  -999.250000 0.1000000015 0.1000000015 0.0000000000
 1581.5000000 1.5429999828 37.446998596  -999.250000 0.1000000015 0.1000000015 0.0000000000
 1581.6250000 1.5069999695 37.661998749  -999.250000 0.1000000015 0.1000000015 0.0000000000
 1581.7500000 1.4880000353 37.840000153  -999.250000 0.1000000015 0.1000000015 0.0000000000
 1581.8750000 1.4789999723 38.058998108  -999.250000 0.1000000015 0.1000000015 0.0000000000
 1582.0000000 1.5039999485 38.298000336  -999.250000 0.1000000015 0.1000000015 0.0000000000
 1582.1250000 1.5149999857 38.358001709  -999.250000 0.1000000015 0.1000000015 0.0000000000
 1582.2500000 1.5169999599 38.452999115  -999.250000 0.1000000015 0.1000000015 0.0000000000
 1582.3750000 1.5399999619 38.564998627  -999.250000 0.1000000015 0.1000000015 0.0000000000
 1582.5000000 1.5629999638 38.606998444  -999.250000 0.1000000015 0.1000000015 0.0000000000
 1582.6250000 1.6130000353 38.619998932  -999.250000 0.1000000015 0.1000000015 0.0000000000
 1582.7500000 1.6950000525 38.620998383  -999.250000 0.1000000015 0.1000000015 0.0000000000
 1582.8750000 1.7630000114 38.676998138  -999.250000 0.1000000015 0.1000000015 0.0000000000
 1583.0000000 1.8240000010 38.706001282  -999.250000 0.1000000015 0.1000000015 0.0000000000
 1583.1250000 1.8689999580 38.783000946  -999.250000 0.1000000015 0.1000000015 0.0000000000
 1583.2500000 1.9450000525 38.805000305  -999.250000 0.1000000015 0.1000000015 0.0000000000
 1583.3750000 2.0199999809 38.826000214  -999.250000 0.1000000015 0.1000000015 0.0000000000
 1583.5000000 2.0950000286 38.831001282  -999.250000 0.1000000015 0.1000000015 0.0000000000
 1583.6250000 2.1540000439 38.896999359  -999.250000 0.1000000015 0.1000000015 0.0000000000
 1583.7500000 2.1919999123 38.919998169  -999.250000 0.1000000015 0.1000000015 0.0000000000
 1583.8750000 2.2409999371 38.942001343  -999.250000 0.1000000015 0.1000000015 0.0000000000
 1584.0000000 2.2950000763 38.941001892  -999.250000 0.1000000015 0.1000000015 0.0000000000
 1584.1250000 2.3499999046 38.939998627  -999.250000 0.1000000015 0.1000000015 0.0000000000
 1584.2500000 2.3880000114 38.937999725  -999.250000 0.1000000015 0.1000000015 0.0000000000
 1584.3750000 2.4370000362 38.936000824  -999.250000 0.1000000015 0.1000000015 0.0000000000
 1584.5000000 2.4909999371 38.851001740  -999.250000 0.1000000015 0.1000000015 0.0000000000
 1584.6250000 2.5299999714 38.831001282  -999.250000 0.1000000015 0.1000000015 0.0000000000
 1584.7500000 2.5669999123 38.749000549  -999.250000 0.1000000015 0.1000000015 0.0000000000
 1584.8750000 2.5810000896 38.664001465  -999.250000 0.1000000015 0.1000000015 0.0000000000
 1585.0000000 2.5950000286 38.548000336  -999.250000 0.1000000015 0.1000000015 0.0000000000
 1585.1250000 2.5629999638 38.432998657  -999.250000 0.1000000015 0.1000000015 0.0000000000
 1585.2500000 2.5529999733 38.308998108  -999.250000 0.1000000015 0.1000000015 0.0000000000
 1585.3750000 2.5480000973 38.180999756  -999.250000 0.1000000015 0.1000000015 0.0000000000
 1585.5000000 2.5450000763 38.051998138  -999.250000 0.1000000015 0.1000000015 0.0000000000
 1585.6250000 2.5439999104 38.016998291  -999.250000 0.1000000015 0.1000000015 0.0000000000
 1585.7500000 2.5420000553 37.953998566  -999.250000 0.1000000015 0.1000000015 0.0000000000
 1585.8750000 2.5409998894 37.859001160 3.0000000000 13.000000000 141.00000000 1.0000000000
 1586.0000000 2.5399999619 37.820999146 3.0000000000 13.000000000 141.00000000 1.0000000000
 1586.1250000 2.5390000343 37.783000946 3.0000000000 13.000000000 141.00000000 1.0000000000
 1586.2500000 2.5380001068 37.700000763 3.0000000000 13.000000000 141.00000000 1.0000000000
 1586.3750000 2.5369999409 37.676998138 3.0000000000 13.000000000 141.00000000 1.0000000000
 1586.5000000 2.5360000134 37.665000916 3.0000000000 13.000000000 141.00000000 1.0000000000
 1586.6250000 2.5350000858 37.587001801 3.0000000000 13.000000000 141.00000000 1.0000000000
 1586.7500000 2.5339999199 37.516998291 3.0000000000 13.000000000 141.00000000 1.0000000000
 1586.8750000 2.5039999485 37.448001862 3.0000000000 13.000000000 141.00000000 1.0000000000
 1587.0000000 2.4679999352 37.334999084 3.0000000000 13.000000000 141.00000000 1.0000000000
 1587.1250000 2.4319999218 37.317001343 3.0000000000 13.000000000 141.00000000 1.0000000000
 1587.2500000 2.4309999943 37.229999542 3.0000000000 13.000000000 141.00000000 1.0000000000
 1587.3750000 2.4000000954 37.207000732 3.0000000000 13.000000000 141.00000000 1.0000000000
 1587.5000000 2.3529999256 37.198001862 3.0000000000 13.000000000 141.00000000 1.0000000000
 1587.6250000 2.3120000362 37.187999725 3.0000000000 13.000000000 141.00000000 1.0000000000
 1587.7500000 2.2630000114 37.186000824 3.0000000000 13.000000000 141.00000000 1.0000000000
 1587.8750000 2.2090001106 37.183998108  -999.250000 0.1000000015 0.1000000015 0.0000000000
 1588.0000000 2.1909999847 37.180999756  -999.250000 0.1000000015 0.1000000015 0.0000000000
 1588.1250000 2.1540000439 37.179000854  -999.250000 0.1000000015 0.1000000015 0.0000000000
 1588.2500000 2.1389999390 37.176998138  -999.250000 0.1000000015 0.1000000015 0.0000000000
 1588.3750000 2.1240000725 37.174999237  -999.250000 0.1000000015 0.1000000015 0.0000000000
 1588.5000000 2.0739998817 37.173000336  -999.250000 0.1000000015 0.1000000015 0.0000000000
 1588.6250000 1.9980000257 37.171001434  -999.250000 0.1000000015 0.1000000015 0.0000000000
 1588.7500000 1.9750000238 37.168998718  -999.250000 0.1000000015 0.1000000015 0.0000000000
 1588.8750000 1.9700000286 37.166999817  -999.250000 0.1000000015 0.1000000015 0.0000000000
 1589.0000000 1.9680000544 37.236999512  -999.250000 0.1000000015 0.1000000015 0.0000000000
 1589.1250000 1.9659999609 37.263000488  -999.250000 0.1000000015 0.1000000015 0.0000000000
 1589.2500000 1.9349999428 37.266998291  -999.250000 0.1000000015 0.1000000015 0.0000000000
 1589.3750000 1.9210000038 37.270999908  -999.250000 0.1000000015 0.1000000015 0.0000000000
 1589.5000000 1.9170000553 37.270000458  -999.250000 0.1000000015 0.1000000015 0.0000000000
 1589.6250000 1.9140000343 37.268001556  -999.250000 0.1000000015 0.1000000015 0.0000000000
 1589.7500000 1.9409999847 37.265998840  -999.250000 0.1000000015 0.1000000015 0.0000000000
 1589.8750000 1.9500000477 37.318000793  -999.250000 0.1000000015 0.1000000015 0.0000000000
 1590.0000000 1.9589999914 37.369998932  -999.250000 0.1000000015 0.1000000015 0.0000000000
 1590.1250000 1.9579999447 37.370998383  -999.250000 0.1000000015 0.1000000015 0.0000000000
 1590.2500000 1.9570000172 37.369998932  -999.250000 0.1000000015 0.1000000015 0.0000000000
 1590.3750000 1.9559999704 37.368999481  -999.250000 0.1000000015 0.1000000015 0.0000000000
 1590.5000000 1.9550000429 37.367000580  -999.250000 0.1000000015 0.1000000015 0.0000000000
 1590.6250000 1.9919999838 37.365001678  -999.250000 0.1000000015 0.1000000015 0.0000000000
 1590.7500000 2.0420000553 37.362998962  -999.250000 0.1000000015 0.1000000015 0.0000000000
 1590.8750000 2.0959999561 37.361000061  -999.250000 0.1000000015 0.1000000015 0.0000000000
 1591.0000000 2.0989999771 37.359001160  -999.250000 0.1000000015 0.1000000015 0.0000000000
 1591.1250000 2.0999999046 37.355998993  -999.250000 0.1000000015 0.1000000015 0.0000000000
 1591.2500000 2.1400001049 37.354000092  -999.250000 0.1000000015 0.1000000015 0.0000000000
