# LAS format log file from PETREL
# Project units are specified as depth units
#==================================================================
~Version information
VERS.   2.0:
WRAP.   NO:
#==================================================================
~Well
STRT .m      1350.0000000 :
STOP .m      1730.0000000 :
STEP .m     0.12500000 :
NULL .        -999.250000 :
COMP.           : COMPANY
WELL.  5-172   : WELL
FLD.            : FIELD
LOC.            : LOCATION
SRVC.           : SERVICE COMPANY
DATE.  2020-03-08 09:25:10   : Log Export Date {yyyy-MM-dd HH:mm:ss}
PROV.           : PROVINCE
UWI.      : UNIQUE WELL ID
API.            : API NUMBER
#==================================================================
~Curve
DEPT .m                   : DEPTH
RT .ohm.m                 : RT
SP .                      : SP
Fluids .                  : Fluids
POR .m3/m3                : POR
PERM .mD                  : PERM
Lith .                    : Lith
~Parameter
#==================================================================
~Ascii
# ...
 1632.7500000 3.4920001030 25.167999268  -999.250000 0.1000000015 0.1000000015 0.0000000000
 1632.8750000 3.1579999924 24.929000854  -999.250000 0.1000000015 0.1000000015 0.0000000000
 1633.0000000 2.9119999409 24.611000061  -999.250000 0.1000000015 0.1000000015 0.0000000000
 1633.1250000 2.8469998837 24.246999741  -999.250000 0.1000000015 0.1000000015 0.0000000000
 1633.2500000 2.8259999752 23.943000793  -999.250000 0.1000000015 0.1000000015 0.0000000000
 1633.3750000 2.8159999847 23.455999374 3.0000000000 14.000000000 171.00000000 1.0000000000
 1633.5000000 2.8829998970 23.106000900 3.0000000000 14.000000000 171.00000000 1.0000000000
 1633.6250000 2.9479999542 22.729000092 3.0000000000 14.000000000 171.00000000 1.0000000000
 1633.7500000 3.0669999123 22.406000137 3.0000000000 14.000000000 171.00000000 1.0000000000
 1633.8750000 3.2349998951 22.111999512 3.0000000000 14.000000000 171.00000000 1.0000000000
 1634.0000000 3.4849998951 21.923999786  -999.250000 0.1000000015 0.1000000015 0.0000000000
 1634.1250000 3.7750000954 21.777999878  -999.250000 0.1000000015 0.1000000015 0.0000000000
 1634.2500000 4.0469999313 21.597999573  -999.250000 0.1000000015 0.1000000015 0.0000000000
 1634.3750000 4.2389998436 21.492000580  -999.250000 0.1000000015 0.1000000015 0.0000000000
 1634.5000000 4.4739999771 21.454000473 4.0000000000 20.000000000 1058.0000000 1.0000000000
 1634.6250000 4.7290000916 21.450000763 4.0000000000 20.000000000 1058.0000000 1.0000000000
 1634.7500000 4.9029998779 21.537000656 4.0000000000 20.000000000 1058.0000000 1.0000000000
 1634.8750000 5.0949997902 21.665000916 4.0000000000 20.000000000 1058.0000000 1.0000000000
 1635.0000000 5.2880001068 21.836999893 4.0000000000 20.000000000 1058.0000000 1.0000000000
 1635.1250000 5.5209999084 22.009000778 4.0000000000 20.000000000 1058.0000000 1.0000000000
 1635.2500000 5.7740001678 22.115999222 4.0000000000 20.000000000 1058.0000000 1.0000000000
 1635.3750000 5.9580001831 22.152000427 4.0000000000 20.000000000 1058.0000000 1.0000000000
 1635.5000000 6.1430001259 22.243000031 4.0000000000 20.000000000 1058.0000000 1.0000000000
 1635.6250000 6.3689999580 22.339000702 4.0000000000 20.000000000 1058.0000000 1.0000000000
 1635.7500000 6.6519999504 22.465000153 4.0000000000 20.000000000 1058.0000000 1.0000000000
 1635.8750000 6.9650001526 22.604000092 4.0000000000 20.000000000 1058.0000000 1.0000000000
 1636.0000000 7.3559999466 22.747999191 4.0000000000 20.000000000 1058.0000000 1.0000000000
 1636.1250000 7.7470002174 22.847999573 4.0000000000 20.000000000 1058.0000000 1.0000000000
 1636.2500000 11.972000122 22.983999252 4.0000000000 20.000000000 1058.0000000 1.0000000000
 1636.3750000 12.760000229 22.718999863 4.0000000000 20.000000000 1058.0000000 1.0000000000
 1636.5000000 13.937000275 22.391000748 4.0000000000 20.000000000 1058.0000000 1.0000000000
 1636.6250000 15.803000450 21.961999893 4.0000000000 20.000000000 1058.0000000 1.0000000000
 1636.7500000 24.954999924 21.544000626 4.0000000000 20.000000000 1058.0000000 1.0000000000
 1636.8750000 29.809999466 21.131000519 4.0000000000 20.000000000 1058.0000000 1.0000000000
 1637.0000000 32.547000885 20.756000519 4.0000000000 20.000000000 1058.0000000 1.0000000000
 1637.1250000 34.888999939 20.361999512 4.0000000000 20.000000000 1058.0000000 1.0000000000
 1637.2500000 35.479999542 19.711000443 4.0000000000 20.000000000 1058.0000000 1.0000000000
 1637.3750000 35.290000916 19.145999908  -999.250000 0.1000000015 0.1000000015 0.0000000000
 1637.5000000 34.680000305 18.443000793  -999.250000 0.1000000015 0.1000000015 0.0000000000
 1637.6250000 33.473999023 17.759000778  -999.250000 0.1000000015 0.1000000015 0.0000000000
 1637.7500000 32.046001434 17.083000183  -999.250000 0.1000000015 0.1000000015 0.0000000000
 1637.8750000 31.020999908 16.632999420 4.0000000000 23.000000000 2041.0000000 1.0000000000
 1638.0000000 29.444000244 16.181999207 4.0000000000 23.000000000 2041.0000000 1.0000000000
 1638.1250000 29.115999222 15.659999847 4.0000000000 23.000000000 2041.0000000 1.0000000000
 1638.2500000 28.788000107 14.991999626 4.0000000000 23.000000000 2041.0000000 1.0000000000
 1638.3750000 28.485000610 14.458999634 4.0000000000 23.000000000 2041.0000000 1.0000000000
 1638.5000000 28.122999191 13.925999641 4.0000000000 23.000000000 2041.0000000 1.0000000000
 1638.6250000 27.964000702 13.253000259 4.0000000000 23.000000000 2041.0000000 1.0000000000
 1638.7500000 27.805000305 12.652000427 4.0000000000 23.000000000 2041.0000000 1.0000000000
 1638.8750000 27.781999588 12.093000412 4.0000000000 23.000000000 2041.0000000 1.0000000000
 1639.0000000 27.895999908 11.340999603 4.0000000000 23.000000000 2041.0000000 1.0000000000
 1639.1250000 28.010999680 10.413999557 4.0000000000 23.000000000 2041.0000000 1.0000000000
 1639.2500000 28.266000748 8.7959995270 4.0000000000 23.000000000 2041.0000000 1.0000000000
 1639.3750000 28.490999222 6.8410000801 4.0000000000 23.000000000 2041.0000000 1.0000000000
 1639.5000000 28.996000290 5.1030001640 4.0000000000 23.000000000 2041.0000000 1.0000000000
 1639.6250000 29.437999725 4.1020002365 4.0000000000 23.000000000 2041.0000000 1.0000000000
 1639.7500000 29.871999741 3.4509999752 4.0000000000 23.000000000 2041.0000000 1.0000000000
 1639.8750000 30.430000305 2.7839999199 4.0000000000 23.000000000 2041.0000000 1.0000000000
 1640.0000000 30.889999390 2.6809999943 4.0000000000 23.000000000 2041.0000000 1.0000000000
 1640.1250000 31.652999878 2.5780000687 4.0000000000 23.000000000 2041.0000000 1.0000000000
 1640.2500000 33.035999298 2.7820000648 4.0000000000 23.000000000 2041.0000000 1.0000000000
 1640.3750000 34.138999939 3.0710000992 4.0000000000 23.000000000 2041.0000000 1.0000000000
 1640.5000000 35.644001007 3.1719999313 4.0000000000 23.000000000 2041.0000000 1.0000000000
 1640.6250000 37.962001801 3.2950000763 4.0000000000 23.000000000 2041.0000000 1.0000000000
 1640.7500000 40.289001465 3.4309999943 4.0000000000 23.000000000 2041.0000000 1.0000000000
 1640.8750000 42.875000000 3.5399999619 4.0000000000 23.000000000 2041.0000000 1.0000000000
 1641.0000000 44.872001648 3.6689999104 4.0000000000 23.000000000 2041.0000000 1.0000000000
 1641.1250000 46.708999634 3.8090000153 4.0000000000 23.000000000 2041.0000000 1.0000000000
 1641.2500000 48.269001007 3.8469998837 4.0000000000 23.000000000 2041.0000000 1.0000000000
 1641.3750000 49.877998352 3.9419999123 4.0000000000 23.000000000 2041.0000000 1.0000000000
 1641.5000000 51.008998871 4.1799998283 4.0000000000 23.000000000 2041.0000000 1.0000000000
 1641.6250000 51.880001068 4.1970000267 4.0000000000 23.000000000 2041.0000000 1.0000000000
 1641.7500000 52.562000275 4.1469998360 4.0000000000 23.000000000 2041.0000000 1.0000000000
 1641.8750000 53.435001373 3.9939999580 3.0000000000 17.000000000 1267.0000000 1.0000000000
 1642.0000000 54.111000061 3.8499999046 3.0000000000 17.000000000 1267.0000000 1.0000000000
 1642.1250000 54.988998413 3.5510001183 3.0000000000 17.000000000 1267.0000000 1.0000000000
 1642.2500000 55.470001221 3.1789999008 3.0000000000 17.000000000 1267.0000000 1.0000000000
 1642.3750000 56.066001892 2.7400000095 3.0000000000 17.000000000 1267.0000000 1.0000000000
 1642.5000000 56.859001160 2.3199999332 3.0000000000 17.000000000 1267.0000000 1.0000000000
 1642.6250000 57.290000916 2.0060000420 3.0000000000 17.000000000 1267.0000000 1.0000000000
 1642.7500000 57.671001434 1.8910000324 3.0000000000 17.000000000 1267.0000000 1.0000000000
 1642.8750000 57.816001892 1.7960000038 3.0000000000 17.000000000 1267.0000000 1.0000000000
 1643.0000000 57.896999359 1.7580000162 3.0000000000 17.000000000 1267.0000000 1.0000000000
 1643.1250000 57.772998810 1.7519999743 3.0000000000 17.000000000 1267.0000000 1.0000000000
 1643.2500000 57.452999115 1.6729999781 3.0000000000 17.000000000 1267.0000000 1.0000000000
 1643.3750000 56.980998993 1.5870000124 3.0000000000 17.000000000 1267.0000000 1.0000000000
 1643.5000000 56.247001648 1.4989999533 3.0000000000 17.000000000 1267.0000000 1.0000000000
