# LAS format log file from PETREL
# Project units are specified as depth units
#==================================================================
~Version information
VERS.   2.0:
WRAP.   NO:
#==================================================================
~Well
STRT .m      1450.0000000 :
STOP .m      1660.0000000 :
STEP .m     0.12500000 :
NULL .        -999.250000 :
COMP.           : COMPANY
WELL.  5-17   : WELL
FLD.            : FIELD
LOC.            : LOCATION
SRVC.           : SERVICE COMPANY
DATE.  2020-03-08 09:25:10   : Log Export Date {yyyy-MM-dd HH:mm:ss}
PROV.           : PROVINCE
UWI.      : UNIQUE WELL ID
API.            : API NUMBER
#==================================================================
~Curve
DEPT .m                   : DEPTH
RT .ohm.m                 : RT
SP .                      : SP
Fluids .                  : Fluids
POR .m3/m3                : POR
PERM .mD                  : PERM
Lith .                    : Lith
~Parameter
#==================================================================
~Ascii
# ...
 1645.7500000 22.514999390 3.2179999352 4.0000000000 21.000000000 1976.0000000 1.0000000000
 1645.8750000 21.627000809 3.5780000687 4.0000000000 21.000000000 1976.0000000 1.0000000000
 1646.0000000 20.707000732 4.0799999237 4.0000000000 21.000000000 1976.0000000 1.0000000000
 1646.1250000 27.566999435 4.9949998856 4.0000000000 21.000000000 1976.0000000 1.0000000000
 1646.2500000 33.587001801 6.0799999237 4.0000000000 21.000000000 1976.0000000 1.0000000000
 1646.3750000 43.119998932 6.8299999237 4.0000000000 21.000000000 1976.0000000 1.0000000000
 1646.5000000 43.049999237 7.4739999771 4.0000000000 21.000000000 1976.0000000 1.0000000000
 1646.6250000 28.169000626 7.9749999046 4.0000000000 21.000000000 1976.0000000 1.0000000000
 1646.7500000 15.571000099 7.9510002136 4.0000000000 21.000000000 1976.0000000 1.0000000000
 1646.8750000 16.673000336 7.3319997787 4.0000000000 21.000000000 1976.0000000 1.0000000000
 1647.0000000 28.811000824 6.4780001640 4.0000000000 21.000000000 1976.0000000 1.0000000000
 1647.1250000 29.923000336 5.5329999924 4.0000000000 21.000000000 1976.0000000 1.0000000000
 1647.2500000 26.245000839 4.8289999962 4.0000000000 21.000000000 1976.0000000 1.0000000000
 1647.3750000 21.461000443 4.3299999237 4.0000000000 21.000000000 1976.0000000 1.0000000000
 1647.5000000 23.510000229 4.2500000000 4.0000000000 21.000000000 1976.0000000 1.0000000000
 1647.6250000 36.275001526 4.2309999466 4.0000000000 21.000000000 1976.0000000 1.0000000000
 1647.7500000 39.881000519 4.5500001907 4.0000000000 21.000000000 1976.0000000 1.0000000000
 1647.8750000 34.409999847 5.0100002289 4.0000000000 21.000000000 1976.0000000 1.0000000000
 1648.0000000 28.419000626 5.5310001373 4.0000000000 21.000000000 1976.0000000 1.0000000000
 1648.1250000 24.527000427 6.1170001030 4.0000000000 21.000000000 1976.0000000 1.0000000000
 1648.2500000 21.059000015 6.7430000305 4.0000000000 21.000000000 1976.0000000 1.0000000000
 1648.3750000 21.128000259 7.3249998093 4.0000000000 21.000000000 1976.0000000 1.0000000000
 1648.5000000 14.786999702 7.8800001144 4.0000000000 21.000000000 1976.0000000 1.0000000000
 1648.6250000 12.043999672 8.3489999771 4.0000000000 21.000000000 1976.0000000 1.0000000000
 1648.7500000 14.064999580 8.5279998779 4.0000000000 21.000000000 1976.0000000 1.0000000000
 1648.8750000 16.531000137 8.4630002975 4.0000000000 21.000000000 1976.0000000 1.0000000000
 1649.0000000 18.684999466 8.3750000000 4.0000000000 21.000000000 1976.0000000 1.0000000000
 1649.1250000 18.850000381 8.4680004120 4.0000000000 21.000000000 1976.0000000 1.0000000000
 1649.2500000 14.781999588 8.6909999847 4.0000000000 21.000000000 1976.0000000 1.0000000000
 1649.3750000 11.925999641 9.0039997101 4.0000000000 21.000000000 1976.0000000 1.0000000000
 1649.5000000 9.8690004349 9.4460000992 4.0000000000 21.000000000 1976.0000000 1.0000000000
 1649.6250000 10.375000000 9.4449996948 4.0000000000 21.000000000 1976.0000000 1.0000000000
 1649.7500000 10.531000137 8.7390003204 4.0000000000 21.000000000 1976.0000000 1.0000000000
 1649.8750000 8.6789999008 8.3610000610 4.0000000000 21.000000000 1976.0000000 1.0000000000
 1650.0000000 9.9110002518 7.9959998131 4.0000000000 21.000000000 1976.0000000 1.0000000000
 1650.1250000 14.439999580 6.8689999580 4.0000000000 21.000000000 1976.0000000 1.0000000000
 1650.2500000 17.298999786 5.6820001602 4.0000000000 21.000000000 1976.0000000 1.0000000000
 1650.3750000 18.965999603 5.0390000343 4.0000000000 21.000000000 1976.0000000 1.0000000000
 1650.5000000 19.448999405 4.7239999771 4.0000000000 21.000000000 1976.0000000 1.0000000000
 1650.6250000 20.865999222 4.5339999199 4.0000000000 21.000000000 1976.0000000 1.0000000000
 1650.7500000 22.681999207 4.5279998779 4.0000000000 21.000000000 1976.0000000 1.0000000000
 1650.8750000 25.834999084 4.5710000992 4.0000000000 21.000000000 1976.0000000 1.0000000000
 1651.0000000 28.724000931 4.6469998360 4.0000000000 21.000000000 1976.0000000 1.0000000000
 1651.1250000 29.777000427 4.7500000000 4.0000000000 21.000000000 1976.0000000 1.0000000000
 1651.2500000 28.731000900 5.0209999084 4.0000000000 21.000000000 1976.0000000 1.0000000000
 1651.3750000 27.881000519 5.3990001678 4.0000000000 21.000000000 1976.0000000 1.0000000000
 1651.5000000 28.629999161 5.9219999313 4.0000000000 21.000000000 1976.0000000 1.0000000000
 1651.6250000 22.461000443 6.4479999542 4.0000000000 21.000000000 1976.0000000 1.0000000000
 1651.7500000 15.708999634 7.0120000839 4.0000000000 21.000000000 1976.0000000 1.0000000000
 1651.8750000 13.958000183 7.3969998360 4.0000000000 21.000000000 1976.0000000 1.0000000000
 1652.0000000 12.552000046 7.4920001030 4.0000000000 21.000000000 1976.0000000 1.0000000000
 1652.1250000 12.171999931 7.3080000877 4.0000000000 21.000000000 1976.0000000 1.0000000000
 1652.2500000 13.060000420 7.0079998970 4.0000000000 21.000000000 1976.0000000 1.0000000000
 1652.3750000 14.034999847 6.7449998856 4.0000000000 21.000000000 1976.0000000 1.0000000000
 1652.5000000 13.880999565 6.5100002289 4.0000000000 21.000000000 1976.0000000 1.0000000000
 1652.6250000 13.576999664 6.3200001717 4.0000000000 21.000000000 1976.0000000 1.0000000000
 1652.7500000 12.911000252 6.4369997978 4.0000000000 21.000000000 1976.0000000 1.0000000000
 1652.8750000 11.887000084 6.7300000191 4.0000000000 21.000000000 1976.0000000 1.0000000000
 1653.0000000 11.616999626 7.0289998055 4.0000000000 21.000000000 1976.0000000 1.0000000000
 1653.1250000 12.699999809 7.2789998055 4.0000000000 21.000000000 1976.0000000 1.0000000000
 1653.2500000 13.789999962 7.4130001068 4.0000000000 21.000000000 1976.0000000 1.0000000000
 1653.3750000 13.291999817 7.4720001221 4.0000000000 21.000000000 1976.0000000 1.0000000000
 1653.5000000 13.012999535 7.2560000420 4.0000000000 21.000000000 1976.0000000 1.0000000000
 1653.6250000 13.517999649 6.9590001106 4.0000000000 21.000000000 1976.0000000 1.0000000000
 1653.7500000 13.958000183 6.9050002098 4.0000000000 21.000000000 1976.0000000 1.0000000000
 1653.8750000 14.378999710 7.5349998474 4.0000000000 21.000000000 1976.0000000 1.0000000000
 1654.0000000 14.890999794 8.1440000534 4.0000000000 21.000000000 1976.0000000 1.0000000000
 1654.1250000 14.090999603 8.6669998169 4.0000000000 21.000000000 1976.0000000 1.0000000000
 1654.2500000 12.649999619 9.2049999237 4.0000000000 21.000000000 1976.0000000 1.0000000000
 1654.3750000 10.805000305 9.6759996414 4.0000000000 21.000000000 1976.0000000 1.0000000000
 1654.5000000 9.7550001144 9.8719997406 4.0000000000 21.000000000 1976.0000000 1.0000000000
 1654.6250000 10.387999535 9.8699998856 4.0000000000 21.000000000 1976.0000000 1.0000000000
 1654.7500000 10.460000038 10.045999527 4.0000000000 21.000000000 1976.0000000 1.0000000000
 1654.8750000 9.6680002213 10.479000092 4.0000000000 21.000000000 1976.0000000 1.0000000000
 1655.0000000 8.9910001755 11.107000351 4.0000000000 21.000000000 1976.0000000 1.0000000000
 1655.1250000 9.6510000229 11.545999527 4.0000000000 21.000000000 1976.0000000 1.0000000000
 1655.2500000 19.374000549 11.322999954 4.0000000000 21.000000000 1976.0000000 1.0000000000
 1655.3750000 21.888000488 11.177000046 4.0000000000 21.000000000 1976.0000000 1.0000000000
 1655.5000000 15.187000275 11.913000107 4.0000000000 21.000000000 1976.0000000 1.0000000000
 1655.6250000 10.602999687 12.668000221 4.0000000000 21.000000000 1976.0000000 1.0000000000
 1655.7500000 5.5850000381 13.314999580 4.0000000000 21.000000000 1976.0000000 1.0000000000
 1655.8750000 4.9559998512 13.435000420  -999.250000 0.1000000015 0.1000000015 0.0000000000
 1656.0000000 6.6050000191 12.956999779 4.0000000000 18.000000000 558.00000000 1.0000000000
 1656.1250000 9.0880002975 12.454999924 4.0000000000 18.000000000 558.00000000 1.0000000000
 1656.2500000 16.266000748 11.972000122 4.0000000000 18.000000000 558.00000000 1.0000000000
 1656.3750000 16.270000458 11.553000450 4.0000000000 18.000000000 558.00000000 1.0000000000
 1656.5000000 16.691999435 12.121999741 4.0000000000 18.000000000 558.00000000 1.0000000000
