# LAS format log file from PETREL
# Project units are specified as depth units
#==================================================================
~Version information
VERS.   2.0:
WRAP.   NO:
#==================================================================
~Well
STRT .m      1385.0000000 :
STOP .m      1720.0000000 :
STEP .m     0.12500000 :
NULL .        -999.250000 :
COMP.           : COMPANY
WELL.  5-17C2   : WELL
FLD.            : FIELD
LOC.            : LOCATION
SRVC.           : SERVICE COMPANY
DATE.  2020-03-08 09:25:10   : Log Export Date {yyyy-MM-dd HH:mm:ss}
PROV.           : PROVINCE
UWI.      : UNIQUE WELL ID
API.            : API NUMBER
#==================================================================
~Curve
DEPT .m                   : DEPTH
RT .ohm.m                 : RT
SP .                      : SP
Fluids .                  : Fluids
POR .m3/m3                : POR
PERM .mD                  : PERM
Lith .                    : Lith
~Parameter
#==================================================================
~Ascii
# ...
 1646.0000000 64.160003662 55.689998627 4.0000000000 17.000000000 511.00000000 1.0000000000
 1646.1250000 62.403999329 55.715000153 4.0000000000 17.000000000 511.00000000 1.0000000000
 1646.2500000 60.256000519 55.738998413 4.0000000000 17.000000000 511.00000000 1.0000000000
 1646.3750000 58.212001801 55.770999908 4.0000000000 17.000000000 511.00000000 1.0000000000
 1646.5000000 56.405998230 55.817001343 4.0000000000 17.000000000 511.00000000 1.0000000000
 1646.6250000 54.990001678 55.883998871 4.0000000000 17.000000000 511.00000000 1.0000000000
 1646.7500000 53.887001038 55.983001709 4.0000000000 17.000000000 511.00000000 1.0000000000
 1646.8750000 53.109001160 56.096000671 4.0000000000 17.000000000 511.00000000 1.0000000000
 1647.0000000 52.589000702 56.230998993 4.0000000000 17.000000000 511.00000000 1.0000000000
 1647.1250000 52.449001312 56.386001587 4.0000000000 17.000000000 511.00000000 1.0000000000
 1647.2500000 52.636001587 56.580001831 4.0000000000 17.000000000 511.00000000 1.0000000000
 1647.3750000 53.025001526 56.818000793 4.0000000000 17.000000000 511.00000000 1.0000000000
 1647.5000000 53.333000183 57.119998932 4.0000000000 17.000000000 511.00000000 1.0000000000
 1647.6250000 53.196998596 57.485000610 4.0000000000 17.000000000 511.00000000 1.0000000000
 1647.7500000 52.375000000 57.898998260 4.0000000000 17.000000000 511.00000000 1.0000000000
 1647.8750000 50.902000427 58.353000641 4.0000000000 17.000000000 511.00000000 1.0000000000
 1648.0000000 49.198001862 58.826999664 4.0000000000 17.000000000 511.00000000 1.0000000000
 1648.1250000 47.464000702 59.332000732 4.0000000000 17.000000000 511.00000000 1.0000000000
 1648.2500000 45.805999756 59.835998535 4.0000000000 17.000000000 511.00000000 1.0000000000
 1648.3750000 44.292999268 60.324001312 4.0000000000 17.000000000 511.00000000 1.0000000000
 1648.5000000 42.845001221 60.766998291 4.0000000000 17.000000000 511.00000000 1.0000000000
 1648.6250000 41.472000122 61.153999329 4.0000000000 17.000000000 511.00000000 1.0000000000
 1648.7500000 40.139999390 61.491001129 4.0000000000 17.000000000 511.00000000 1.0000000000
 1648.8750000 38.818000793 61.777999878 4.0000000000 17.000000000 511.00000000 1.0000000000
 1649.0000000 37.250000000 62.034000397  -999.250000 0.1000000015 0.1000000015 0.0000000000
 1649.1250000 35.291000366 62.261001587  -999.250000 0.1000000015 0.1000000015 0.0000000000
 1649.2500000 32.777999878 62.470001221  -999.250000 0.1000000015 0.1000000015 0.0000000000
 1649.3750000 29.882999420 62.657001495  -999.250000 0.1000000015 0.1000000015 0.0000000000
 1649.5000000 26.728000641 62.834999084  -999.250000 0.1000000015 0.1000000015 0.0000000000
 1649.6250000 23.683000565 62.999000549  -999.250000 0.1000000015 0.1000000015 0.0000000000
 1649.7500000 20.773000717 63.152999878  -999.250000 0.1000000015 0.1000000015 0.0000000000
 1649.8750000 18.031000137 63.305000305  -999.250000 0.1000000015 0.1000000015 0.0000000000
 1650.0000000 15.682999611 63.455001831  -999.250000 0.1000000015 0.1000000015 0.0000000000
 1650.1250000 13.854999542 63.609001160  -999.250000 0.1000000015 0.1000000015 0.0000000000
 1650.2500000 12.656999588 63.752998352  -999.250000 0.1000000015 0.1000000015 0.0000000000
 1650.3750000 11.996000290 63.902999878 3.0000000000 12.000000000 61.000000000 1.0000000000
 1650.5000000 11.765999794 64.066001892 3.0000000000 12.000000000 61.000000000 1.0000000000
 1650.6250000 11.857999802 64.273002625 3.0000000000 12.000000000 61.000000000 1.0000000000
 1650.7500000 12.267999649 64.527999878 3.0000000000 12.000000000 61.000000000 1.0000000000
 1650.8750000 12.923999786 64.818000793 3.0000000000 12.000000000 61.000000000 1.0000000000
 1651.0000000 13.708999634 65.133003235 3.0000000000 12.000000000 61.000000000 1.0000000000
 1651.1250000 14.435000420 65.456001282 3.0000000000 12.000000000 61.000000000 1.0000000000
 1651.2500000 14.887999535 65.779998779 3.0000000000 12.000000000 61.000000000 1.0000000000
 1651.3750000 14.817999840 66.083999634  -999.250000 0.1000000015 0.1000000015 0.0000000000
 1651.5000000 14.093999863 66.365997314  -999.250000 0.1000000015 0.1000000015 0.0000000000
 1651.6250000 12.718999863 66.597000122  -999.250000 0.1000000015 0.1000000015 0.0000000000
 1651.7500000 10.777999878 66.773002625  -999.250000 0.1000000015 0.1000000015 0.0000000000
 1651.8750000 8.5139999390 66.893997192  -999.250000 0.1000000015 0.1000000015 0.0000000000
 1652.0000000 6.4889998436 66.964996338  -999.250000 0.1000000015 0.1000000015 0.0000000000
 1652.1250000 4.9419999123 66.986000061  -999.250000 0.1000000015 0.1000000015 0.0000000000
 1652.2500000 3.9800000191 66.959999084  -999.250000 0.1000000015 0.1000000015 0.0000000000
 1652.3750000 3.4159998894 66.905998230  -999.250000 0.1000000015 0.1000000015 0.0000000000
 1652.5000000 3.1370000839 66.833999634  -999.250000 0.1000000015 0.1000000015 0.0000000000
 1652.6250000 3.0009999275 66.754997253  -999.250000 0.1000000015 0.1000000015 0.0000000000
 1652.7500000 2.9379999638 66.651000977  -999.250000 0.1000000015 0.1000000015 0.0000000000
 1652.8750000 2.9110000134 66.535003662  -999.250000 0.1000000015 0.1000000015 0.0000000000
 1653.0000000 2.9249999523 66.403999329  -999.250000 0.1000000015 0.1000000015 0.0000000000
 1653.1250000 2.9839999676 66.274002075  -999.250000 0.1000000015 0.1000000015 0.0000000000
 1653.2500000 3.0869998932 66.144996643  -999.250000 0.1000000015 0.1000000015 0.0000000000
 1653.3750000 3.2309999466 66.022003174  -999.250000 0.1000000015 0.1000000015 0.0000000000
 1653.5000000 3.3159999847 65.924003601  -999.250000 0.1000000015 0.1000000015 0.0000000000
 1653.6250000 3.3489999771 65.841003418  -999.250000 0.1000000015 0.1000000015 0.0000000000
 1653.7500000 3.3610000610 65.775001526  -999.250000 0.1000000015 0.1000000015 0.0000000000
 1653.8750000 3.3689999580 65.709999084  -999.250000 0.1000000015 0.1000000015 0.0000000000
 1654.0000000 3.3929998875 65.643997192  -999.250000 0.1000000015 0.1000000015 0.0000000000
 1654.1250000 3.4319999218 65.559997559  -999.250000 0.1000000015 0.1000000015 0.0000000000
 1654.2500000 3.4509999752 65.459999084  -999.250000 0.1000000015 0.1000000015 0.0000000000
 1654.3750000 3.4839999676 65.339996338  -999.250000 0.1000000015 0.1000000015 0.0000000000
 1654.5000000 3.5099999905 65.195999146 3.0000000000 8.0000000000 9.0000000000 1.0000000000
 1654.6250000 3.5439999104 65.040000916 3.0000000000 8.0000000000 9.0000000000 1.0000000000
 1654.7500000 3.6080000401 64.877998352 3.0000000000 8.0000000000 9.0000000000 1.0000000000
 1654.8750000 3.7599999905 64.736000061 3.0000000000 8.0000000000 9.0000000000 1.0000000000
 1655.0000000 3.9509999752 64.614997864 3.0000000000 8.0000000000 9.0000000000 1.0000000000
 1655.1250000 4.1449999809 64.513000488 3.0000000000 8.0000000000 9.0000000000 1.0000000000
 1655.2500000 4.3020000458 64.405998230 3.0000000000 8.0000000000 9.0000000000 1.0000000000
 1655.3750000 4.4200000763 64.303001404 3.0000000000 8.0000000000 9.0000000000 1.0000000000
 1655.5000000 4.5370001793 64.188003540 3.0000000000 8.0000000000 9.0000000000 1.0000000000
 1655.6250000 4.6380000114 64.041999817 3.0000000000 8.0000000000 9.0000000000 1.0000000000
 1655.7500000 4.7829999924 63.873001099 3.0000000000 8.0000000000 9.0000000000 1.0000000000
 1655.8750000 4.9419999123 63.689998627 3.0000000000 8.0000000000 9.0000000000 1.0000000000
 1656.0000000 5.0830001831 63.515998840 3.0000000000 8.0000000000 9.0000000000 1.0000000000
 1656.1250000 5.1659998894 63.348999023 3.0000000000 8.0000000000 9.0000000000 1.0000000000
 1656.2500000 5.2199997902 63.217998505 3.0000000000 8.0000000000 9.0000000000 1.0000000000
 1656.3750000 5.2820000648 63.130001068  -999.250000 0.1000000015 0.1000000015 0.0000000000
 1656.5000000 5.3420000076 63.097000122  -999.250000 0.1000000015 0.1000000015 0.0000000000
 1656.6250000 5.3940000534 63.112998962  -999.250000 0.1000000015 0.1000000015 0.0000000000
 1656.7500000 5.4400000572 63.168998718  -999.250000 0.1000000015 0.1000000015 0.0000000000
