# LAS format log file from PETREL
# Project units are specified as depth units
#==================================================================
~Version information
VERS.   2.0:
WRAP.   NO:
#==================================================================
~Well
STRT .m      212.00000000 :
STOP .m      1748.0000000 :
STEP .m     0.12500000 :
NULL .        -999.250000 :
COMP.           : COMPANY
WELL.  51-164   : WELL
FLD.            : FIELD
LOC.            : LOCATION
SRVC.           : SERVICE COMPANY
DATE.  2020-03-08 09:25:10   : Log Export Date {yyyy-MM-dd HH:mm:ss}
PROV.           : PROVINCE
UWI.      : UNIQUE WELL ID
API.            : API NUMBER
#==================================================================
~Curve
DEPT .m                   : DEPTH
RT .ohm.m                 : RT
SP .                      : SP
Fluids .                  : Fluids
POR .m3/m3                : POR
PERM .mD                  : PERM
Lith .                    : Lith
~Parameter
#==================================================================
~Ascii
# ...
 1647.5000000 32.869998932 24.510000229 4.0000000000 24.000000000 2479.0000000 1.0000000000
 1647.6250000 33.090000153 24.540000916 4.0000000000 24.000000000 2479.0000000 1.0000000000
 1647.7500000 33.240001678 24.569999695 4.0000000000 24.000000000 2479.0000000 1.0000000000
 1647.8750000 33.560001373 24.610000610 4.0000000000 24.000000000 2479.0000000 1.0000000000
 1648.0000000 33.369998932 24.649999619 4.0000000000 24.000000000 2479.0000000 1.0000000000
 1648.1250000 32.000000000 24.709999084 4.0000000000 24.000000000 2479.0000000 1.0000000000
 1648.2500000 30.930000305 24.780000687 4.0000000000 24.000000000 2479.0000000 1.0000000000
 1648.3750000 30.569999695 24.879999161 4.0000000000 24.000000000 2479.0000000 1.0000000000
 1648.5000000 30.559999466 24.959999084 4.0000000000 24.000000000 2479.0000000 1.0000000000
 1648.6250000 31.209999084 25.049999237 4.0000000000 24.000000000 2479.0000000 1.0000000000
 1648.7500000 32.950000763 25.129999161 4.0000000000 24.000000000 2479.0000000 1.0000000000
 1648.8750000 34.099998474 25.219999313 4.0000000000 24.000000000 2479.0000000 1.0000000000
 1649.0000000 34.259998322 25.319999695 4.0000000000 24.000000000 2479.0000000 1.0000000000
 1649.1250000 33.810001373 25.389999390 4.0000000000 24.000000000 2479.0000000 1.0000000000
 1649.2500000 33.080001831 25.430000305 4.0000000000 24.000000000 2479.0000000 1.0000000000
 1649.3750000 32.569999695 25.450000763 4.0000000000 24.000000000 2479.0000000 1.0000000000
 1649.5000000 32.090000153 25.469999313 4.0000000000 24.000000000 2479.0000000 1.0000000000
 1649.6250000 30.170000076 25.469999313 4.0000000000 24.000000000 2479.0000000 1.0000000000
 1649.7500000 25.989999771 25.459999084 4.0000000000 24.000000000 2479.0000000 1.0000000000
 1649.8750000 22.930000305 25.430000305 4.0000000000 24.000000000 2479.0000000 1.0000000000
 1650.0000000 21.739999771 25.379999161 4.0000000000 24.000000000 2479.0000000 1.0000000000
 1650.1250000 22.079999924 25.319999695 4.0000000000 24.000000000 2479.0000000 1.0000000000
 1650.2500000 24.850000381 25.260000229 4.0000000000 24.000000000 2479.0000000 1.0000000000
 1650.3750000 29.440000534 25.180000305 4.0000000000 24.000000000 2479.0000000 1.0000000000
 1650.5000000 32.459999084 25.079999924 4.0000000000 24.000000000 2479.0000000 1.0000000000
 1650.6250000 33.220001221 24.940000534 4.0000000000 24.000000000 2479.0000000 1.0000000000
 1650.7500000 33.720001221 24.790000916 4.0000000000 24.000000000 2479.0000000 1.0000000000
 1650.8750000 34.950000763 24.649999619 4.0000000000 24.000000000 2479.0000000 1.0000000000
 1651.0000000 36.580001831 24.530000687 4.0000000000 24.000000000 2479.0000000 1.0000000000
 1651.1250000 38.369998932 24.430000305 4.0000000000 24.000000000 2479.0000000 1.0000000000
 1651.2500000 40.400001526 24.340000153 4.0000000000 24.000000000 2479.0000000 1.0000000000
 1651.3750000 42.380001068 24.270000458 4.0000000000 24.000000000 2479.0000000 1.0000000000
 1651.5000000 43.959999084 24.239999771 4.0000000000 24.000000000 2479.0000000 1.0000000000
 1651.6250000 45.139999390 24.239999771 4.0000000000 24.000000000 2479.0000000 1.0000000000
 1651.7500000 45.630001068 24.270000458 4.0000000000 24.000000000 2479.0000000 1.0000000000
 1651.8750000 45.090000153 24.299999237 4.0000000000 24.000000000 2479.0000000 1.0000000000
 1652.0000000 42.830001831 24.319999695 4.0000000000 24.000000000 2479.0000000 1.0000000000
 1652.1250000 39.380001068 24.340000153 4.0000000000 24.000000000 2479.0000000 1.0000000000
 1652.2500000 35.770000458 24.370000839 4.0000000000 24.000000000 2479.0000000 1.0000000000
 1652.3750000 33.259998322 24.409999847 4.0000000000 24.000000000 2479.0000000 1.0000000000
 1652.5000000 32.299999237 24.469999313 4.0000000000 24.000000000 2479.0000000 1.0000000000
 1652.6250000 32.299999237 24.540000916 4.0000000000 24.000000000 2479.0000000 1.0000000000
 1652.7500000 31.809999466 24.620000839 4.0000000000 24.000000000 2479.0000000 1.0000000000
 1652.8750000 32.389999390 24.700000763 4.0000000000 24.000000000 2479.0000000 1.0000000000
 1653.0000000 35.290000916 24.799999237 4.0000000000 24.000000000 2479.0000000 1.0000000000
 1653.1250000 38.959999084 24.909999847 4.0000000000 24.000000000 2479.0000000 1.0000000000
 1653.2500000 41.970001221 25.010000229 4.0000000000 24.000000000 2479.0000000 1.0000000000
 1653.3750000 44.590000153 25.090000153 4.0000000000 24.000000000 2479.0000000 1.0000000000
 1653.5000000 43.680000305 25.149999619 4.0000000000 24.000000000 2479.0000000 1.0000000000
 1653.6250000 37.979999542 25.209999084 4.0000000000 24.000000000 2479.0000000 1.0000000000
 1653.7500000 31.100000381 25.260000229 4.0000000000 24.000000000 2479.0000000 1.0000000000
 1653.8750000 26.899999619 25.329999924 4.0000000000 24.000000000 2479.0000000 1.0000000000
 1654.0000000 25.770000458 25.389999390 4.0000000000 24.000000000 2479.0000000 1.0000000000
 1654.1250000 26.510000229 25.450000763 4.0000000000 24.000000000 2479.0000000 1.0000000000
 1654.2500000 28.690000534 25.520000458 4.0000000000 24.000000000 2479.0000000 1.0000000000
 1654.3750000 32.200000763 25.579999924 4.0000000000 24.000000000 2479.0000000 1.0000000000
 1654.5000000 35.389999390 25.659999847 4.0000000000 24.000000000 2479.0000000 1.0000000000
 1654.6250000 36.549999237 25.750000000 4.0000000000 24.000000000 2479.0000000 1.0000000000
 1654.7500000 36.950000763 25.850000381 4.0000000000 24.000000000 2479.0000000 1.0000000000
 1654.8750000 37.470001221 25.969999313 4.0000000000 24.000000000 2479.0000000 1.0000000000
 1655.0000000 37.459999084 26.090000153 4.0000000000 24.000000000 2479.0000000 1.0000000000
 1655.1250000 36.590000153 26.239999771 4.0000000000 24.000000000 2479.0000000 1.0000000000
 1655.2500000 35.069999695 26.430000305 4.0000000000 24.000000000 2479.0000000 1.0000000000
 1655.3750000 32.330001831 26.649999619 4.0000000000 24.000000000 2479.0000000 1.0000000000
 1655.5000000 27.600000381 26.889999390 4.0000000000 24.000000000 2479.0000000 1.0000000000
 1655.6250000 21.120000839 27.139999390 4.0000000000 24.000000000 2479.0000000 1.0000000000
 1655.7500000 17.450000763 27.399999619 4.0000000000 24.000000000 2479.0000000 1.0000000000
 1655.8750000 16.149999619 27.649999619  -999.250000 0.1000000015 0.1000000015 0.0000000000
 1656.0000000 16.819999695 27.879999161  -999.250000 0.1000000015 0.1000000015 0.0000000000
 1656.1250000 19.370000839 28.079999924  -999.250000 0.1000000015 0.1000000015 0.0000000000
 1656.2500000 23.530000687 28.219999313  -999.250000 0.1000000015 0.1000000015 0.0000000000
 1656.3750000 25.299999237 28.299999237 4.0000000000 21.000000000 1259.0000000 1.0000000000
 1656.5000000 24.959999084 28.329999924 4.0000000000 21.000000000 1259.0000000 1.0000000000
 1656.6250000 23.969999313 28.329999924 4.0000000000 21.000000000 1259.0000000 1.0000000000
 1656.7500000 23.409999847 28.290000916 4.0000000000 21.000000000 1259.0000000 1.0000000000
 1656.8750000 23.329999924 28.229999542 4.0000000000 21.000000000 1259.0000000 1.0000000000
 1657.0000000 23.270000458 28.159999847 4.0000000000 21.000000000 1259.0000000 1.0000000000
 1657.1250000 22.909999847 28.110000610 4.0000000000 21.000000000 1259.0000000 1.0000000000
 1657.2500000 22.750000000 28.090000153 4.0000000000 21.000000000 1259.0000000 1.0000000000
 1657.3750000 23.350000381 28.110000610 4.0000000000 21.000000000 1259.0000000 1.0000000000
 1657.5000000 24.620000839 28.149999619 4.0000000000 21.000000000 1259.0000000 1.0000000000
 1657.6250000 25.709999084 28.229999542 4.0000000000 21.000000000 1259.0000000 1.0000000000
 1657.7500000 24.889999390 28.340000153 4.0000000000 21.000000000 1259.0000000 1.0000000000
 1657.8750000 21.659999847 28.489999771 4.0000000000 21.000000000 1259.0000000 1.0000000000
 1658.0000000 18.530000687 28.670000076  -999.250000 0.1000000015 0.1000000015 0.0000000000
 1658.1250000 17.940000534 28.870000839  -999.250000 0.1000000015 0.1000000015 0.0000000000
 1658.2500000 21.049999237 29.090000153  -999.250000 0.1000000015 0.1000000015 0.0000000000
