# LAS format log file from PETREL
# Project units are specified as depth units
#==================================================================
~Version information
VERS.   2.0:
WRAP.   NO:
#==================================================================
~Well
STRT .m      1580.8750000 :
STOP .m      1709.7500000 :
STEP .m     0.12500000 :
NULL .        -999.250000 :
COMP.           : COMPANY
WELL.  51-166   : WELL
FLD.            : FIELD
LOC.            : LOCATION
SRVC.           : SERVICE COMPANY
DATE.  2020-03-08 09:25:10   : Log Export Date {yyyy-MM-dd HH:mm:ss}
PROV.           : PROVINCE
UWI.      : UNIQUE WELL ID
API.            : API NUMBER
#==================================================================
~Curve
DEPT .m                   : DEPTH
Fluids .                  : Fluids
POR .m3/m3                : POR
PERM .mD                  : PERM
Lith .                    : Lith
~Parameter
#==================================================================
~Ascii
# ...
 1657.1250000 2.0000000000 15.000000000 130.00000000 1.0000000000
 1657.2500000 2.0000000000 15.000000000 130.00000000 1.0000000000
 1657.3750000 2.0000000000 15.000000000 130.00000000 1.0000000000
 1657.5000000 2.0000000000 15.000000000 130.00000000 1.0000000000
 1657.6250000 2.0000000000 15.000000000 130.00000000 1.0000000000
 1657.7500000 2.0000000000 15.000000000 130.00000000 1.0000000000
 1657.8750000 2.0000000000 15.000000000 130.00000000 1.0000000000
 1658.0000000 2.0000000000 15.000000000 130.00000000 1.0000000000
 1658.1250000 2.0000000000 15.000000000 130.00000000 1.0000000000
 1658.2500000 2.0000000000 15.000000000 130.00000000 1.0000000000
 1658.3750000 2.0000000000 15.000000000 130.00000000 1.0000000000
 1658.5000000 2.0000000000 15.000000000 130.00000000 1.0000000000
 1658.6250000 2.0000000000 15.000000000 130.00000000 1.0000000000
 1658.7500000 2.0000000000 15.000000000 130.00000000 1.0000000000
 1658.8750000 2.0000000000 15.000000000 130.00000000 1.0000000000
 1659.0000000 2.0000000000 15.000000000 130.00000000 1.0000000000
 1659.1250000 2.0000000000 15.000000000 130.00000000 1.0000000000
 1659.2500000 2.0000000000 15.000000000 130.00000000 1.0000000000
 1659.3750000 2.0000000000 15.000000000 130.00000000 1.0000000000
 1659.5000000 2.0000000000 15.000000000 130.00000000 1.0000000000
 1659.6250000 2.0000000000 15.000000000 130.00000000 1.0000000000
 1659.7500000 2.0000000000 15.000000000 130.00000000 1.0000000000
 1659.8750000 2.0000000000 15.000000000 130.00000000 1.0000000000
 1660.0000000 2.0000000000 15.000000000 130.00000000 1.0000000000
 1660.1250000 2.0000000000 15.000000000 130.00000000 1.0000000000
 1660.2500000 2.0000000000 15.000000000 130.00000000 1.0000000000
 1660.3750000 2.0000000000 15.000000000 130.00000000 1.0000000000
 1660.5000000 2.0000000000 15.000000000 130.00000000 1.0000000000
 1660.6250000 2.0000000000 15.000000000 130.00000000 1.0000000000
 1660.7500000 2.0000000000 15.000000000 130.00000000 1.0000000000
 1660.8750000 2.0000000000 15.000000000 130.00000000 1.0000000000
 1661.0000000 2.0000000000 15.000000000 130.00000000 1.0000000000
 1661.1250000 2.0000000000 15.000000000 130.00000000 1.0000000000
 1661.2500000 2.0000000000 15.000000000 130.00000000 1.0000000000
 1661.3750000 2.0000000000 15.000000000 130.00000000 1.0000000000
 1661.5000000 2.0000000000 15.000000000 130.00000000 1.0000000000
 1661.6250000 2.0000000000 15.000000000 130.00000000 1.0000000000
 1661.7500000 2.0000000000 15.000000000 130.00000000 1.0000000000
 1661.8750000 2.0000000000 15.000000000 130.00000000 1.0000000000
 1662.0000000 2.0000000000 15.000000000 130.00000000 1.0000000000
 1662.1250000 2.0000000000 15.000000000 130.00000000 1.0000000000
 1662.2500000 2.0000000000 15.000000000 130.00000000 1.0000000000
 1662.3750000 2.0000000000 15.000000000 130.00000000 1.0000000000
 1662.5000000 2.0000000000 15.000000000 130.00000000 1.0000000000
 1662.6250000 2.0000000000 15.000000000 130.00000000 1.0000000000
 1662.7500000 2.0000000000 15.000000000 130.00000000 1.0000000000
 1662.8750000 2.0000000000 15.000000000 130.00000000 1.0000000000
 1663.0000000 2.0000000000 15.000000000 130.00000000 1.0000000000
 1663.1250000 2.0000000000 15.000000000 130.00000000 1.0000000000
 1663.2500000 2.0000000000 15.000000000 130.00000000 1.0000000000
 1663.3750000 2.0000000000 15.000000000 130.00000000 1.0000000000
 1663.5000000 2.0000000000 15.000000000 130.00000000 1.0000000000
 1663.6250000 2.0000000000 15.000000000 130.00000000 1.0000000000
 1663.7500000 2.0000000000 15.000000000 130.00000000 1.0000000000
 1663.8750000 2.0000000000 15.000000000 130.00000000 1.0000000000
 1664.0000000 2.0000000000 15.000000000 130.00000000 1.0000000000
 1664.1250000 2.0000000000 15.000000000 130.00000000 1.0000000000
 1664.2500000 2.0000000000 15.000000000 130.00000000 1.0000000000
 1664.3750000 2.0000000000 15.000000000 130.00000000 1.0000000000
 1664.5000000 2.0000000000 15.000000000 130.00000000 1.0000000000
 1664.6250000 2.0000000000 15.000000000 130.00000000 1.0000000000
 1664.7500000 2.0000000000 15.000000000 130.00000000 1.0000000000
 1664.8750000 2.0000000000 15.000000000 130.00000000 1.0000000000
 1665.0000000 2.0000000000 15.000000000 130.00000000 1.0000000000
 1665.1250000 2.0000000000 15.000000000 130.00000000 1.0000000000
 1665.2500000 2.0000000000 15.000000000 130.00000000 1.0000000000
 1665.3750000 2.0000000000 15.000000000 130.00000000 1.0000000000
 1665.5000000 2.0000000000 15.000000000 130.00000000 1.0000000000
 1665.6250000 2.0000000000 15.000000000 130.00000000 1.0000000000
 1665.7500000 2.0000000000 15.000000000 130.00000000 1.0000000000
 1665.8750000 2.0000000000 15.000000000 130.00000000 1.0000000000
 1666.0000000 2.0000000000 15.000000000 130.00000000 1.0000000000
 1666.1250000 2.0000000000 15.000000000 130.00000000 1.0000000000
 1666.2500000 2.0000000000 15.000000000 130.00000000 1.0000000000
 1666.3750000 2.0000000000 15.000000000 130.00000000 1.0000000000
 1666.5000000 2.0000000000 15.000000000 130.00000000 1.0000000000
 1666.6250000 2.0000000000 15.000000000 130.00000000 1.0000000000
 1666.7500000 2.0000000000 15.000000000 130.00000000 1.0000000000
 1666.8750000 2.0000000000 15.000000000 130.00000000 1.0000000000
 1667.0000000 2.0000000000 15.000000000 130.00000000 1.0000000000
 1667.1250000 2.0000000000 15.000000000 130.00000000 1.0000000000
 1667.2500000 2.0000000000 15.000000000 130.00000000 1.0000000000
 1667.3750000 2.0000000000 15.000000000 130.00000000 1.0000000000
 1667.5000000 2.0000000000 15.000000000 130.00000000 1.0000000000
 1667.6250000 2.0000000000 15.000000000 130.00000000 1.0000000000
 1667.7500000 2.0000000000 15.000000000 130.00000000 1.0000000000
 1667.8750000 2.0000000000 15.000000000 130.00000000 1.0000000000
 1668.0000000 2.0000000000 15.000000000 130.00000000 1.0000000000
 1668.1250000 2.0000000000 15.000000000 130.00000000 1.0000000000
 1668.2500000 2.0000000000 15.000000000 130.00000000 1.0000000000
 1668.3750000 2.0000000000 15.000000000 130.00000000 1.0000000000
 1668.5000000 2.0000000000 15.000000000 130.00000000 1.0000000000
 1668.6250000 2.0000000000 15.000000000 130.00000000 1.0000000000
 1668.7500000 2.0000000000 15.000000000 130.00000000 1.0000000000
 1668.8750000 2.0000000000 15.000000000 130.00000000 1.0000000000
 1669.0000000 2.0000000000 15.000000000 130.00000000 1.0000000000
 1669.1250000 2.0000000000 15.000000000 130.00000000 1.0000000000
 1669.2500000 2.0000000000 15.000000000 130.00000000 1.0000000000
 1669.3750000 2.0000000000 15.000000000 130.00000000 1.0000000000
 1669.5000000 2.0000000000 15.000000000 130.00000000 1.0000000000
 1669.6250000 2.0000000000 15.000000000 130.00000000 1.0000000000
 1669.7500000 2.0000000000 15.000000000 130.00000000 1.0000000000
 1669.8750000 2.0000000000 15.000000000 130.00000000 1.0000000000
 1670.0000000 2.0000000000 15.000000000 130.00000000 1.0000000000
 1670.1250000 2.0000000000 15.000000000 130.00000000 1.0000000000
 1670.2500000 2.0000000000 15.000000000 130.00000000 1.0000000000
 1670.3750000 2.0000000000 15.000000000 130.00000000 1.0000000000
 1670.5000000 2.0000000000 15.000000000 130.00000000 1.0000000000
 1670.6250000 2.0000000000 15.000000000 130.00000000 1.0000000000
 1670.7500000 2.0000000000 15.000000000 130.00000000 1.0000000000
 1670.8750000 2.0000000000 15.000000000 130.00000000 1.0000000000
 1671.0000000 2.0000000000 15.000000000 130.00000000 1.0000000000
 1671.1250000 2.0000000000 15.000000000 130.00000000 1.0000000000
 1671.2500000 2.0000000000 15.000000000 130.00000000 1.0000000000
 1671.3750000 2.0000000000 15.000000000 130.00000000 1.0000000000
 1671.5000000 2.0000000000 15.000000000 130.00000000 1.0000000000
 1671.6250000 2.0000000000 15.000000000 130.00000000 1.0000000000
 1671.7500000 2.0000000000 15.000000000 130.00000000 1.0000000000
 1671.8750000 2.0000000000 15.000000000 130.00000000 1.0000000000
 1672.0000000 2.0000000000 15.000000000 130.00000000 1.0000000000
 1672.1250000 2.0000000000 15.000000000 130.00000000 1.0000000000
 1672.2500000 2.0000000000 15.000000000 130.00000000 1.0000000000
