# LAS format log file from PETREL
# Project units are specified as depth units
#==================================================================
~Version information
VERS.   2.0:
WRAP.   NO:
#==================================================================
~Well
STRT .m      212.00000000 :
STOP .m      1748.0000000 :
STEP .m     0.12500000 :
NULL .        -999.250000 :
COMP.           : COMPANY
WELL.  51-164   : WELL
FLD.            : FIELD
LOC.            : LOCATION
SRVC.           : SERVICE COMPANY
DATE.  2020-03-08 09:25:10   : Log Export Date {yyyy-MM-dd HH:mm:ss}
PROV.           : PROVINCE
UWI.      : UNIQUE WELL ID
API.            : API NUMBER
#==================================================================
~Curve
DEPT .m                   : DEPTH
RT .ohm.m                 : RT
SP .                      : SP
Fluids .                  : Fluids
POR .m3/m3                : POR
PERM .mD                  : PERM
Lith .                    : Lith
~Parameter
#==================================================================
~Ascii
# ...
 1604.0000000 11.689999580 32.610000610 3.0000000000 10.000000000 43.000000000 1.0000000000
 1604.1250000 14.630000114 32.580001831 3.0000000000 10.000000000 43.000000000 1.0000000000
 1604.2500000 15.689999580 32.520000458 3.0000000000 10.000000000 43.000000000 1.0000000000
 1604.3750000 14.069999695 32.430000305 3.0000000000 10.000000000 43.000000000 1.0000000000
 1604.5000000 11.520000458 32.310001373 3.0000000000 10.000000000 43.000000000 1.0000000000
 1604.6250000 9.5200004578 32.189998627 3.0000000000 10.000000000 43.000000000 1.0000000000
 1604.7500000 8.8199996948 32.090000153 3.0000000000 10.000000000 43.000000000 1.0000000000
 1604.8750000 10.100000381 32.029998779 3.0000000000 10.000000000 43.000000000 1.0000000000
 1605.0000000 13.109999657 32.000000000 3.0000000000 10.000000000 43.000000000 1.0000000000
 1605.1250000 16.569999695 31.989999771 3.0000000000 10.000000000 43.000000000 1.0000000000
 1605.2500000 18.290000916 32.000000000 3.0000000000 10.000000000 43.000000000 1.0000000000
 1605.3750000 17.629999161 32.040000916 3.0000000000 10.000000000 43.000000000 1.0000000000
 1605.5000000 15.420000076 32.090000153 3.0000000000 10.000000000 43.000000000 1.0000000000
 1605.6250000 12.840000153 32.169998169 3.0000000000 10.000000000 43.000000000 1.0000000000
 1605.7500000 11.050000191 32.279998779 3.0000000000 10.000000000 43.000000000 1.0000000000
 1605.8750000 10.369999886 32.419998169 3.0000000000 10.000000000 43.000000000 1.0000000000
 1606.0000000 10.060000420 32.610000610 3.0000000000 10.000000000 43.000000000 1.0000000000
 1606.1250000 9.3299999237 32.869998932 3.0000000000 10.000000000 43.000000000 1.0000000000
 1606.2500000 8.0900001526 33.189998627 3.0000000000 10.000000000 43.000000000 1.0000000000
 1606.3750000 6.9499998093 33.560001373  -999.250000 0.1000000015 0.1000000015 0.0000000000
 1606.5000000 6.3600001335 33.970001221  -999.250000 0.1000000015 0.1000000015 0.0000000000
 1606.6250000 6.2300000191 34.380001068  -999.250000 0.1000000015 0.1000000015 0.0000000000
 1606.7500000 6.5199999809 34.759998322  -999.250000 0.1000000015 0.1000000015 0.0000000000
 1606.8750000 6.8899998665 35.110000610  -999.250000 0.1000000015 0.1000000015 0.0000000000
 1607.0000000 6.9499998093 35.400001526  -999.250000 0.1000000015 0.1000000015 0.0000000000
 1607.1250000 6.3800001144 35.630001068  -999.250000 0.1000000015 0.1000000015 0.0000000000
 1607.2500000 5.7399997711 35.779998779  -999.250000 0.1000000015 0.1000000015 0.0000000000
 1607.3750000 5.5799999237 35.860000610  -999.250000 0.1000000015 0.1000000015 0.0000000000
 1607.5000000 5.9499998093 35.889999390  -999.250000 0.1000000015 0.1000000015 0.0000000000
 1607.6250000 6.7699999809 35.860000610  -999.250000 0.1000000015 0.1000000015 0.0000000000
 1607.7500000 7.8899998665 35.779998779  -999.250000 0.1000000015 0.1000000015 0.0000000000
 1607.8750000 8.5399999619 35.650001526 3.0000000000 9.0000000000 15.000000000 1.0000000000
 1608.0000000 8.9499998093 35.520000458 3.0000000000 9.0000000000 15.000000000 1.0000000000
 1608.1250000 9.9099998474 35.400001526 3.0000000000 9.0000000000 15.000000000 1.0000000000
 1608.2500000 11.109999657 35.299999237 3.0000000000 9.0000000000 15.000000000 1.0000000000
 1608.3750000 11.970000267 35.200000763 3.0000000000 9.0000000000 15.000000000 1.0000000000
 1608.5000000 12.550000191 35.119998932 3.0000000000 9.0000000000 15.000000000 1.0000000000
 1608.6250000 12.460000038 35.099998474 3.0000000000 9.0000000000 15.000000000 1.0000000000
 1608.7500000 11.279999733 35.119998932 3.0000000000 9.0000000000 15.000000000 1.0000000000
 1608.8750000 9.4799995422 35.209999084 3.0000000000 9.0000000000 15.000000000 1.0000000000
 1609.0000000 8.6599998474 35.360000610 3.0000000000 9.0000000000 15.000000000 1.0000000000
 1609.1250000 9.0699996948 35.580001831 3.0000000000 9.0000000000 15.000000000 1.0000000000
 1609.2500000 9.4099998474 35.860000610 3.0000000000 9.0000000000 15.000000000 1.0000000000
 1609.3750000 8.8999996185 36.200000763 3.0000000000 9.0000000000 15.000000000 1.0000000000
 1609.5000000 7.8800001144 36.549999237 3.0000000000 9.0000000000 15.000000000 1.0000000000
 1609.6250000 6.5599999428 36.930000305 3.0000000000 9.0000000000 15.000000000 1.0000000000
 1609.7500000 5.1300001144 37.340000153 3.0000000000 9.0000000000 15.000000000 1.0000000000
 1609.8750000 4.0900001526 37.779998779  -999.250000 0.1000000015 0.1000000015 0.0000000000
 1610.0000000 3.5899999142 38.220001221  -999.250000 0.1000000015 0.1000000015 0.0000000000
 1610.1250000 3.5199999809 38.639999390  -999.250000 0.1000000015 0.1000000015 0.0000000000
 1610.2500000 3.6300001144 39.040000916  -999.250000 0.1000000015 0.1000000015 0.0000000000
 1610.3750000 3.7400000095 39.430000305  -999.250000 0.1000000015 0.1000000015 0.0000000000
 1610.5000000 3.8199999332 39.790000916  -999.250000 0.1000000015 0.1000000015 0.0000000000
 1610.6250000 3.8499999046 40.110000610  -999.250000 0.1000000015 0.1000000015 0.0000000000
 1610.7500000 3.7200000286 40.369998932  -999.250000 0.1000000015 0.1000000015 0.0000000000
 1610.8750000 3.5499999523 40.580001831  -999.250000 0.1000000015 0.1000000015 0.0000000000
 1611.0000000 3.4400000572 40.729999542  -999.250000 0.1000000015 0.1000000015 0.0000000000
 1611.1250000 3.4900000095 40.830001831  -999.250000 0.1000000015 0.1000000015 0.0000000000
 1611.2500000 3.7100000381 40.900001526  -999.250000 0.1000000015 0.1000000015 0.0000000000
 1611.3750000 4.1199998856 40.959999084  -999.250000 0.1000000015 0.1000000015 0.0000000000
 1611.5000000 4.4000000954 40.990001678  -999.250000 0.1000000015 0.1000000015 0.0000000000
 1611.6250000 4.4299998283 41.020000458  -999.250000 0.1000000015 0.1000000015 0.0000000000
 1611.7500000 4.2500000000 41.020000458  -999.250000 0.1000000015 0.1000000015 0.0000000000
 1611.8750000 3.9500000477 41.020000458  -999.250000 0.1000000015 0.1000000015 0.0000000000
 1612.0000000 3.6300001144 41.020000458  -999.250000 0.1000000015 0.1000000015 0.0000000000
 1612.1250000 3.5299999714 41.020000458  -999.250000 0.1000000015 0.1000000015 0.0000000000
 1612.2500000 3.5999999046 41.020000458  -999.250000 0.1000000015 0.1000000015 0.0000000000
 1612.3750000 3.6099998951 41.009998322  -999.250000 0.1000000015 0.1000000015 0.0000000000
 1612.5000000 3.5199999809 41.000000000  -999.250000 0.1000000015 0.1000000015 0.0000000000
 1612.6250000 3.4300000668 41.000000000  -999.250000 0.1000000015 0.1000000015 0.0000000000
 1612.7500000 3.2899999619 41.020000458  -999.250000 0.1000000015 0.1000000015 0.0000000000
 1612.8750000 3.1400001049 41.049999237  -999.250000 0.1000000015 0.1000000015 0.0000000000
 1613.0000000 3.0199999809 41.080001831  -999.250000 0.1000000015 0.1000000015 0.0000000000
 1613.1250000 2.9800000191 41.119998932  -999.250000 0.1000000015 0.1000000015 0.0000000000
 1613.2500000 3.0899999142 41.150001526  -999.250000 0.1000000015 0.1000000015 0.0000000000
 1613.3750000 3.2699999809 41.180000305  -999.250000 0.1000000015 0.1000000015 0.0000000000
 1613.5000000 3.4300000668 41.229999542  -999.250000 0.1000000015 0.1000000015 0.0000000000
 1613.6250000 3.6500000954 41.259998322  -999.250000 0.1000000015 0.1000000015 0.0000000000
 1613.7500000 3.9200000763 41.279998779  -999.250000 0.1000000015 0.1000000015 0.0000000000
 1613.8750000 4.1900000572 41.270000458  -999.250000 0.1000000015 0.1000000015 0.0000000000
 1614.0000000 4.3899998665 41.259998322  -999.250000 0.1000000015 0.1000000015 0.0000000000
 1614.1250000 4.4499998093 41.229999542  -999.250000 0.1000000015 0.1000000015 0.0000000000
 1614.2500000 4.2699999809 41.200000763  -999.250000 0.1000000015 0.1000000015 0.0000000000
 1614.3750000 3.9000000954 41.159999847  -999.250000 0.1000000015 0.1000000015 0.0000000000
 1614.5000000 3.5199999809 41.119998932  -999.250000 0.1000000015 0.1000000015 0.0000000000
 1614.6250000 3.2699999809 41.090000153  -999.250000 0.1000000015 0.1000000015 0.0000000000
 1614.7500000 3.2799999714 41.080001831  -999.250000 0.1000000015 0.1000000015 0.0000000000
