# LAS format log file from PETREL
# Project units are specified as depth units
#==================================================================
~Version information
VERS.   2.0:
WRAP.   NO:
#==================================================================
~Well
STRT .m      212.00000000 :
STOP .m      1748.0000000 :
STEP .m     0.12500000 :
NULL .        -999.250000 :
COMP.           : COMPANY
WELL.  51-164   : WELL
FLD.            : FIELD
LOC.            : LOCATION
SRVC.           : SERVICE COMPANY
DATE.  2020-03-08 09:25:10   : Log Export Date {yyyy-MM-dd HH:mm:ss}
PROV.           : PROVINCE
UWI.      : UNIQUE WELL ID
API.            : API NUMBER
#==================================================================
~Curve
DEPT .m                   : DEPTH
RT .ohm.m                 : RT
SP .                      : SP
Fluids .                  : Fluids
POR .m3/m3                : POR
PERM .mD                  : PERM
Lith .                    : Lith
~Parameter
#==================================================================
~Ascii
# ...
 1625.7500000 13.590000153 31.579999924 4.0000000000 15.000000000 806.00000000 1.0000000000
 1625.8750000 10.439999580 31.530000687 4.0000000000 15.000000000 806.00000000 1.0000000000
 1626.0000000 9.1000003815 31.479999542  -999.250000 0.1000000015 0.1000000015 0.0000000000
 1626.1250000 8.8599996567 31.440000534  -999.250000 0.1000000015 0.1000000015 0.0000000000
 1626.2500000 9.4200000763 31.379999161  -999.250000 0.1000000015 0.1000000015 0.0000000000
 1626.3750000 10.699999809 31.270000458  -999.250000 0.1000000015 0.1000000015 0.0000000000
 1626.5000000 12.420000076 31.090000153  -999.250000 0.1000000015 0.1000000015 0.0000000000
 1626.6250000 15.069999695 30.840000153  -999.250000 0.1000000015 0.1000000015 0.0000000000
 1626.7500000 21.020000458 30.510000229  -999.250000 0.1000000015 0.1000000015 0.0000000000
 1626.8750000 30.270000458 30.090000153 4.0000000000 22.000000000 1787.0000000 1.0000000000
 1627.0000000 39.020000458 29.600000381 4.0000000000 22.000000000 1787.0000000 1.0000000000
 1627.1250000 42.750000000 29.049999237 4.0000000000 22.000000000 1787.0000000 1.0000000000
 1627.2500000 41.919998169 28.469999313 4.0000000000 22.000000000 1787.0000000 1.0000000000
 1627.3750000 39.720001221 27.909999847 4.0000000000 22.000000000 1787.0000000 1.0000000000
 1627.5000000 37.080001831 27.370000839 4.0000000000 22.000000000 1787.0000000 1.0000000000
 1627.6250000 33.759998322 26.870000839 4.0000000000 22.000000000 1787.0000000 1.0000000000
 1627.7500000 30.790000916 26.409999847 4.0000000000 22.000000000 1787.0000000 1.0000000000
 1627.8750000 28.629999161 26.010000229 4.0000000000 22.000000000 1787.0000000 1.0000000000
 1628.0000000 27.059999466 25.670000076 4.0000000000 22.000000000 1787.0000000 1.0000000000
 1628.1250000 26.809999466 25.399999619 4.0000000000 22.000000000 1787.0000000 1.0000000000
 1628.2500000 28.659999847 25.149999619 4.0000000000 22.000000000 1787.0000000 1.0000000000
 1628.3750000 32.119998932 24.920000076 4.0000000000 22.000000000 1787.0000000 1.0000000000
 1628.5000000 36.900001526 24.719999313 4.0000000000 22.000000000 1787.0000000 1.0000000000
 1628.6250000 42.759998322 24.559999466 4.0000000000 22.000000000 1787.0000000 1.0000000000
 1628.7500000 47.259998322 24.430000305 4.0000000000 22.000000000 1787.0000000 1.0000000000
 1628.8750000 49.270000458 24.340000153 4.0000000000 22.000000000 1787.0000000 1.0000000000
 1629.0000000 49.639999390 24.299999237 4.0000000000 22.000000000 1787.0000000 1.0000000000
 1629.1250000 49.400001526 24.309999466 4.0000000000 22.000000000 1787.0000000 1.0000000000
 1629.2500000 48.619998932 24.399999619 4.0000000000 22.000000000 1787.0000000 1.0000000000
 1629.3750000 46.349998474 24.569999695 4.0000000000 22.000000000 1787.0000000 1.0000000000
 1629.5000000 41.759998322 24.799999237 4.0000000000 22.000000000 1787.0000000 1.0000000000
 1629.6250000 37.400001526 25.069999695 4.0000000000 22.000000000 1787.0000000 1.0000000000
 1629.7500000 34.380001068 25.379999161 4.0000000000 22.000000000 1787.0000000 1.0000000000
 1629.8750000 32.310001373 25.719999313 4.0000000000 22.000000000 1787.0000000 1.0000000000
 1630.0000000 30.770000458 26.059999466 4.0000000000 22.000000000 1787.0000000 1.0000000000
 1630.1250000 29.309999466 26.389999390 4.0000000000 22.000000000 1787.0000000 1.0000000000
 1630.2500000 25.700000763 26.690000534 4.0000000000 22.000000000 1787.0000000 1.0000000000
 1630.3750000 21.190000534 26.940000534 4.0000000000 22.000000000 1787.0000000 1.0000000000
 1630.5000000 18.379999161 27.129999161  -999.250000 0.1000000015 0.1000000015 0.0000000000
 1630.6250000 17.969999313 27.280000687  -999.250000 0.1000000015 0.1000000015 0.0000000000
 1630.7500000 20.010000229 27.389999390  -999.250000 0.1000000015 0.1000000015 0.0000000000
 1630.8750000 24.590000153 27.440000534 4.0000000000 21.000000000 1522.0000000 1.0000000000
 1631.0000000 30.729999542 27.440000534 4.0000000000 21.000000000 1522.0000000 1.0000000000
 1631.1250000 33.950000763 27.360000610 4.0000000000 21.000000000 1522.0000000 1.0000000000
 1631.2500000 33.659999847 27.250000000 4.0000000000 21.000000000 1522.0000000 1.0000000000
 1631.3750000 32.950000763 27.100000381 4.0000000000 21.000000000 1522.0000000 1.0000000000
 1631.5000000 32.740001678 26.940000534 4.0000000000 21.000000000 1522.0000000 1.0000000000
 1631.6250000 33.779998779 26.760000229 4.0000000000 21.000000000 1522.0000000 1.0000000000
 1631.7500000 36.080001831 26.579999924 4.0000000000 21.000000000 1522.0000000 1.0000000000
 1631.8750000 36.759998322 26.409999847 4.0000000000 21.000000000 1522.0000000 1.0000000000
 1632.0000000 33.979999542 26.260000229 4.0000000000 21.000000000 1522.0000000 1.0000000000
 1632.1250000 30.870000839 26.139999390 4.0000000000 21.000000000 1522.0000000 1.0000000000
 1632.2500000 29.500000000 26.030000687 4.0000000000 21.000000000 1522.0000000 1.0000000000
 1632.3750000 29.239999771 25.920000076 4.0000000000 21.000000000 1522.0000000 1.0000000000
 1632.5000000 29.870000839 25.819999695 4.0000000000 21.000000000 1522.0000000 1.0000000000
 1632.6250000 32.590000153 25.719999313 4.0000000000 21.000000000 1522.0000000 1.0000000000
 1632.7500000 34.919998169 25.620000839 4.0000000000 21.000000000 1522.0000000 1.0000000000
 1632.8750000 34.869998932 25.510000229 4.0000000000 21.000000000 1522.0000000 1.0000000000
 1633.0000000 33.060001373 25.389999390 4.0000000000 21.000000000 1522.0000000 1.0000000000
 1633.1250000 30.850000381 25.280000687 4.0000000000 21.000000000 1522.0000000 1.0000000000
 1633.2500000 29.139999390 25.170000076 4.0000000000 21.000000000 1522.0000000 1.0000000000
 1633.3750000 28.569999695 25.079999924 4.0000000000 21.000000000 1522.0000000 1.0000000000
 1633.5000000 29.489999771 25.010000229 4.0000000000 21.000000000 1522.0000000 1.0000000000
 1633.6250000 32.150001526 24.959999084 4.0000000000 21.000000000 1522.0000000 1.0000000000
 1633.7500000 37.180000305 24.920000076 4.0000000000 21.000000000 1522.0000000 1.0000000000
 1633.8750000 43.270000458 24.909999847 4.0000000000 21.000000000 1522.0000000 1.0000000000
 1634.0000000 49.590000153 24.930000305 4.0000000000 21.000000000 1522.0000000 1.0000000000
 1634.1250000 55.630001068 24.989999771 4.0000000000 21.000000000 1522.0000000 1.0000000000
 1634.2500000 55.930000305 25.069999695 4.0000000000 21.000000000 1522.0000000 1.0000000000
 1634.3750000 48.540000916 25.170000076 4.0000000000 21.000000000 1522.0000000 1.0000000000
 1634.5000000 39.209999084 25.270000458 4.0000000000 21.000000000 1522.0000000 1.0000000000
 1634.6250000 32.819999695 25.370000839 4.0000000000 21.000000000 1522.0000000 1.0000000000
 1634.7500000 29.479999542 25.459999084 4.0000000000 21.000000000 1522.0000000 1.0000000000
 1634.8750000 28.239999771 25.540000916 4.0000000000 21.000000000 1522.0000000 1.0000000000
 1635.0000000 28.120000839 25.579999924 4.0000000000 21.000000000 1522.0000000 1.0000000000
 1635.1250000 27.250000000 25.569999695 4.0000000000 21.000000000 1522.0000000 1.0000000000
 1635.2500000 24.649999619 25.510000229 4.0000000000 21.000000000 1522.0000000 1.0000000000
 1635.3750000 22.590000153 25.420000076 4.0000000000 21.000000000 1522.0000000 1.0000000000
 1635.5000000 22.569999695 25.309999466 4.0000000000 21.000000000 1522.0000000 1.0000000000
 1635.6250000 25.209999084 25.170000076 4.0000000000 21.000000000 1522.0000000 1.0000000000
 1635.7500000 31.010000229 25.010000229 4.0000000000 21.000000000 1522.0000000 1.0000000000
 1635.8750000 38.819999695 24.829999924 4.0000000000 21.000000000 1522.0000000 1.0000000000
 1636.0000000 46.290000916 24.659999847 4.0000000000 21.000000000 1522.0000000 1.0000000000
 1636.1250000 50.229999542 24.500000000 4.0000000000 21.000000000 1522.0000000 1.0000000000
 1636.2500000 48.939998627 24.360000610 4.0000000000 21.000000000 1522.0000000 1.0000000000
 1636.3750000 45.029998779 24.219999313 4.0000000000 21.000000000 1522.0000000 1.0000000000
 1636.5000000 41.189998627 24.090000153 4.0000000000 21.000000000 1522.0000000 1.0000000000
