# LAS format log file from PETREL
# Project units are specified as depth units
#==================================================================
~Version information
VERS.   2.0:
WRAP.   NO:
#==================================================================
~Well
STRT .m      730.00000000 :
STOP .m      1740.0000000 :
STEP .m     0.12500000 :
NULL .        -999.250000 :
COMP.           : COMPANY
WELL.  51-165   : WELL
FLD.            : FIELD
LOC.            : LOCATION
SRVC.           : SERVICE COMPANY
DATE.  2020-03-08 09:25:10   : Log Export Date {yyyy-MM-dd HH:mm:ss}
PROV.           : PROVINCE
UWI.      : UNIQUE WELL ID
API.            : API NUMBER
#==================================================================
~Curve
DEPT .m                   : DEPTH
RT .ohm.m                 : RT
SP .                      : SP
Fluids .                  : Fluids
POR .m3/m3                : POR
PERM .mD                  : PERM
Lith .                    : Lith
~Parameter
#==================================================================
~Ascii
# ...
 1610.8750000 9.4359998703 -9999.000000  -999.250000 0.1000000015 0.1000000015 0.0000000000
 1611.0000000 9.5469999313 -9999.000000  -999.250000 0.1000000015 0.1000000015 0.0000000000
 1611.1250000 11.042200089 -9999.000000  -999.250000 0.1000000015 0.1000000015 0.0000000000
 1611.2500000 12.537500381 -9999.000000  -999.250000 0.1000000015 0.1000000015 0.0000000000
 1611.3750000 14.032699585 -9999.000000 4.0000000000 17.000000000 296.00000000 1.0000000000
 1611.5000000 15.527999878 -9999.000000 4.0000000000 17.000000000 296.00000000 1.0000000000
 1611.6250000 14.741999626 -9999.000000 4.0000000000 17.000000000 296.00000000 1.0000000000
 1611.7500000 13.956000328 -9999.000000 4.0000000000 17.000000000 296.00000000 1.0000000000
 1611.8750000 13.170000076 -9999.000000 4.0000000000 17.000000000 296.00000000 1.0000000000
 1612.0000000 12.383999825 -9999.000000 4.0000000000 17.000000000 296.00000000 1.0000000000
 1612.1250000 12.660699844 -9999.000000 4.0000000000 17.000000000 296.00000000 1.0000000000
 1612.2500000 12.937500000 -9999.000000 4.0000000000 17.000000000 296.00000000 1.0000000000
 1612.3750000 13.214300156 -9999.000000 4.0000000000 17.000000000 296.00000000 1.0000000000
 1612.5000000 13.491000175 -9999.000000 4.0000000000 17.000000000 296.00000000 1.0000000000
 1612.6250000 16.752000809 -9999.000000 4.0000000000 17.000000000 296.00000000 1.0000000000
 1612.7500000 20.013000488 -9999.000000 4.0000000000 17.000000000 296.00000000 1.0000000000
 1612.8750000 23.274000168 -9999.000000 4.0000000000 17.000000000 296.00000000 1.0000000000
 1613.0000000 26.534999847 -9999.000000 4.0000000000 17.000000000 296.00000000 1.0000000000
 1613.1250000 22.041700363 -9999.000000  -999.250000 0.1000000015 0.1000000015 0.0000000000
 1613.2500000 17.548500061 -9999.000000  -999.250000 0.1000000015 0.1000000015 0.0000000000
 1613.3750000 13.055299759 -9999.000000  -999.250000 0.1000000015 0.1000000015 0.0000000000
 1613.5000000 8.5620002747 -9999.000000  -999.250000 0.1000000015 0.1000000015 0.0000000000
 1613.6250000 9.8872995377 -9999.000000 4.0000000000 18.000000000 242.00000000 1.0000000000
 1613.7500000 11.212499619 -9999.000000 4.0000000000 18.000000000 242.00000000 1.0000000000
 1613.8750000 12.537799835 -9999.000000 4.0000000000 18.000000000 242.00000000 1.0000000000
 1614.0000000 13.862999916 -9999.000000 4.0000000000 18.000000000 242.00000000 1.0000000000
 1614.1250000 13.831700325 -9999.000000 4.0000000000 18.000000000 242.00000000 1.0000000000
 1614.2500000 13.800499916 -9999.000000 4.0000000000 18.000000000 242.00000000 1.0000000000
 1614.3750000 13.769200325 -9999.000000 4.0000000000 18.000000000 242.00000000 1.0000000000
 1614.5000000 13.737999916 -9999.000000 4.0000000000 18.000000000 242.00000000 1.0000000000
 1614.6250000 15.026499748 -9999.000000 4.0000000000 18.000000000 242.00000000 1.0000000000
 1614.7500000 16.315000534 -9999.000000 4.0000000000 18.000000000 242.00000000 1.0000000000
 1614.8750000 17.603500366 -9999.000000 4.0000000000 18.000000000 242.00000000 1.0000000000
 1615.0000000 18.892000198 -9999.000000 4.0000000000 18.000000000 242.00000000 1.0000000000
 1615.1250000 18.330699921 -9999.000000 4.0000000000 18.000000000 242.00000000 1.0000000000
 1615.2500000 17.769500732 -9999.000000 4.0000000000 18.000000000 242.00000000 1.0000000000
 1615.3750000 17.208200455 -9999.000000 4.0000000000 18.000000000 242.00000000 1.0000000000
 1615.5000000 16.646999359 -9999.000000 4.0000000000 18.000000000 242.00000000 1.0000000000
 1615.6250000 16.920999527 -9999.000000 4.0000000000 18.000000000 242.00000000 1.0000000000
 1615.7500000 17.194999695 -9999.000000 4.0000000000 18.000000000 242.00000000 1.0000000000
 1615.8750000 17.468999863 -9999.000000 4.0000000000 18.000000000 242.00000000 1.0000000000
 1616.0000000 17.743000031 -9999.000000 4.0000000000 18.000000000 242.00000000 1.0000000000
 1616.1250000 18.979200363 -9999.000000 4.0000000000 18.000000000 242.00000000 1.0000000000
 1616.2500000 20.215499878 -9999.000000 4.0000000000 18.000000000 242.00000000 1.0000000000
 1616.3750000 21.451700211 -9999.000000 4.0000000000 18.000000000 242.00000000 1.0000000000
 1616.5000000 22.687999725 -9999.000000 4.0000000000 18.000000000 242.00000000 1.0000000000
 1616.6250000 23.260999680 -9999.000000 4.0000000000 18.000000000 242.00000000 1.0000000000
 1616.7500000 23.833999634 -9999.000000 4.0000000000 18.000000000 242.00000000 1.0000000000
 1616.8750000 24.406999588 -9999.000000 4.0000000000 18.000000000 242.00000000 1.0000000000
 1617.0000000 24.979999542 -9999.000000 4.0000000000 18.000000000 242.00000000 1.0000000000
 1617.1250000 22.022499084 -9999.000000 4.0000000000 18.000000000 242.00000000 1.0000000000
 1617.2500000 19.065000534 -9999.000000 4.0000000000 18.000000000 242.00000000 1.0000000000
 1617.3750000 16.107500076 -9999.000000 4.0000000000 18.000000000 242.00000000 1.0000000000
 1617.5000000 13.149999619 -9999.000000 4.0000000000 18.000000000 242.00000000 1.0000000000
 1617.6250000 13.825499535 -9999.000000 4.0000000000 18.000000000 242.00000000 1.0000000000
 1617.7500000 14.501000404 -9999.000000 4.0000000000 18.000000000 242.00000000 1.0000000000
 1617.8750000 15.176500320 -9999.000000 4.0000000000 18.000000000 242.00000000 1.0000000000
 1618.0000000 15.852000237 -9999.000000 4.0000000000 18.000000000 242.00000000 1.0000000000
 1618.1250000 16.443000793 -9999.000000 4.0000000000 18.000000000 242.00000000 1.0000000000
 1618.2500000 17.034000397 -9999.000000 4.0000000000 18.000000000 242.00000000 1.0000000000
 1618.3750000 17.625000000 -9999.000000 4.0000000000 18.000000000 242.00000000 1.0000000000
 1618.5000000 18.215999603 -9999.000000 4.0000000000 18.000000000 242.00000000 1.0000000000
 1618.6250000 17.315700531 -9999.000000 4.0000000000 18.000000000 242.00000000 1.0000000000
 1618.7500000 16.415500641 -9999.000000 4.0000000000 18.000000000 242.00000000 1.0000000000
 1618.8750000 15.515199661 -9999.000000 4.0000000000 18.000000000 242.00000000 1.0000000000
 1619.0000000 14.614999771 -9999.000000 4.0000000000 18.000000000 242.00000000 1.0000000000
 1619.1250000 15.513699532 -9999.000000 4.0000000000 18.000000000 242.00000000 1.0000000000
 1619.2500000 16.412500381 -9999.000000 4.0000000000 18.000000000 242.00000000 1.0000000000
 1619.3750000 17.311199188 -9999.000000 4.0000000000 18.000000000 242.00000000 1.0000000000
 1619.5000000 18.209999084 -9999.000000 4.0000000000 18.000000000 242.00000000 1.0000000000
 1619.6250000 17.839700699 -9999.000000 4.0000000000 18.000000000 242.00000000 1.0000000000
 1619.7500000 17.469499588 -9999.000000 4.0000000000 18.000000000 242.00000000 1.0000000000
 1619.8750000 17.099199295 -9999.000000 4.0000000000 18.000000000 242.00000000 1.0000000000
 1620.0000000 16.729000092 -9999.000000 4.0000000000 18.000000000 242.00000000 1.0000000000
 1620.1250000 18.371299744 -9999.000000 4.0000000000 18.000000000 242.00000000 1.0000000000
 1620.2500000 20.013500214 -9999.000000 4.0000000000 18.000000000 242.00000000 1.0000000000
 1620.3750000 21.655799866 -9999.000000 4.0000000000 18.000000000 242.00000000 1.0000000000
 1620.5000000 23.298000336 -9999.000000 4.0000000000 18.000000000 242.00000000 1.0000000000
 1620.6250000 23.709800720 -9999.000000 4.0000000000 18.000000000 242.00000000 1.0000000000
 1620.7500000 24.121500015 -9999.000000 4.0000000000 18.000000000 242.00000000 1.0000000000
 1620.8750000 24.533199310 -9999.000000 4.0000000000 18.000000000 242.00000000 1.0000000000
 1621.0000000 24.944999695 -9999.000000 4.0000000000 18.000000000 242.00000000 1.0000000000
 1621.1250000 22.684999466 -9999.000000 4.0000000000 18.000000000 242.00000000 1.0000000000
 1621.2500000 20.424999237 -9999.000000 4.0000000000 18.000000000 242.00000000 1.0000000000
 1621.3750000 18.165000916 -9999.000000 4.0000000000 18.000000000 242.00000000 1.0000000000
 1621.5000000 15.904999733 -9999.000000 4.0000000000 18.000000000 242.00000000 1.0000000000
 1621.6250000 18.291700363 -9999.000000 4.0000000000 18.000000000 242.00000000 1.0000000000
