# LAS format log file from PETREL
# Project units are specified as depth units
#==================================================================
~Version information
VERS.   2.0:
WRAP.   NO:
#==================================================================
~Well
STRT .m      212.00000000 :
STOP .m      1748.0000000 :
STEP .m     0.12500000 :
NULL .        -999.250000 :
COMP.           : COMPANY
WELL.  51-164   : WELL
FLD.            : FIELD
LOC.            : LOCATION
SRVC.           : SERVICE COMPANY
DATE.  2020-03-08 09:25:10   : Log Export Date {yyyy-MM-dd HH:mm:ss}
PROV.           : PROVINCE
UWI.      : UNIQUE WELL ID
API.            : API NUMBER
#==================================================================
~Curve
DEPT .m                   : DEPTH
RT .ohm.m                 : RT
SP .                      : SP
Fluids .                  : Fluids
POR .m3/m3                : POR
PERM .mD                  : PERM
Lith .                    : Lith
~Parameter
#==================================================================
~Ascii
# ...
 1560.5000000 32.790000916 28.989999771 4.0000000000 20.000000000 1779.0000000 1.0000000000
 1560.6250000 33.930000305 28.440000534 4.0000000000 20.000000000 1779.0000000 1.0000000000
 1560.7500000 35.040000916 27.940000534 4.0000000000 20.000000000 1779.0000000 1.0000000000
 1560.8750000 36.159999847 27.479999542 4.0000000000 20.000000000 1779.0000000 1.0000000000
 1561.0000000 37.939998627 27.090000153 4.0000000000 20.000000000 1779.0000000 1.0000000000
 1561.1250000 39.840000153 26.799999237 4.0000000000 20.000000000 1779.0000000 1.0000000000
 1561.2500000 41.069999695 26.620000839 4.0000000000 20.000000000 1779.0000000 1.0000000000
 1561.3750000 41.319999695 26.559999466 4.0000000000 20.000000000 1779.0000000 1.0000000000
 1561.5000000 40.180000305 26.610000610 4.0000000000 20.000000000 1779.0000000 1.0000000000
 1561.6250000 38.709999084 26.750000000 4.0000000000 20.000000000 1779.0000000 1.0000000000
 1561.7500000 37.189998627 26.979999542 4.0000000000 20.000000000 1779.0000000 1.0000000000
 1561.8750000 33.520000458 27.309999466 4.0000000000 20.000000000 1779.0000000 1.0000000000
 1562.0000000 26.780000687 27.719999313 4.0000000000 20.000000000 1779.0000000 1.0000000000
 1562.1250000 19.760000229 28.209999084 4.0000000000 20.000000000 1779.0000000 1.0000000000
 1562.2500000 16.010000229 28.739999771 4.0000000000 20.000000000 1779.0000000 1.0000000000
 1562.3750000 15.289999962 29.309999466 4.0000000000 20.000000000 1779.0000000 1.0000000000
 1562.5000000 17.399999619 29.920000076 4.0000000000 20.000000000 1779.0000000 1.0000000000
 1562.6250000 20.600000381 30.540000916 4.0000000000 20.000000000 1779.0000000 1.0000000000
 1562.7500000 20.950000763 31.159999847 4.0000000000 20.000000000 1779.0000000 1.0000000000
 1562.8750000 16.729999542 31.770000458 4.0000000000 20.000000000 1779.0000000 1.0000000000
 1563.0000000 12.279999733 32.340000153  -999.250000 0.1000000015 0.1000000015 0.0000000000
 1563.1250000 9.5799999237 32.880001068  -999.250000 0.1000000015 0.1000000015 0.0000000000
 1563.2500000 8.8299999237 33.389999390  -999.250000 0.1000000015 0.1000000015 0.0000000000
 1563.3750000 9.0299997330 33.849998474  -999.250000 0.1000000015 0.1000000015 0.0000000000
 1563.5000000 8.9899997711 34.259998322  -999.250000 0.1000000015 0.1000000015 0.0000000000
 1563.6250000 8.3000001907 34.619998932  -999.250000 0.1000000015 0.1000000015 0.0000000000
 1563.7500000 7.4200000763 34.919998169  -999.250000 0.1000000015 0.1000000015 0.0000000000
 1563.8750000 6.8099999428 35.150001526  -999.250000 0.1000000015 0.1000000015 0.0000000000
 1564.0000000 6.9099998474 35.310001373  -999.250000 0.1000000015 0.1000000015 0.0000000000
 1564.1250000 7.2100000381 35.380001068  -999.250000 0.1000000015 0.1000000015 0.0000000000
 1564.2500000 7.0999999046 35.380001068  -999.250000 0.1000000015 0.1000000015 0.0000000000
 1564.3750000 6.4000000954 35.279998779  -999.250000 0.1000000015 0.1000000015 0.0000000000
 1564.5000000 5.8000001907 35.090000153  -999.250000 0.1000000015 0.1000000015 0.0000000000
 1564.6250000 5.8400001526 34.830001831  -999.250000 0.1000000015 0.1000000015 0.0000000000
 1564.7500000 7.3099999428 34.490001678  -999.250000 0.1000000015 0.1000000015 0.0000000000
 1564.8750000 10.960000038 34.090000153  -999.250000 0.1000000015 0.1000000015 0.0000000000
 1565.0000000 17.870000839 33.619998932 4.0000000000 23.000000000 2232.0000000 1.0000000000
 1565.1250000 26.280000687 33.090000153 4.0000000000 23.000000000 2232.0000000 1.0000000000
 1565.2500000 32.900001526 32.529998779 4.0000000000 23.000000000 2232.0000000 1.0000000000
 1565.3750000 32.990001678 31.950000763 4.0000000000 23.000000000 2232.0000000 1.0000000000
 1565.5000000 30.190000534 31.409999847 4.0000000000 23.000000000 2232.0000000 1.0000000000
 1565.6250000 28.620000839 30.899999619 4.0000000000 23.000000000 2232.0000000 1.0000000000
 1565.7500000 28.959999084 30.440000534 4.0000000000 23.000000000 2232.0000000 1.0000000000
 1565.8750000 30.799999237 30.040000916 4.0000000000 23.000000000 2232.0000000 1.0000000000
 1566.0000000 33.979999542 29.750000000 4.0000000000 23.000000000 2232.0000000 1.0000000000
 1566.1250000 36.259998322 29.559999466 4.0000000000 23.000000000 2232.0000000 1.0000000000
 1566.2500000 36.139999390 29.489999771 4.0000000000 23.000000000 2232.0000000 1.0000000000
 1566.3750000 32.779998779 29.500000000 4.0000000000 23.000000000 2232.0000000 1.0000000000
 1566.5000000 28.459999084 29.610000610 4.0000000000 23.000000000 2232.0000000 1.0000000000
 1566.6250000 25.739999771 29.809999466 4.0000000000 23.000000000 2232.0000000 1.0000000000
 1566.7500000 24.139999390 30.069999695 4.0000000000 23.000000000 2232.0000000 1.0000000000
 1566.8750000 24.100000381 30.379999161 4.0000000000 23.000000000 2232.0000000 1.0000000000
 1567.0000000 25.100000381 30.729999542 4.0000000000 23.000000000 2232.0000000 1.0000000000
 1567.1250000 23.500000000 31.120000839 4.0000000000 23.000000000 2232.0000000 1.0000000000
 1567.2500000 18.920000076 31.540000916 4.0000000000 23.000000000 2232.0000000 1.0000000000
 1567.3750000 15.270000458 31.969999313 4.0000000000 23.000000000 2232.0000000 1.0000000000
 1567.5000000 14.710000038 32.389999390 4.0000000000 23.000000000 2232.0000000 1.0000000000
 1567.6250000 16.319999695 32.790000916 4.0000000000 23.000000000 2232.0000000 1.0000000000
 1567.7500000 18.510000229 33.180000305 4.0000000000 23.000000000 2232.0000000 1.0000000000
 1567.8750000 17.819999695 33.540000916 4.0000000000 23.000000000 2232.0000000 1.0000000000
 1568.0000000 13.840000153 33.840000153  -999.250000 0.1000000015 0.1000000015 0.0000000000
 1568.1250000 9.6199998856 34.090000153  -999.250000 0.1000000015 0.1000000015 0.0000000000
 1568.2500000 6.8200001717 34.279998779  -999.250000 0.1000000015 0.1000000015 0.0000000000
 1568.3750000 5.5399999619 34.409999847  -999.250000 0.1000000015 0.1000000015 0.0000000000
 1568.5000000 5.7399997711 34.450000763  -999.250000 0.1000000015 0.1000000015 0.0000000000
 1568.6250000 6.5100002289 34.409999847  -999.250000 0.1000000015 0.1000000015 0.0000000000
 1568.7500000 7.0399999619 34.270000458  -999.250000 0.1000000015 0.1000000015 0.0000000000
 1568.8750000 7.4699997902 34.040000916  -999.250000 0.1000000015 0.1000000015 0.0000000000
 1569.0000000 8.6300001144 33.709999084  -999.250000 0.1000000015 0.1000000015 0.0000000000
 1569.1250000 10.109999657 33.299999237  -999.250000 0.1000000015 0.1000000015 0.0000000000
 1569.2500000 12.119999886 32.810001373  -999.250000 0.1000000015 0.1000000015 0.0000000000
 1569.3750000 15.819999695 32.250000000  -999.250000 0.1000000015 0.1000000015 0.0000000000
 1569.5000000 21.100000381 31.620000839 4.0000000000 23.000000000 1967.0000000 1.0000000000
 1569.6250000 26.000000000 30.959999084 4.0000000000 23.000000000 1967.0000000 1.0000000000
 1569.7500000 31.370000839 30.290000916 4.0000000000 23.000000000 1967.0000000 1.0000000000
 1569.8750000 37.319999695 29.649999619 4.0000000000 23.000000000 1967.0000000 1.0000000000
 1570.0000000 41.080001831 29.040000916 4.0000000000 23.000000000 1967.0000000 1.0000000000
 1570.1250000 40.080001831 28.469999313 4.0000000000 23.000000000 1967.0000000 1.0000000000
 1570.2500000 34.169998169 27.969999313 4.0000000000 23.000000000 1967.0000000 1.0000000000
 1570.3750000 28.010000229 27.530000687 4.0000000000 23.000000000 1967.0000000 1.0000000000
 1570.5000000 25.450000763 27.170000076 4.0000000000 23.000000000 1967.0000000 1.0000000000
 1570.6250000 24.610000610 26.870000839 4.0000000000 23.000000000 1967.0000000 1.0000000000
 1570.7500000 24.090000153 26.620000839 4.0000000000 23.000000000 1967.0000000 1.0000000000
 1570.8750000 25.209999084 26.409999847 4.0000000000 23.000000000 1967.0000000 1.0000000000
 1571.0000000 27.639999390 26.209999084 4.0000000000 23.000000000 1967.0000000 1.0000000000
 1571.1250000 28.680000305 26.020000458 4.0000000000 23.000000000 1967.0000000 1.0000000000
 1571.2500000 29.969999313 25.809999466 4.0000000000 23.000000000 1967.0000000 1.0000000000
