# LAS format log file from PETREL
# Project units are specified as depth units
#==================================================================
~Version information
VERS.   2.0:
WRAP.   NO:
#==================================================================
~Well
STRT .m      212.00000000 :
STOP .m      1748.0000000 :
STEP .m     0.12500000 :
NULL .        -999.250000 :
COMP.           : COMPANY
WELL.  51-164   : WELL
FLD.            : FIELD
LOC.            : LOCATION
SRVC.           : SERVICE COMPANY
DATE.  2020-03-08 09:25:10   : Log Export Date {yyyy-MM-dd HH:mm:ss}
PROV.           : PROVINCE
UWI.      : UNIQUE WELL ID
API.            : API NUMBER
#==================================================================
~Curve
DEPT .m                   : DEPTH
RT .ohm.m                 : RT
SP .                      : SP
Fluids .                  : Fluids
POR .m3/m3                : POR
PERM .mD                  : PERM
Lith .                    : Lith
~Parameter
#==================================================================
~Ascii
# ...
 1658.3750000 28.500000000 29.329999924 0.0000000000 11.000000000 82.000000000 1.0000000000
 1658.5000000 39.080001831 29.579999924 0.0000000000 11.000000000 82.000000000 1.0000000000
 1658.6250000 43.240001678 29.819999695 0.0000000000 11.000000000 82.000000000 1.0000000000
 1658.7500000 36.099998474 30.030000687 0.0000000000 11.000000000 82.000000000 1.0000000000
 1658.8750000 26.489999771 30.219999313 0.0000000000 11.000000000 82.000000000 1.0000000000
 1659.0000000 20.090000153 30.379999161  -999.250000 0.1000000015 0.1000000015 0.0000000000
 1659.1250000 16.959999084 30.500000000  -999.250000 0.1000000015 0.1000000015 0.0000000000
 1659.2500000 15.989999771 30.569999695  -999.250000 0.1000000015 0.1000000015 0.0000000000
 1659.3750000 16.450000763 30.590000153  -999.250000 0.1000000015 0.1000000015 0.0000000000
 1659.5000000 17.530000687 30.549999237  -999.250000 0.1000000015 0.1000000015 0.0000000000
 1659.6250000 18.610000610 30.489999771  -999.250000 0.1000000015 0.1000000015 0.0000000000
 1659.7500000 19.649999619 30.409999847  -999.250000 0.1000000015 0.1000000015 0.0000000000
 1659.8750000 20.819999695 30.290000916 4.0000000000 21.000000000 1813.0000000 1.0000000000
 1660.0000000 21.250000000 30.139999390 4.0000000000 21.000000000 1813.0000000 1.0000000000
 1660.1250000 20.629999161 29.979999542 4.0000000000 21.000000000 1813.0000000 1.0000000000
 1660.2500000 19.600000381 29.819999695 4.0000000000 21.000000000 1813.0000000 1.0000000000
 1660.3750000 18.930000305 29.680000305 4.0000000000 21.000000000 1813.0000000 1.0000000000
 1660.5000000 18.770000458 29.549999237 4.0000000000 21.000000000 1813.0000000 1.0000000000
 1660.6250000 19.549999237 29.450000763 4.0000000000 21.000000000 1813.0000000 1.0000000000
 1660.7500000 21.590000153 29.350000381 4.0000000000 21.000000000 1813.0000000 1.0000000000
 1660.8750000 23.950000763 29.280000687 4.0000000000 21.000000000 1813.0000000 1.0000000000
 1661.0000000 25.979999542 29.200000763 4.0000000000 21.000000000 1813.0000000 1.0000000000
 1661.1250000 27.479999542 29.120000839 4.0000000000 21.000000000 1813.0000000 1.0000000000
 1661.2500000 27.670000076 29.020000458 4.0000000000 21.000000000 1813.0000000 1.0000000000
 1661.3750000 26.409999847 28.909999847 4.0000000000 21.000000000 1813.0000000 1.0000000000
 1661.5000000 24.350000381 28.799999237 4.0000000000 21.000000000 1813.0000000 1.0000000000
 1661.6250000 22.559999466 28.670000076 4.0000000000 21.000000000 1813.0000000 1.0000000000
 1661.7500000 21.469999313 28.530000687 4.0000000000 21.000000000 1813.0000000 1.0000000000
 1661.8750000 21.159999847 28.389999390 4.0000000000 21.000000000 1813.0000000 1.0000000000
 1662.0000000 22.569999695 28.250000000 4.0000000000 21.000000000 1813.0000000 1.0000000000
 1662.1250000 26.610000610 28.129999161 4.0000000000 21.000000000 1813.0000000 1.0000000000
 1662.2500000 33.110000610 28.020000458 4.0000000000 21.000000000 1813.0000000 1.0000000000
 1662.3750000 41.630001068 27.909999847 4.0000000000 21.000000000 1813.0000000 1.0000000000
 1662.5000000 51.900001526 27.799999237 4.0000000000 21.000000000 1813.0000000 1.0000000000
 1662.6250000 60.930000305 27.690000534 4.0000000000 21.000000000 1813.0000000 1.0000000000
 1662.7500000 65.400001526 27.610000610 4.0000000000 21.000000000 1813.0000000 1.0000000000
 1662.8750000 64.889999390 27.530000687 4.0000000000 21.000000000 1813.0000000 1.0000000000
 1663.0000000 58.110000610 27.459999084 4.0000000000 21.000000000 1813.0000000 1.0000000000
 1663.1250000 46.209999084 27.389999390 4.0000000000 21.000000000 1813.0000000 1.0000000000
 1663.2500000 35.569999695 27.340000153 4.0000000000 21.000000000 1813.0000000 1.0000000000
 1663.3750000 30.629999161 27.299999237 4.0000000000 21.000000000 1813.0000000 1.0000000000
 1663.5000000 30.059999466 27.280000687 4.0000000000 21.000000000 1813.0000000 1.0000000000
 1663.6250000 29.780000687 27.239999771 4.0000000000 21.000000000 1813.0000000 1.0000000000
 1663.7500000 27.409999847 27.159999847 4.0000000000 21.000000000 1813.0000000 1.0000000000
 1663.8750000 24.959999084 27.040000916 4.0000000000 21.000000000 1813.0000000 1.0000000000
 1664.0000000 24.559999466 26.889999390 4.0000000000 21.000000000 1813.0000000 1.0000000000
 1664.1250000 27.159999847 26.700000763 4.0000000000 21.000000000 1813.0000000 1.0000000000
 1664.2500000 38.400001526 26.469999313 4.0000000000 21.000000000 1813.0000000 1.0000000000
 1664.3750000 62.900001526 26.190000534 4.0000000000 21.000000000 1813.0000000 1.0000000000
 1664.5000000 89.750000000 25.840000153 4.0000000000 21.000000000 1813.0000000 1.0000000000
 1664.6250000 99.400001526 25.459999084 4.0000000000 21.000000000 1813.0000000 1.0000000000
 1664.7500000 94.319999695 25.059999466 4.0000000000 21.000000000 1813.0000000 1.0000000000
 1664.8750000 89.440002441 24.680000305 4.0000000000 21.000000000 1813.0000000 1.0000000000
 1665.0000000 88.879997253 24.319999695 4.0000000000 21.000000000 1813.0000000 1.0000000000
 1665.1250000 89.750000000 23.969999313 4.0000000000 21.000000000 1813.0000000 1.0000000000
 1665.2500000 86.169998169 23.659999847 4.0000000000 21.000000000 1813.0000000 1.0000000000
 1665.3750000 75.389999390 23.389999390 4.0000000000 21.000000000 1813.0000000 1.0000000000
 1665.5000000 62.229999542 23.190000534 4.0000000000 21.000000000 1813.0000000 1.0000000000
 1665.6250000 51.900001526 23.059999466 4.0000000000 21.000000000 1813.0000000 1.0000000000
 1665.7500000 45.299999237 22.969999313 4.0000000000 21.000000000 1813.0000000 1.0000000000
 1665.8750000 42.380001068 22.909999847 4.0000000000 21.000000000 1813.0000000 1.0000000000
 1666.0000000 43.419998169 22.850000381 4.0000000000 21.000000000 1813.0000000 1.0000000000
 1666.1250000 46.939998627 22.809999466 4.0000000000 21.000000000 1813.0000000 1.0000000000
 1666.2500000 50.389999390 22.770000458 4.0000000000 21.000000000 1813.0000000 1.0000000000
 1666.3750000 52.490001678 22.729999542 4.0000000000 21.000000000 1813.0000000 1.0000000000
 1666.5000000 52.529998779 22.680000305 4.0000000000 21.000000000 1813.0000000 1.0000000000
 1666.6250000 50.150001526 22.639999390 4.0000000000 21.000000000 1813.0000000 1.0000000000
 1666.7500000 46.869998932 22.600000381 4.0000000000 21.000000000 1813.0000000 1.0000000000
 1666.8750000 45.000000000 22.579999924 4.0000000000 21.000000000 1813.0000000 1.0000000000
 1667.0000000 44.450000763 22.600000381 4.0000000000 21.000000000 1813.0000000 1.0000000000
 1667.1250000 44.310001373 22.659999847 4.0000000000 21.000000000 1813.0000000 1.0000000000
 1667.2500000 45.049999237 22.770000458 4.0000000000 21.000000000 1813.0000000 1.0000000000
 1667.3750000 47.380001068 22.920000076 4.0000000000 21.000000000 1813.0000000 1.0000000000
 1667.5000000 51.240001678 23.100000381 4.0000000000 21.000000000 1813.0000000 1.0000000000
 1667.6250000 57.400001526 23.290000916 4.0000000000 21.000000000 1813.0000000 1.0000000000
 1667.7500000 65.760002136 23.520000458 4.0000000000 21.000000000 1813.0000000 1.0000000000
 1667.8750000 72.919998169 23.770000458 4.0000000000 21.000000000 1813.0000000 1.0000000000
 1668.0000000 75.150001526 24.040000916 4.0000000000 21.000000000 1813.0000000 1.0000000000
 1668.1250000 71.489997864 24.309999466 4.0000000000 21.000000000 1813.0000000 1.0000000000
 1668.2500000 63.599998474 24.590000153 4.0000000000 21.000000000 1813.0000000 1.0000000000
 1668.3750000 54.080001831 24.860000610 4.0000000000 21.000000000 1813.0000000 1.0000000000
 1668.5000000 45.860000610 25.159999847 4.0000000000 21.000000000 1813.0000000 1.0000000000
 1668.6250000 40.740001678 25.479999542 4.0000000000 21.000000000 1813.0000000 1.0000000000
 1668.7500000 38.169998169 25.819999695 4.0000000000 21.000000000 1813.0000000 1.0000000000
 1668.8750000 37.490001678 26.159999847 4.0000000000 21.000000000 1813.0000000 1.0000000000
 1669.0000000 38.689998627 26.489999771 4.0000000000 21.000000000 1813.0000000 1.0000000000
 1669.1250000 40.830001831 26.819999695 4.0000000000 21.000000000 1813.0000000 1.0000000000
