# LAS format log file from PETREL
# Project units are specified as depth units
#==================================================================
~Version information
VERS.   2.0:
WRAP.   NO:
#==================================================================
~Well
STRT .m      212.00000000 :
STOP .m      1748.0000000 :
STEP .m     0.12500000 :
NULL .        -999.250000 :
COMP.           : COMPANY
WELL.  51-164   : WELL
FLD.            : FIELD
LOC.            : LOCATION
SRVC.           : SERVICE COMPANY
DATE.  2020-03-08 09:25:10   : Log Export Date {yyyy-MM-dd HH:mm:ss}
PROV.           : PROVINCE
UWI.      : UNIQUE WELL ID
API.            : API NUMBER
#==================================================================
~Curve
DEPT .m                   : DEPTH
RT .ohm.m                 : RT
SP .                      : SP
Fluids .                  : Fluids
POR .m3/m3                : POR
PERM .mD                  : PERM
Lith .                    : Lith
~Parameter
#==================================================================
~Ascii
# ...
 1701.8750000 14.750000000 33.779998779 3.0000000000 13.000000000 190.00000000 1.0000000000
 1702.0000000 14.800000191 33.889999390 3.0000000000 13.000000000 190.00000000 1.0000000000
 1702.1250000 16.760000229 33.959999084 3.0000000000 13.000000000 190.00000000 1.0000000000
 1702.2500000 19.299999237 33.979999542 3.0000000000 13.000000000 190.00000000 1.0000000000
 1702.3750000 20.520000458 33.959999084 3.0000000000 13.000000000 190.00000000 1.0000000000
 1702.5000000 20.010000229 33.909999847 3.0000000000 13.000000000 190.00000000 1.0000000000
 1702.6250000 18.790000916 33.860000610 3.0000000000 13.000000000 190.00000000 1.0000000000
 1702.7500000 18.120000839 33.779998779 3.0000000000 13.000000000 190.00000000 1.0000000000
 1702.8750000 18.479999542 33.680000305 3.0000000000 13.000000000 190.00000000 1.0000000000
 1703.0000000 19.340000153 33.569999695 3.0000000000 13.000000000 190.00000000 1.0000000000
 1703.1250000 19.549999237 33.470001221 3.0000000000 13.000000000 190.00000000 1.0000000000
 1703.2500000 18.629999161 33.389999390 3.0000000000 13.000000000 190.00000000 1.0000000000
 1703.3750000 17.149999619 33.319999695 3.0000000000 13.000000000 190.00000000 1.0000000000
 1703.5000000 15.840000153 33.270000458 3.0000000000 13.000000000 190.00000000 1.0000000000
 1703.6250000 15.289999962 33.220001221 3.0000000000 13.000000000 190.00000000 1.0000000000
 1703.7500000 16.149999619 33.180000305 3.0000000000 13.000000000 190.00000000 1.0000000000
 1703.8750000 18.629999161 33.159999847 3.0000000000 13.000000000 190.00000000 1.0000000000
 1704.0000000 21.170000076 33.150001526 3.0000000000 13.000000000 190.00000000 1.0000000000
 1704.1250000 22.299999237 33.150001526 3.0000000000 13.000000000 190.00000000 1.0000000000
 1704.2500000 22.000000000 33.150001526 3.0000000000 13.000000000 190.00000000 1.0000000000
 1704.3750000 20.670000076 33.159999847 3.0000000000 13.000000000 190.00000000 1.0000000000
 1704.5000000 18.790000916 33.180000305 3.0000000000 13.000000000 190.00000000 1.0000000000
 1704.6250000 17.430000305 33.220001221 3.0000000000 13.000000000 190.00000000 1.0000000000
 1704.7500000 16.850000381 33.270000458 3.0000000000 13.000000000 190.00000000 1.0000000000
 1704.8750000 16.559999466 33.340000153 3.0000000000 13.000000000 190.00000000 1.0000000000
 1705.0000000 16.280000687 33.419998169 3.0000000000 13.000000000 190.00000000 1.0000000000
 1705.1250000 15.890000343 33.520000458 3.0000000000 13.000000000 190.00000000 1.0000000000
 1705.2500000 15.460000038 33.639999390 3.0000000000 13.000000000 190.00000000 1.0000000000
 1705.3750000 15.420000076 33.750000000 3.0000000000 13.000000000 190.00000000 1.0000000000
 1705.5000000 16.229999542 33.860000610 3.0000000000 13.000000000 190.00000000 1.0000000000
 1705.6250000 17.180000305 33.939998627 3.0000000000 13.000000000 190.00000000 1.0000000000
 1705.7500000 17.299999237 34.009998322 3.0000000000 13.000000000 190.00000000 1.0000000000
 1705.8750000 16.440000534 34.040000916 3.0000000000 13.000000000 190.00000000 1.0000000000
 1706.0000000 15.020000458 34.049999237 3.0000000000 13.000000000 190.00000000 1.0000000000
 1706.1250000 13.829999924 34.040000916 3.0000000000 13.000000000 190.00000000 1.0000000000
 1706.2500000 14.020000458 34.020000458 3.0000000000 13.000000000 190.00000000 1.0000000000
 1706.3750000 16.270000458 33.979999542 3.0000000000 13.000000000 190.00000000 1.0000000000
 1706.5000000 21.600000381 33.950000763 3.0000000000 13.000000000 190.00000000 1.0000000000
 1706.6250000 29.690000534 33.909999847 3.0000000000 13.000000000 190.00000000 1.0000000000
 1706.7500000 36.520000458 33.889999390 3.0000000000 13.000000000 190.00000000 1.0000000000
 1706.8750000 35.360000610 33.869998932 3.0000000000 13.000000000 190.00000000 1.0000000000
 1707.0000000 27.750000000 33.849998474 3.0000000000 13.000000000 190.00000000 1.0000000000
 1707.1250000 20.989999771 33.840000153 3.0000000000 13.000000000 190.00000000 1.0000000000
 1707.2500000 17.399999619 33.810001373 3.0000000000 13.000000000 190.00000000 1.0000000000
 1707.3750000 16.430000305 33.770000458 3.0000000000 13.000000000 190.00000000 1.0000000000
 1707.5000000 18.309999466 33.729999542 3.0000000000 13.000000000 190.00000000 1.0000000000
 1707.6250000 22.110000610 33.659999847 3.0000000000 13.000000000 190.00000000 1.0000000000
 1707.7500000 25.469999313 33.580001831 3.0000000000 13.000000000 190.00000000 1.0000000000
 1707.8750000 26.739999771 33.479999542 3.0000000000 13.000000000 190.00000000 1.0000000000
 1708.0000000 25.850000381 33.380001068 3.0000000000 13.000000000 190.00000000 1.0000000000
 1708.1250000 23.879999161 33.279998779 3.0000000000 13.000000000 190.00000000 1.0000000000
 1708.2500000 21.940000534 33.189998627 3.0000000000 13.000000000 190.00000000 1.0000000000
 1708.3750000 20.950000763 33.099998474 3.0000000000 13.000000000 190.00000000 1.0000000000
 1708.5000000 21.079999924 33.020000458 3.0000000000 13.000000000 190.00000000 1.0000000000
 1708.6250000 21.770000458 32.950000763 3.0000000000 13.000000000 190.00000000 1.0000000000
 1708.7500000 22.700000763 32.900001526 3.0000000000 13.000000000 190.00000000 1.0000000000
 1708.8750000 23.659999847 32.869998932 3.0000000000 13.000000000 190.00000000 1.0000000000
 1709.0000000 24.329999924 32.849998474 3.0000000000 13.000000000 190.00000000 1.0000000000
 1709.1250000 24.709999084 32.849998474 3.0000000000 13.000000000 190.00000000 1.0000000000
 1709.2500000 25.079999924 32.849998474 3.0000000000 13.000000000 190.00000000 1.0000000000
 1709.3750000 25.530000687 32.880001068 3.0000000000 13.000000000 190.00000000 1.0000000000
 1709.5000000 25.590000153 32.919998169 3.0000000000 13.000000000 190.00000000 1.0000000000
 1709.6250000 25.260000229 32.990001678 3.0000000000 13.000000000 190.00000000 1.0000000000
 1709.7500000 25.139999390 33.090000153 3.0000000000 13.000000000 190.00000000 1.0000000000
 1709.8750000 25.260000229 33.229999542 3.0000000000 13.000000000 190.00000000 1.0000000000
 1710.0000000 25.870000839 33.389999390 3.0000000000 13.000000000 190.00000000 1.0000000000
 1710.1250000 27.370000839 33.599998474 3.0000000000 13.000000000 190.00000000 1.0000000000
 1710.2500000 29.409999847 33.840000153 3.0000000000 13.000000000 190.00000000 1.0000000000
 1710.3750000 30.420000076 34.110000610 3.0000000000 13.000000000 190.00000000 1.0000000000
 1710.5000000 28.559999466 34.409999847 3.0000000000 13.000000000 190.00000000 1.0000000000
 1710.6250000 24.000000000 34.740001678 3.0000000000 13.000000000 190.00000000 1.0000000000
 1710.7500000 18.600000381 35.090000153 3.0000000000 13.000000000 190.00000000 1.0000000000
 1710.8750000 13.649999619 35.439998627 3.0000000000 13.000000000 190.00000000 1.0000000000
 1711.0000000 10.010000229 35.799999237  -999.250000 0.1000000015 0.1000000015 0.0000000000
 1711.1250000 8.2100000381 36.159999847  -999.250000 0.1000000015 0.1000000015 0.0000000000
 1711.2500000 7.7600002289 36.490001678  -999.250000 0.1000000015 0.1000000015 0.0000000000
 1711.3750000 7.8400001526 36.810001373  -999.250000 0.1000000015 0.1000000015 0.0000000000
 1711.5000000 7.9299998283 37.090000153  -999.250000 0.1000000015 0.1000000015 0.0000000000
 1711.6250000 8.2299995422 37.319999695  -999.250000 0.1000000015 0.1000000015 0.0000000000
 1711.7500000 8.6999998093 37.500000000  -999.250000 0.1000000015 0.1000000015 0.0000000000
 1711.8750000 9.2200002670 37.619998932  -999.250000 0.1000000015 0.1000000015 0.0000000000
 1712.0000000 9.6999998093 37.680000305  -999.250000 0.1000000015 0.1000000015 0.0000000000
 1712.1250000 10.289999962 37.689998627  -999.250000 0.1000000015 0.1000000015 0.0000000000
 1712.2500000 10.340000153 37.650001526  -999.250000 0.1000000015 0.1000000015 0.0000000000
 1712.3750000 9.6300001144 37.580001831  -999.250000 0.1000000015 0.1000000015 0.0000000000
 1712.5000000 9.1499996185 37.500000000  -999.250000 0.1000000015 0.1000000015 0.0000000000
 1712.6250000 9.8000001907 37.409999847  -999.250000 0.1000000015 0.1000000015 0.0000000000
