# LAS format log file from PETREL
# Project units are specified as depth units
#==================================================================
~Version information
VERS.   2.0:
WRAP.   NO:
#==================================================================
~Well
STRT .m      1580.8750000 :
STOP .m      1709.7500000 :
STEP .m     0.12500000 :
NULL .        -999.250000 :
COMP.           : COMPANY
WELL.  51-166   : WELL
FLD.            : FIELD
LOC.            : LOCATION
SRVC.           : SERVICE COMPANY
DATE.  2020-03-08 09:25:10   : Log Export Date {yyyy-MM-dd HH:mm:ss}
PROV.           : PROVINCE
UWI.      : UNIQUE WELL ID
API.            : API NUMBER
#==================================================================
~Curve
DEPT .m                   : DEPTH
Fluids .                  : Fluids
POR .m3/m3                : POR
PERM .mD                  : PERM
Lith .                    : Lith
~Parameter
#==================================================================
~Ascii
 1580.8750000  -999.250000  -999.250000  -999.250000  -999.250000
 1581.0000000 4.0000000000 19.000000000 375.00000000 1.0000000000
 1581.1250000 4.0000000000 19.000000000 375.00000000 1.0000000000
 1581.2500000 4.0000000000 19.000000000 375.00000000 1.0000000000
 1581.3750000 4.0000000000 19.000000000 375.00000000 1.0000000000
 1581.5000000 4.0000000000 19.000000000 375.00000000 1.0000000000
 1581.6250000 4.0000000000 19.000000000 375.00000000 1.0000000000
 1581.7500000 4.0000000000 19.000000000 375.00000000 1.0000000000
 1581.8750000 4.0000000000 19.000000000 375.00000000 1.0000000000
 1582.0000000 4.0000000000 19.000000000 375.00000000 1.0000000000
 1582.1250000 4.0000000000 19.000000000 375.00000000 1.0000000000
 1582.2500000 4.0000000000 19.000000000 375.00000000 1.0000000000
 1582.3750000 4.0000000000 19.000000000 375.00000000 1.0000000000
 1582.5000000 4.0000000000 19.000000000 375.00000000 1.0000000000
 1582.6250000 4.0000000000 19.000000000 375.00000000 1.0000000000
 1582.7500000 4.0000000000 19.000000000 375.00000000 1.0000000000
 1582.8750000 4.0000000000 19.000000000 375.00000000 1.0000000000
 1583.0000000 4.0000000000 19.000000000 375.00000000 1.0000000000
 1583.1250000 4.0000000000 19.000000000 375.00000000 1.0000000000
 1583.2500000 4.0000000000 19.000000000 375.00000000 1.0000000000
 1583.3750000 4.0000000000 19.000000000 375.00000000 1.0000000000
 1583.5000000 4.0000000000 19.000000000 375.00000000 1.0000000000
 1583.6250000 4.0000000000 19.000000000 375.00000000 1.0000000000
 1583.7500000 4.0000000000 19.000000000 375.00000000 1.0000000000
 1583.8750000 4.0000000000 19.000000000 375.00000000 1.0000000000
 1584.0000000 4.0000000000 19.000000000 375.00000000 1.0000000000
 1584.1250000 4.0000000000 19.000000000 375.00000000 1.0000000000
 1584.2500000 4.0000000000 19.000000000 375.00000000 1.0000000000
 1584.3750000 4.0000000000 19.000000000 375.00000000 1.0000000000
 1584.5000000 4.0000000000 19.000000000 375.00000000 1.0000000000
 1584.6250000 4.0000000000 19.000000000 375.00000000 1.0000000000
 1584.7500000 4.0000000000 19.000000000 375.00000000 1.0000000000
 1584.8750000 4.0000000000 19.000000000 375.00000000 1.0000000000
 1585.0000000 4.0000000000 19.000000000 375.00000000 1.0000000000
 1585.1250000 4.0000000000 19.000000000 375.00000000 1.0000000000
 1585.2500000 4.0000000000 19.000000000 375.00000000 1.0000000000
 1585.3750000 4.0000000000 19.000000000 375.00000000 1.0000000000
 1585.5000000 4.0000000000 19.000000000 375.00000000 1.0000000000
 1585.6250000 4.0000000000 19.000000000 375.00000000 1.0000000000
 1585.7500000 4.0000000000 19.000000000 375.00000000 1.0000000000
 1585.8750000 4.0000000000 19.000000000 375.00000000 1.0000000000
 1586.0000000 4.0000000000 19.000000000 375.00000000 1.0000000000
 1586.1250000 4.0000000000 19.000000000 375.00000000 1.0000000000
 1586.2500000 4.0000000000 19.000000000 375.00000000 1.0000000000
 1586.3750000 4.0000000000 19.000000000 375.00000000 1.0000000000
 1586.5000000 4.0000000000 19.000000000 375.00000000 1.0000000000
 1586.6250000 4.0000000000 19.000000000 375.00000000 1.0000000000
 1586.7500000 4.0000000000 19.000000000 375.00000000 1.0000000000
 1586.8750000 4.0000000000 19.000000000 375.00000000 1.0000000000
 1587.0000000 4.0000000000 19.000000000 375.00000000 1.0000000000
 1587.1250000 4.0000000000 19.000000000 375.00000000 1.0000000000
 1587.2500000 4.0000000000 19.000000000 375.00000000 1.0000000000
 1587.3750000 4.0000000000 19.000000000 375.00000000 1.0000000000
 1587.5000000 4.0000000000 19.000000000 375.00000000 1.0000000000
 1587.6250000 4.0000000000 19.000000000 375.00000000 1.0000000000
 1587.7500000 4.0000000000 19.000000000 375.00000000 1.0000000000
 1587.8750000 4.0000000000 19.000000000 375.00000000 1.0000000000
 1588.0000000 4.0000000000 19.000000000 375.00000000 1.0000000000
 1588.1250000 4.0000000000 19.000000000 375.00000000 1.0000000000
 1588.2500000 4.0000000000 19.000000000 375.00000000 1.0000000000
 1588.3750000 4.0000000000 19.000000000 375.00000000 1.0000000000
 1588.5000000 4.0000000000 19.000000000 375.00000000 1.0000000000
 1588.6250000 4.0000000000 19.000000000 375.00000000 1.0000000000
 1588.7500000 4.0000000000 19.000000000 375.00000000 1.0000000000
 1588.8750000 4.0000000000 19.000000000 375.00000000 1.0000000000
 1589.0000000 4.0000000000 19.000000000 375.00000000 1.0000000000
 1589.1250000 4.0000000000 19.000000000 375.00000000 1.0000000000
 1589.2500000 4.0000000000 19.000000000 375.00000000 1.0000000000
 1589.3750000 4.0000000000 19.000000000 375.00000000 1.0000000000
 1589.5000000 4.0000000000 19.000000000 375.00000000 1.0000000000
 1589.6250000 4.0000000000 19.000000000 375.00000000 1.0000000000
 1589.7500000 4.0000000000 19.000000000 375.00000000 1.0000000000
 1589.8750000 4.0000000000 19.000000000 375.00000000 1.0000000000
 1590.0000000 4.0000000000 19.000000000 375.00000000 1.0000000000
 1590.1250000 4.0000000000 19.000000000 375.00000000 1.0000000000
 1590.2500000 4.0000000000 19.000000000 375.00000000 1.0000000000
 1590.3750000 4.0000000000 19.000000000 375.00000000 1.0000000000
 1590.5000000  -999.250000 0.1000000015 0.1000000015 0.0000000000
 1590.6250000  -999.250000 0.1000000015 0.1000000015 0.0000000000
 1590.7500000  -999.250000 0.1000000015 0.1000000015 0.0000000000
 1590.8750000  -999.250000 0.1000000015 0.1000000015 0.0000000000
 1591.0000000  -999.250000 0.1000000015 0.1000000015 0.0000000000
 1591.1250000  -999.250000 0.1000000015 0.1000000015 0.0000000000
 1591.2500000  -999.250000 0.1000000015 0.1000000015 0.0000000000
 1591.3750000  -999.250000 0.1000000015 0.1000000015 0.0000000000
 1591.5000000  -999.250000 0.1000000015 0.1000000015 0.0000000000
 1591.6250000  -999.250000 0.1000000015 0.1000000015 0.0000000000
 1591.7500000  -999.250000 0.1000000015 0.1000000015 0.0000000000
 1591.8750000  -999.250000 0.1000000015 0.1000000015 0.0000000000
 1592.0000000 2.0000000000 20.000000000 419.00000000 1.0000000000
 1592.1250000 2.0000000000 20.000000000 419.00000000 1.0000000000
 1592.2500000 2.0000000000 20.000000000 419.00000000 1.0000000000
 1592.3750000 2.0000000000 20.000000000 419.00000000 1.0000000000
 1592.5000000 2.0000000000 20.000000000 419.00000000 1.0000000000
 1592.6250000 2.0000000000 20.000000000 419.00000000 1.0000000000
 1592.7500000 2.0000000000 20.000000000 419.00000000 1.0000000000
 1592.8750000 2.0000000000 20.000000000 419.00000000 1.0000000000
 1593.0000000 2.0000000000 20.000000000 419.00000000 1.0000000000
 1593.1250000 2.0000000000 20.000000000 419.00000000 1.0000000000
 1593.2500000 2.0000000000 20.000000000 419.00000000 1.0000000000
 1593.3750000 2.0000000000 20.000000000 419.00000000 1.0000000000
 1593.5000000 2.0000000000 20.000000000 419.00000000 1.0000000000
 1593.6250000 2.0000000000 20.000000000 419.00000000 1.0000000000
 1593.7500000 2.0000000000 20.000000000 419.00000000 1.0000000000
 1593.8750000 2.0000000000 20.000000000 419.00000000 1.0000000000
 1594.0000000 2.0000000000 20.000000000 419.00000000 1.0000000000
 1594.1250000 2.0000000000 20.000000000 419.00000000 1.0000000000
 1594.2500000 2.0000000000 20.000000000 419.00000000 1.0000000000
 1594.3750000 2.0000000000 20.000000000 419.00000000 1.0000000000
 1594.5000000 2.0000000000 20.000000000 419.00000000 1.0000000000
 1594.6250000 2.0000000000 20.000000000 419.00000000 1.0000000000
 1594.7500000 2.0000000000 20.000000000 419.00000000 1.0000000000
 1594.8750000 2.0000000000 20.000000000 419.00000000 1.0000000000
 1595.0000000 2.0000000000 20.000000000 419.00000000 1.0000000000
 1595.1250000 2.0000000000 20.000000000 419.00000000 1.0000000000
 1595.2500000 2.0000000000 20.000000000 419.00000000 1.0000000000
 1595.3750000 2.0000000000 20.000000000 419.00000000 1.0000000000
 1595.5000000 2.0000000000 20.000000000 419.00000000 1.0000000000
 1595.6250000 2.0000000000 20.000000000 419.00000000 1.0000000000
 1595.7500000 2.0000000000 20.000000000 419.00000000 1.0000000000
 1595.8750000 2.0000000000 20.000000000 419.00000000 1.0000000000
 1596.0000000 2.0000000000 20.000000000 419.00000000 1.0000000000
