# LAS format log file from PETREL
# Project units are specified as depth units
#==================================================================
~Version information
VERS.   2.0:
WRAP.   NO:
#==================================================================
~Well
STRT .m      730.00000000 :
STOP .m      1740.0000000 :
STEP .m     0.12500000 :
NULL .        -999.250000 :
COMP.           : COMPANY
WELL.  51-165   : WELL
FLD.            : FIELD
LOC.            : LOCATION
SRVC.           : SERVICE COMPANY
DATE.  2020-03-08 09:25:10   : Log Export Date {yyyy-MM-dd HH:mm:ss}
PROV.           : PROVINCE
UWI.      : UNIQUE WELL ID
API.            : API NUMBER
#==================================================================
~Curve
DEPT .m                   : DEPTH
RT .ohm.m                 : RT
SP .                      : SP
Fluids .                  : Fluids
POR .m3/m3                : POR
PERM .mD                  : PERM
Lith .                    : Lith
~Parameter
#==================================================================
~Ascii
# ...
 1632.6250000 12.063699722 -9999.000000 4.0000000000 13.000000000 97.000000000 1.0000000000
 1632.7500000 11.465499878 -9999.000000 4.0000000000 13.000000000 97.000000000 1.0000000000
 1632.8750000 10.867199898 -9999.000000 4.0000000000 13.000000000 97.000000000 1.0000000000
 1633.0000000 10.269000053 -9999.000000 4.0000000000 13.000000000 97.000000000 1.0000000000
 1633.1250000 10.647000313 -9999.000000 4.0000000000 13.000000000 97.000000000 1.0000000000
 1633.2500000 11.024999619 -9999.000000 4.0000000000 13.000000000 97.000000000 1.0000000000
 1633.3750000 11.402999878 -9999.000000 4.0000000000 13.000000000 97.000000000 1.0000000000
 1633.5000000 11.781000137 -9999.000000 4.0000000000 13.000000000 97.000000000 1.0000000000
 1633.6250000 11.678500175 -9999.000000 4.0000000000 13.000000000 97.000000000 1.0000000000
 1633.7500000 11.576000214 -9999.000000 4.0000000000 13.000000000 97.000000000 1.0000000000
 1633.8750000 11.473500252 -9999.000000 4.0000000000 13.000000000 97.000000000 1.0000000000
 1634.0000000 11.371000290 -9999.000000 4.0000000000 13.000000000 97.000000000 1.0000000000
 1634.1250000 11.300000191 -9999.000000 4.0000000000 13.000000000 97.000000000 1.0000000000
 1634.2500000 11.229000092 -9999.000000 4.0000000000 13.000000000 97.000000000 1.0000000000
 1634.3750000 11.157999992 -9999.000000 4.0000000000 13.000000000 97.000000000 1.0000000000
 1634.5000000 11.086999893 -9999.000000 4.0000000000 13.000000000 97.000000000 1.0000000000
 1634.6250000 11.185999870 -9999.000000 4.0000000000 13.000000000 97.000000000 1.0000000000
 1634.7500000 11.284999847 -9999.000000 4.0000000000 13.000000000 97.000000000 1.0000000000
 1634.8750000 11.383999825 -9999.000000 4.0000000000 13.000000000 97.000000000 1.0000000000
 1635.0000000 11.482999802 -9999.000000 4.0000000000 13.000000000 97.000000000 1.0000000000
 1635.1250000 12.106200218 -9999.000000 4.0000000000 13.000000000 97.000000000 1.0000000000
 1635.2500000 12.729499817 -9999.000000 4.0000000000 13.000000000 97.000000000 1.0000000000
 1635.3750000 13.352700233 -9999.000000 4.0000000000 13.000000000 97.000000000 1.0000000000
 1635.5000000 13.975999832 -9999.000000 4.0000000000 13.000000000 97.000000000 1.0000000000
 1635.6250000 14.720199585 -9999.000000 4.0000000000 13.000000000 97.000000000 1.0000000000
 1635.7500000 15.464500427 -9999.000000 4.0000000000 13.000000000 97.000000000 1.0000000000
 1635.8750000 16.208700180 -9999.000000 4.0000000000 13.000000000 97.000000000 1.0000000000
 1636.0000000 16.952999115 -9999.000000 4.0000000000 13.000000000 97.000000000 1.0000000000
 1636.1250000 16.831199646 -9999.000000 4.0000000000 13.000000000 97.000000000 1.0000000000
 1636.2500000 16.709499359 -9999.000000 4.0000000000 13.000000000 97.000000000 1.0000000000
 1636.3750000 16.587699890 -9999.000000 4.0000000000 13.000000000 97.000000000 1.0000000000
 1636.5000000 16.465999603 -9999.000000 4.0000000000 13.000000000 97.000000000 1.0000000000
 1636.6250000 15.600000381 -9999.000000 4.0000000000 13.000000000 97.000000000 1.0000000000
 1636.7500000 14.734000206 -9999.000000 4.0000000000 13.000000000 97.000000000 1.0000000000
 1636.8750000 13.868000031 -9999.000000 4.0000000000 13.000000000 97.000000000 1.0000000000
 1637.0000000 13.001999855 -9999.000000 4.0000000000 13.000000000 97.000000000 1.0000000000
 1637.1250000 11.663200378 -9999.000000  -999.250000 0.1000000015 0.1000000015 0.0000000000
 1637.2500000 10.324500084 -9999.000000  -999.250000 0.1000000015 0.1000000015 0.0000000000
 1637.3750000 8.9856996536 -9999.000000  -999.250000 0.1000000015 0.1000000015 0.0000000000
 1637.5000000 7.6469998360 -9999.000000  -999.250000 0.1000000015 0.1000000015 0.0000000000
 1637.6250000 8.6842002869 -9999.000000  -999.250000 0.1000000015 0.1000000015 0.0000000000
 1637.7500000 9.7215003967 -9999.000000  -999.250000 0.1000000015 0.1000000015 0.0000000000
 1637.8750000 10.758700371 -9999.000000  -999.250000 0.1000000015 0.1000000015 0.0000000000
 1638.0000000 11.795999527 -9999.000000 4.0000000000 13.000000000 58.000000000 1.0000000000
 1638.1250000 13.666000366 -9999.000000 4.0000000000 13.000000000 58.000000000 1.0000000000
 1638.2500000 15.536000252 -9999.000000 4.0000000000 13.000000000 58.000000000 1.0000000000
 1638.3750000 17.406000137 -9999.000000 4.0000000000 13.000000000 58.000000000 1.0000000000
 1638.5000000 19.275999069 -9999.000000 4.0000000000 13.000000000 58.000000000 1.0000000000
 1638.6250000 17.651500702 -9999.000000 4.0000000000 13.000000000 58.000000000 1.0000000000
 1638.7500000 16.027000427 -9999.000000 4.0000000000 13.000000000 58.000000000 1.0000000000
 1638.8750000 14.402500153 -9999.000000 4.0000000000 13.000000000 58.000000000 1.0000000000
 1639.0000000 12.777999878 -9999.000000 4.0000000000 13.000000000 58.000000000 1.0000000000
 1639.1250000 13.015500069 -9999.000000 4.0000000000 13.000000000 58.000000000 1.0000000000
 1639.2500000 13.253000259 -9999.000000 4.0000000000 13.000000000 58.000000000 1.0000000000
 1639.3750000 13.490500450 -9999.000000 4.0000000000 13.000000000 58.000000000 1.0000000000
 1639.5000000 13.727999687 -9999.000000 4.0000000000 13.000000000 58.000000000 1.0000000000
 1639.6250000 12.936200142 -9999.000000 4.0000000000 13.000000000 58.000000000 1.0000000000
 1639.7500000 12.144499779 -9999.000000 4.0000000000 13.000000000 58.000000000 1.0000000000
 1639.8750000 11.352700233 -9999.000000 4.0000000000 13.000000000 58.000000000 1.0000000000
 1640.0000000 10.560999870 -9999.000000 4.0000000000 13.000000000 58.000000000 1.0000000000
 1640.1250000 13.190699577 -9999.000000 4.0000000000 13.000000000 58.000000000 1.0000000000
 1640.2500000 15.820500374 -9999.000000 4.0000000000 13.000000000 58.000000000 1.0000000000
 1640.3750000 18.450199127 -9999.000000 4.0000000000 13.000000000 58.000000000 1.0000000000
 1640.5000000 21.079999924 -9999.000000 4.0000000000 13.000000000 58.000000000 1.0000000000
 1640.6250000 24.554700851 -9999.000000 4.0000000000 13.000000000 58.000000000 1.0000000000
 1640.7500000 28.029499054 -9999.000000 4.0000000000 13.000000000 58.000000000 1.0000000000
 1640.8750000 31.504299164 -9999.000000 4.0000000000 13.000000000 58.000000000 1.0000000000
 1641.0000000 34.979000092 -9999.000000 4.0000000000 13.000000000 58.000000000 1.0000000000
 1641.1250000 30.546800613 -9999.000000 4.0000000000 13.000000000 58.000000000 1.0000000000
 1641.2500000 26.114500046 -9999.000000 4.0000000000 13.000000000 58.000000000 1.0000000000
 1641.3750000 21.682300568 -9999.000000 4.0000000000 13.000000000 58.000000000 1.0000000000
 1641.5000000 17.250000000 -9999.000000 4.0000000000 13.000000000 58.000000000 1.0000000000
 1641.6250000 17.615699768 -9999.000000 4.0000000000 13.000000000 58.000000000 1.0000000000
 1641.7500000 17.981500626 -9999.000000 4.0000000000 13.000000000 58.000000000 1.0000000000
 1641.8750000 18.347200394 -9999.000000 4.0000000000 13.000000000 58.000000000 1.0000000000
 1642.0000000 18.712999344 -9999.000000 4.0000000000 13.000000000 58.000000000 1.0000000000
 1642.1250000 18.360500336 -9999.000000 4.0000000000 13.000000000 58.000000000 1.0000000000
 1642.2500000 18.007999420 -9999.000000 4.0000000000 13.000000000 58.000000000 1.0000000000
 1642.3750000 17.655500412 -9999.000000 4.0000000000 13.000000000 58.000000000 1.0000000000
 1642.5000000 17.302999496 -9999.000000 4.0000000000 13.000000000 58.000000000 1.0000000000
 1642.6250000 19.081699371 -9999.000000 4.0000000000 13.000000000 58.000000000 1.0000000000
 1642.7500000 20.860500336 -9999.000000 4.0000000000 13.000000000 58.000000000 1.0000000000
 1642.8750000 22.639200211 -9999.000000 4.0000000000 13.000000000 58.000000000 1.0000000000
 1643.0000000 24.417999268 -9999.000000 4.0000000000 13.000000000 58.000000000 1.0000000000
 1643.1250000 26.152200699 -9999.000000 4.0000000000 13.000000000 58.000000000 1.0000000000
 1643.2500000 27.886499405 -9999.000000 4.0000000000 13.000000000 58.000000000 1.0000000000
 1643.3750000 29.620700836 -9999.000000 4.0000000000 13.000000000 58.000000000 1.0000000000
