# LAS format log file from PETREL
# Project units are specified as depth units
#==================================================================
~Version information
VERS.   2.0:
WRAP.   NO:
#==================================================================
~Well
STRT .m      212.00000000 :
STOP .m      1748.0000000 :
STEP .m     0.12500000 :
NULL .        -999.250000 :
COMP.           : COMPANY
WELL.  51-164   : WELL
FLD.            : FIELD
LOC.            : LOCATION
SRVC.           : SERVICE COMPANY
DATE.  2020-03-08 09:25:10   : Log Export Date {yyyy-MM-dd HH:mm:ss}
PROV.           : PROVINCE
UWI.      : UNIQUE WELL ID
API.            : API NUMBER
#==================================================================
~Curve
DEPT .m                   : DEPTH
RT .ohm.m                 : RT
SP .                      : SP
Fluids .                  : Fluids
POR .m3/m3                : POR
PERM .mD                  : PERM
Lith .                    : Lith
~Parameter
#==================================================================
~Ascii
# ...
 1593.1250000 22.540000916 27.799999237 4.0000000000 24.000000000 2606.0000000 1.0000000000
 1593.2500000 27.709999084 27.620000839 4.0000000000 24.000000000 2606.0000000 1.0000000000
 1593.3750000 32.779998779 27.409999847 4.0000000000 24.000000000 2606.0000000 1.0000000000
 1593.5000000 35.259998322 27.200000763 4.0000000000 24.000000000 2606.0000000 1.0000000000
 1593.6250000 32.330001831 26.979999542 4.0000000000 24.000000000 2606.0000000 1.0000000000
 1593.7500000 26.510000229 26.780000687 4.0000000000 24.000000000 2606.0000000 1.0000000000
 1593.8750000 22.299999237 26.600000381 4.0000000000 24.000000000 2606.0000000 1.0000000000
 1594.0000000 20.620000839 26.440000534 4.0000000000 24.000000000 2606.0000000 1.0000000000
 1594.1250000 21.629999161 26.299999237 4.0000000000 24.000000000 2606.0000000 1.0000000000
 1594.2500000 25.579999924 26.159999847 4.0000000000 24.000000000 2606.0000000 1.0000000000
 1594.3750000 29.110000610 26.040000916 4.0000000000 24.000000000 2606.0000000 1.0000000000
 1594.5000000 30.280000687 25.930000305 4.0000000000 24.000000000 2606.0000000 1.0000000000
 1594.6250000 31.319999695 25.829999924 4.0000000000 24.000000000 2606.0000000 1.0000000000
 1594.7500000 32.819999695 25.739999771 4.0000000000 24.000000000 2606.0000000 1.0000000000
 1594.8750000 34.490001678 25.659999847 4.0000000000 24.000000000 2606.0000000 1.0000000000
 1595.0000000 36.939998627 25.610000610 4.0000000000 24.000000000 2606.0000000 1.0000000000
 1595.1250000 39.189998627 25.610000610 4.0000000000 24.000000000 2606.0000000 1.0000000000
 1595.2500000 39.130001068 25.649999619 4.0000000000 24.000000000 2606.0000000 1.0000000000
 1595.3750000 37.599998474 25.729999542 4.0000000000 24.000000000 2606.0000000 1.0000000000
 1595.5000000 35.860000610 25.850000381 4.0000000000 24.000000000 2606.0000000 1.0000000000
 1595.6250000 32.409999847 26.010000229 4.0000000000 24.000000000 2606.0000000 1.0000000000
 1595.7500000 26.209999084 26.209999084 4.0000000000 24.000000000 2606.0000000 1.0000000000
 1595.8750000 19.010000229 26.420000076 4.0000000000 24.000000000 2606.0000000 1.0000000000
 1596.0000000 13.210000038 26.629999161  -999.250000 0.1000000015 0.1000000015 0.0000000000
 1596.1250000 9.9399995804 26.829999924  -999.250000 0.1000000015 0.1000000015 0.0000000000
 1596.2500000 9.0500001907 27.020000458  -999.250000 0.1000000015 0.1000000015 0.0000000000
 1596.3750000 10.340000153 27.170000076  -999.250000 0.1000000015 0.1000000015 0.0000000000
 1596.5000000 13.840000153 27.270000458 4.0000000000 24.000000000 2262.0000000 1.0000000000
 1596.6250000 19.049999237 27.280000687 4.0000000000 24.000000000 2262.0000000 1.0000000000
 1596.7500000 23.809999466 27.190000534 4.0000000000 24.000000000 2262.0000000 1.0000000000
 1596.8750000 26.450000763 27.040000916 4.0000000000 24.000000000 2262.0000000 1.0000000000
 1597.0000000 28.860000610 26.840000153 4.0000000000 24.000000000 2262.0000000 1.0000000000
 1597.1250000 30.969999313 26.590000153 4.0000000000 24.000000000 2262.0000000 1.0000000000
 1597.2500000 30.850000381 26.309999466 4.0000000000 24.000000000 2262.0000000 1.0000000000
 1597.3750000 29.450000763 26.010000229 4.0000000000 24.000000000 2262.0000000 1.0000000000
 1597.5000000 28.889999390 25.739999771 4.0000000000 24.000000000 2262.0000000 1.0000000000
 1597.6250000 28.760000229 25.520000458 4.0000000000 24.000000000 2262.0000000 1.0000000000
 1597.7500000 28.489999771 25.370000839 4.0000000000 24.000000000 2262.0000000 1.0000000000
 1597.8750000 28.829999924 25.270000458 4.0000000000 24.000000000 2262.0000000 1.0000000000
 1598.0000000 29.930000305 25.229999542 4.0000000000 24.000000000 2262.0000000 1.0000000000
 1598.1250000 30.659999847 25.229999542 4.0000000000 24.000000000 2262.0000000 1.0000000000
 1598.2500000 30.280000687 25.290000916 4.0000000000 24.000000000 2262.0000000 1.0000000000
 1598.3750000 29.239999771 25.430000305 4.0000000000 24.000000000 2262.0000000 1.0000000000
 1598.5000000 28.280000687 25.639999390 4.0000000000 24.000000000 2262.0000000 1.0000000000
 1598.6250000 26.590000153 25.909999847 4.0000000000 24.000000000 2262.0000000 1.0000000000
 1598.7500000 23.870000839 26.250000000 4.0000000000 24.000000000 2262.0000000 1.0000000000
 1598.8750000 21.450000763 26.649999619 4.0000000000 24.000000000 2262.0000000 1.0000000000
 1599.0000000 19.350000381 27.100000381 4.0000000000 24.000000000 2262.0000000 1.0000000000
 1599.1250000 16.440000534 27.610000610 4.0000000000 24.000000000 2262.0000000 1.0000000000
 1599.2500000 13.479999542 28.139999390 4.0000000000 24.000000000 2262.0000000 1.0000000000
 1599.3750000 11.640000343 28.690000534  -999.250000 0.1000000015 0.1000000015 0.0000000000
 1599.5000000 11.159999847 29.239999771  -999.250000 0.1000000015 0.1000000015 0.0000000000
 1599.6250000 11.449999809 29.770000458  -999.250000 0.1000000015 0.1000000015 0.0000000000
 1599.7500000 11.489999771 30.280000687  -999.250000 0.1000000015 0.1000000015 0.0000000000
 1599.8750000 10.689999580 30.739999771  -999.250000 0.1000000015 0.1000000015 0.0000000000
 1600.0000000 9.6000003815 31.139999390  -999.250000 0.1000000015 0.1000000015 0.0000000000
 1600.1250000 9.0000000000 31.479999542  -999.250000 0.1000000015 0.1000000015 0.0000000000
 1600.2500000 9.4899997711 31.750000000  -999.250000 0.1000000015 0.1000000015 0.0000000000
 1600.3750000 12.489999771 31.920000076  -999.250000 0.1000000015 0.1000000015 0.0000000000
 1600.5000000 17.319999695 32.009998322 4.0000000000 15.000000000 209.00000000 1.0000000000
 1600.6250000 20.520000458 32.009998322 4.0000000000 15.000000000 209.00000000 1.0000000000
 1600.7500000 18.329999924 31.959999084 4.0000000000 15.000000000 209.00000000 1.0000000000
 1600.8750000 13.340000153 31.879999161 4.0000000000 15.000000000 209.00000000 1.0000000000
 1601.0000000 9.3900003433 31.790000916  -999.250000 0.1000000015 0.1000000015 0.0000000000
 1601.1250000 7.8800001144 31.709999084  -999.250000 0.1000000015 0.1000000015 0.0000000000
 1601.2500000 8.6099996567 31.629999161  -999.250000 0.1000000015 0.1000000015 0.0000000000
 1601.3750000 12.390000343 31.579999924  -999.250000 0.1000000015 0.1000000015 0.0000000000
 1601.5000000 18.639999390 31.520000458 4.0000000000 14.000000000 158.00000000 1.0000000000
 1601.6250000 24.030000687 31.459999084 4.0000000000 14.000000000 158.00000000 1.0000000000
 1601.7500000 23.579999924 31.379999161 4.0000000000 14.000000000 158.00000000 1.0000000000
 1601.8750000 20.020000458 31.290000916 4.0000000000 14.000000000 158.00000000 1.0000000000
 1602.0000000 17.059999466 31.180000305 3.0000000000 11.000000000 41.000000000 1.0000000000
 1602.1250000 15.699999809 31.059999466 3.0000000000 11.000000000 41.000000000 1.0000000000
 1602.2500000 15.359999657 30.950000763 3.0000000000 11.000000000 41.000000000 1.0000000000
 1602.3750000 15.289999962 30.860000610 3.0000000000 11.000000000 41.000000000 1.0000000000
 1602.5000000 13.720000267 30.819999695 3.0000000000 11.000000000 41.000000000 1.0000000000
 1602.6250000 11.770000458 30.840000153 3.0000000000 11.000000000 41.000000000 1.0000000000
 1602.7500000 10.979999542 30.930000305 3.0000000000 11.000000000 41.000000000 1.0000000000
 1602.8750000 11.470000267 31.090000153 3.0000000000 11.000000000 41.000000000 1.0000000000
 1603.0000000 12.359999657 31.280000687 3.0000000000 11.000000000 41.000000000 1.0000000000
 1603.1250000 12.779999733 31.500000000 3.0000000000 11.000000000 41.000000000 1.0000000000
 1603.2500000 11.750000000 31.709999084 3.0000000000 11.000000000 41.000000000 1.0000000000
 1603.3750000 9.4600000381 31.920000076  -999.250000 0.1000000015 0.1000000015 0.0000000000
 1603.5000000 7.4800000191 32.119998932  -999.250000 0.1000000015 0.1000000015 0.0000000000
 1603.6250000 6.6900000572 32.310001373  -999.250000 0.1000000015 0.1000000015 0.0000000000
 1603.7500000 7.0300002098 32.470001221  -999.250000 0.1000000015 0.1000000015 0.0000000000
 1603.8750000 8.7600002289 32.569999695  -999.250000 0.1000000015 0.1000000015 0.0000000000
