# LAS format log file from PETREL
# Project units are specified as depth units
#==================================================================
~Version information
VERS.   2.0:
WRAP.   NO:
#==================================================================
~Well
STRT .m      212.00000000 :
STOP .m      1748.0000000 :
STEP .m     0.12500000 :
NULL .        -999.250000 :
COMP.           : COMPANY
WELL.  51-164   : WELL
FLD.            : FIELD
LOC.            : LOCATION
SRVC.           : SERVICE COMPANY
DATE.  2020-03-08 09:25:10   : Log Export Date {yyyy-MM-dd HH:mm:ss}
PROV.           : PROVINCE
UWI.      : UNIQUE WELL ID
API.            : API NUMBER
#==================================================================
~Curve
DEPT .m                   : DEPTH
RT .ohm.m                 : RT
SP .                      : SP
Fluids .                  : Fluids
POR .m3/m3                : POR
PERM .mD                  : PERM
Lith .                    : Lith
~Parameter
#==================================================================
~Ascii
# ...
 1691.0000000 5.7899999619 39.330001831  -999.250000 0.1000000015 0.1000000015 0.0000000000
 1691.1250000 5.7800002098 39.520000458  -999.250000 0.1000000015 0.1000000015 0.0000000000
 1691.2500000 5.9699997902 39.680000305  -999.250000 0.1000000015 0.1000000015 0.0000000000
 1691.3750000 6.3899998665 39.799999237  -999.250000 0.1000000015 0.1000000015 0.0000000000
 1691.5000000 7.1700000763 39.869998932 3.0000000000 13.000000000 190.00000000 1.0000000000
 1691.6250000 8.1999998093 39.900001526 3.0000000000 13.000000000 190.00000000 1.0000000000
 1691.7500000 8.8299999237 39.889999390 3.0000000000 13.000000000 190.00000000 1.0000000000
 1691.8750000 8.7899999619 39.849998474 3.0000000000 13.000000000 190.00000000 1.0000000000
 1692.0000000 8.6300001144 39.790000916 3.0000000000 13.000000000 190.00000000 1.0000000000
 1692.1250000 8.5900001526 39.720001221 3.0000000000 13.000000000 190.00000000 1.0000000000
 1692.2500000 8.2100000381 39.639999390 3.0000000000 13.000000000 190.00000000 1.0000000000
 1692.3750000 7.5199999809 39.560001373 3.0000000000 13.000000000 190.00000000 1.0000000000
 1692.5000000 6.9499998093 39.479999542 3.0000000000 13.000000000 190.00000000 1.0000000000
 1692.6250000 6.6900000572 39.400001526 3.0000000000 13.000000000 190.00000000 1.0000000000
 1692.7500000 6.6900000572 39.330001831 3.0000000000 13.000000000 190.00000000 1.0000000000
 1692.8750000 6.9800000191 39.259998322 3.0000000000 13.000000000 190.00000000 1.0000000000
 1693.0000000 7.5199999809 39.180000305 3.0000000000 13.000000000 190.00000000 1.0000000000
 1693.1250000 8.0200004578 39.090000153 3.0000000000 13.000000000 190.00000000 1.0000000000
 1693.2500000 8.1099996567 38.979999542 3.0000000000 13.000000000 190.00000000 1.0000000000
 1693.3750000 7.9099998474 38.849998474 3.0000000000 13.000000000 190.00000000 1.0000000000
 1693.5000000 7.9800000191 38.709999084 3.0000000000 13.000000000 190.00000000 1.0000000000
 1693.6250000 8.6099996567 38.549999237 3.0000000000 13.000000000 190.00000000 1.0000000000
 1693.7500000 9.5799999237 38.369998932 3.0000000000 13.000000000 190.00000000 1.0000000000
 1693.8750000 10.449999809 38.180000305 3.0000000000 13.000000000 190.00000000 1.0000000000
 1694.0000000 10.970000267 37.970001221 3.0000000000 13.000000000 190.00000000 1.0000000000
 1694.1250000 11.340000153 37.759998322 3.0000000000 13.000000000 190.00000000 1.0000000000
 1694.2500000 11.670000076 37.569999695 3.0000000000 13.000000000 190.00000000 1.0000000000
 1694.3750000 11.649999619 37.400001526 3.0000000000 13.000000000 190.00000000 1.0000000000
 1694.5000000 11.180000305 37.250000000 3.0000000000 13.000000000 190.00000000 1.0000000000
 1694.6250000 10.640000343 37.119998932 3.0000000000 13.000000000 190.00000000 1.0000000000
 1694.7500000 10.329999924 37.029998779 3.0000000000 13.000000000 190.00000000 1.0000000000
 1694.8750000 10.119999886 36.970001221 3.0000000000 13.000000000 190.00000000 1.0000000000
 1695.0000000 9.7299995422 36.939998627 3.0000000000 13.000000000 190.00000000 1.0000000000
 1695.1250000 9.1599998474 36.950000763 3.0000000000 13.000000000 190.00000000 1.0000000000
 1695.2500000 8.5299997330 36.970001221 3.0000000000 13.000000000 190.00000000 1.0000000000
 1695.3750000 7.9600000381 36.990001678 3.0000000000 13.000000000 190.00000000 1.0000000000
 1695.5000000 7.9299998283 37.009998322 3.0000000000 13.000000000 190.00000000 1.0000000000
 1695.6250000 8.9499998093 37.029998779 3.0000000000 13.000000000 190.00000000 1.0000000000
 1695.7500000 10.850000381 37.049999237 3.0000000000 13.000000000 190.00000000 1.0000000000
 1695.8750000 12.619999886 37.040000916 3.0000000000 13.000000000 190.00000000 1.0000000000
 1696.0000000 13.140000343 37.009998322 3.0000000000 13.000000000 190.00000000 1.0000000000
 1696.1250000 12.020000458 36.950000763 3.0000000000 13.000000000 190.00000000 1.0000000000
 1696.2500000 10.130000114 36.880001068 3.0000000000 13.000000000 190.00000000 1.0000000000
 1696.3750000 8.5299997330 36.819999695 3.0000000000 13.000000000 190.00000000 1.0000000000
 1696.5000000 7.5999999046 36.759998322 3.0000000000 13.000000000 190.00000000 1.0000000000
 1696.6250000 7.5100002289 36.689998627 3.0000000000 13.000000000 190.00000000 1.0000000000
 1696.7500000 8.4099998474 36.619998932 3.0000000000 13.000000000 190.00000000 1.0000000000
 1696.8750000 10.000000000 36.549999237 3.0000000000 13.000000000 190.00000000 1.0000000000
 1697.0000000 11.520000458 36.459999084 3.0000000000 13.000000000 190.00000000 1.0000000000
 1697.1250000 12.479999542 36.349998474 3.0000000000 13.000000000 190.00000000 1.0000000000
 1697.2500000 12.760000229 36.200000763 3.0000000000 13.000000000 190.00000000 1.0000000000
 1697.3750000 12.529999733 36.029998779 3.0000000000 13.000000000 190.00000000 1.0000000000
 1697.5000000 12.149999619 35.849998474 3.0000000000 13.000000000 190.00000000 1.0000000000
 1697.6250000 12.189999580 35.669998169 3.0000000000 13.000000000 190.00000000 1.0000000000
 1697.7500000 12.720000267 35.500000000 3.0000000000 13.000000000 190.00000000 1.0000000000
 1697.8750000 12.960000038 35.369998932 3.0000000000 13.000000000 190.00000000 1.0000000000
 1698.0000000 12.050000191 35.270000458 3.0000000000 13.000000000 190.00000000 1.0000000000
 1698.1250000 10.920000076 35.200000763 3.0000000000 13.000000000 190.00000000 1.0000000000
 1698.2500000 10.609999657 35.180000305 3.0000000000 13.000000000 190.00000000 1.0000000000
 1698.3750000 11.210000038 35.189998627 3.0000000000 13.000000000 190.00000000 1.0000000000
 1698.5000000 13.159999847 35.220001221 3.0000000000 13.000000000 190.00000000 1.0000000000
 1698.6250000 16.620000839 35.259998322 3.0000000000 13.000000000 190.00000000 1.0000000000
 1698.7500000 19.670000076 35.299999237 3.0000000000 13.000000000 190.00000000 1.0000000000
 1698.8750000 20.799999237 35.299999237 3.0000000000 13.000000000 190.00000000 1.0000000000
 1699.0000000 20.159999847 35.270000458 3.0000000000 13.000000000 190.00000000 1.0000000000
 1699.1250000 18.690000534 35.200000763 3.0000000000 13.000000000 190.00000000 1.0000000000
 1699.2500000 17.059999466 35.099998474 3.0000000000 13.000000000 190.00000000 1.0000000000
 1699.3750000 15.649999619 34.970001221 3.0000000000 13.000000000 190.00000000 1.0000000000
 1699.5000000 14.590000153 34.799999237 3.0000000000 13.000000000 190.00000000 1.0000000000
 1699.6250000 13.989999771 34.599998474 3.0000000000 13.000000000 190.00000000 1.0000000000
 1699.7500000 13.800000191 34.360000610 3.0000000000 13.000000000 190.00000000 1.0000000000
 1699.8750000 13.810000420 34.119998932 3.0000000000 13.000000000 190.00000000 1.0000000000
 1700.0000000 14.050000191 33.900001526 3.0000000000 13.000000000 190.00000000 1.0000000000
 1700.1250000 14.500000000 33.689998627 3.0000000000 13.000000000 190.00000000 1.0000000000
 1700.2500000 15.020000458 33.520000458 3.0000000000 13.000000000 190.00000000 1.0000000000
 1700.3750000 15.579999924 33.360000610 3.0000000000 13.000000000 190.00000000 1.0000000000
 1700.5000000 16.229999542 33.229999542 3.0000000000 13.000000000 190.00000000 1.0000000000
 1700.6250000 16.989999771 33.130001068 3.0000000000 13.000000000 190.00000000 1.0000000000
 1700.7500000 18.190000534 33.069999695 3.0000000000 13.000000000 190.00000000 1.0000000000
 1700.8750000 19.930000305 33.040000916 3.0000000000 13.000000000 190.00000000 1.0000000000
 1701.0000000 21.840000153 33.049999237 3.0000000000 13.000000000 190.00000000 1.0000000000
 1701.1250000 23.920000076 33.090000153 3.0000000000 13.000000000 190.00000000 1.0000000000
 1701.2500000 26.260000229 33.159999847 3.0000000000 13.000000000 190.00000000 1.0000000000
 1701.3750000 27.319999695 33.259998322 3.0000000000 13.000000000 190.00000000 1.0000000000
 1701.5000000 24.809999466 33.380001068 3.0000000000 13.000000000 190.00000000 1.0000000000
 1701.6250000 20.120000839 33.509998322 3.0000000000 13.000000000 190.00000000 1.0000000000
 1701.7500000 16.549999237 33.650001526 3.0000000000 13.000000000 190.00000000 1.0000000000
