# LAS format log file from PETREL
# Project units are specified as depth units
#==================================================================
~Version information
VERS.   2.0:
WRAP.   NO:
#==================================================================
~Well
STRT .m      1580.8750000 :
STOP .m      1709.7500000 :
STEP .m     0.12500000 :
NULL .        -999.250000 :
COMP.           : COMPANY
WELL.  51-166   : WELL
FLD.            : FIELD
LOC.            : LOCATION
SRVC.           : SERVICE COMPANY
DATE.  2020-03-08 09:25:10   : Log Export Date {yyyy-MM-dd HH:mm:ss}
PROV.           : PROVINCE
UWI.      : UNIQUE WELL ID
API.            : API NUMBER
#==================================================================
~Curve
DEPT .m                   : DEPTH
Fluids .                  : Fluids
POR .m3/m3                : POR
PERM .mD                  : PERM
Lith .                    : Lith
~Parameter
#==================================================================
~Ascii
# ...
 1596.1250000 2.0000000000 20.000000000 419.00000000 1.0000000000
 1596.2500000 2.0000000000 20.000000000 419.00000000 1.0000000000
 1596.3750000 2.0000000000 20.000000000 419.00000000 1.0000000000
 1596.5000000 2.0000000000 20.000000000 419.00000000 1.0000000000
 1596.6250000 2.0000000000 20.000000000 419.00000000 1.0000000000
 1596.7500000 2.0000000000 20.000000000 419.00000000 1.0000000000
 1596.8750000 2.0000000000 20.000000000 419.00000000 1.0000000000
 1597.0000000 2.0000000000 20.000000000 419.00000000 1.0000000000
 1597.1250000 2.0000000000 20.000000000 419.00000000 1.0000000000
 1597.2500000 2.0000000000 20.000000000 419.00000000 1.0000000000
 1597.3750000 2.0000000000 20.000000000 419.00000000 1.0000000000
 1597.5000000 2.0000000000 20.000000000 419.00000000 1.0000000000
 1597.6250000 2.0000000000 20.000000000 419.00000000 1.0000000000
 1597.7500000 2.0000000000 20.000000000 419.00000000 1.0000000000
 1597.8750000 2.0000000000 20.000000000 419.00000000 1.0000000000
 1598.0000000 2.0000000000 20.000000000 419.00000000 1.0000000000
 1598.1250000 2.0000000000 20.000000000 419.00000000 1.0000000000
 1598.2500000 2.0000000000 20.000000000 419.00000000 1.0000000000
 1598.3750000 2.0000000000 20.000000000 419.00000000 1.0000000000
 1598.5000000 2.0000000000 20.000000000 419.00000000 1.0000000000
 1598.6250000 2.0000000000 20.000000000 419.00000000 1.0000000000
 1598.7500000 2.0000000000 20.000000000 419.00000000 1.0000000000
 1598.8750000 2.0000000000 20.000000000 419.00000000 1.0000000000
 1599.0000000 2.0000000000 20.000000000 419.00000000 1.0000000000
 1599.1250000 2.0000000000 20.000000000 419.00000000 1.0000000000
 1599.2500000 2.0000000000 20.000000000 419.00000000 1.0000000000
 1599.3750000 2.0000000000 20.000000000 419.00000000 1.0000000000
 1599.5000000 2.0000000000 20.000000000 419.00000000 1.0000000000
 1599.6250000 2.0000000000 20.000000000 419.00000000 1.0000000000
 1599.7500000 2.0000000000 20.000000000 419.00000000 1.0000000000
 1599.8750000 2.0000000000 20.000000000 419.00000000 1.0000000000
 1600.0000000 2.0000000000 20.000000000 419.00000000 1.0000000000
 1600.1250000 2.0000000000 20.000000000 419.00000000 1.0000000000
 1600.2500000 2.0000000000 20.000000000 419.00000000 1.0000000000
 1600.3750000 2.0000000000 20.000000000 419.00000000 1.0000000000
 1600.5000000 2.0000000000 20.000000000 419.00000000 1.0000000000
 1600.6250000 2.0000000000 20.000000000 419.00000000 1.0000000000
 1600.7500000 2.0000000000 20.000000000 419.00000000 1.0000000000
 1600.8750000 2.0000000000 20.000000000 419.00000000 1.0000000000
 1601.0000000 2.0000000000 20.000000000 419.00000000 1.0000000000
 1601.1250000 2.0000000000 20.000000000 419.00000000 1.0000000000
 1601.2500000 2.0000000000 20.000000000 419.00000000 1.0000000000
 1601.3750000 2.0000000000 20.000000000 419.00000000 1.0000000000
 1601.5000000 2.0000000000 20.000000000 419.00000000 1.0000000000
 1601.6250000 2.0000000000 20.000000000 419.00000000 1.0000000000
 1601.7500000 2.0000000000 20.000000000 419.00000000 1.0000000000
 1601.8750000 2.0000000000 20.000000000 419.00000000 1.0000000000
 1602.0000000 2.0000000000 20.000000000 419.00000000 1.0000000000
 1602.1250000 2.0000000000 20.000000000 419.00000000 1.0000000000
 1602.2500000 2.0000000000 20.000000000 419.00000000 1.0000000000
 1602.3750000 2.0000000000 20.000000000 419.00000000 1.0000000000
 1602.5000000 2.0000000000 20.000000000 419.00000000 1.0000000000
 1602.6250000 2.0000000000 20.000000000 419.00000000 1.0000000000
 1602.7500000 2.0000000000 20.000000000 419.00000000 1.0000000000
 1602.8750000 2.0000000000 20.000000000 419.00000000 1.0000000000
 1603.0000000 2.0000000000 20.000000000 419.00000000 1.0000000000
 1603.1250000 2.0000000000 20.000000000 419.00000000 1.0000000000
 1603.2500000 2.0000000000 20.000000000 419.00000000 1.0000000000
 1603.3750000 2.0000000000 20.000000000 419.00000000 1.0000000000
 1603.5000000 2.0000000000 20.000000000 419.00000000 1.0000000000
 1603.6250000 2.0000000000 20.000000000 419.00000000 1.0000000000
 1603.7500000 2.0000000000 20.000000000 419.00000000 1.0000000000
 1603.8750000 2.0000000000 20.000000000 419.00000000 1.0000000000
 1604.0000000 2.0000000000 20.000000000 419.00000000 1.0000000000
 1604.1250000 2.0000000000 20.000000000 419.00000000 1.0000000000
 1604.2500000 2.0000000000 20.000000000 419.00000000 1.0000000000
 1604.3750000 2.0000000000 20.000000000 419.00000000 1.0000000000
 1604.5000000 2.0000000000 20.000000000 419.00000000 1.0000000000
 1604.6250000 2.0000000000 20.000000000 419.00000000 1.0000000000
 1604.7500000 2.0000000000 20.000000000 419.00000000 1.0000000000
 1604.8750000 2.0000000000 20.000000000 419.00000000 1.0000000000
 1605.0000000 2.0000000000 20.000000000 419.00000000 1.0000000000
 1605.1250000 2.0000000000 20.000000000 419.00000000 1.0000000000
 1605.2500000 2.0000000000 20.000000000 419.00000000 1.0000000000
 1605.3750000 2.0000000000 20.000000000 419.00000000 1.0000000000
 1605.5000000 2.0000000000 20.000000000 419.00000000 1.0000000000
 1605.6250000 2.0000000000 20.000000000 419.00000000 1.0000000000
 1605.7500000 2.0000000000 20.000000000 419.00000000 1.0000000000
 1605.8750000 2.0000000000 20.000000000 419.00000000 1.0000000000
 1606.0000000 2.0000000000 20.000000000 419.00000000 1.0000000000
 1606.1250000 2.0000000000 20.000000000 419.00000000 1.0000000000
 1606.2500000 2.0000000000 20.000000000 419.00000000 1.0000000000
 1606.3750000 2.0000000000 20.000000000 419.00000000 1.0000000000
 1606.5000000 2.0000000000 20.000000000 419.00000000 1.0000000000
 1606.6250000 2.0000000000 20.000000000 419.00000000 1.0000000000
 1606.7500000 2.0000000000 20.000000000 419.00000000 1.0000000000
 1606.8750000 2.0000000000 20.000000000 419.00000000 1.0000000000
 1607.0000000 2.0000000000 20.000000000 419.00000000 1.0000000000
 1607.1250000 2.0000000000 20.000000000 419.00000000 1.0000000000
 1607.2500000 2.0000000000 20.000000000 419.00000000 1.0000000000
 1607.3750000 2.0000000000 20.000000000 419.00000000 1.0000000000
 1607.5000000 2.0000000000 20.000000000 419.00000000 1.0000000000
 1607.6250000 2.0000000000 20.000000000 419.00000000 1.0000000000
 1607.7500000 2.0000000000 20.000000000 419.00000000 1.0000000000
 1607.8750000 2.0000000000 20.000000000 419.00000000 1.0000000000
 1608.0000000 2.0000000000 20.000000000 419.00000000 1.0000000000
 1608.1250000 2.0000000000 20.000000000 419.00000000 1.0000000000
 1608.2500000 2.0000000000 20.000000000 419.00000000 1.0000000000
 1608.3750000 2.0000000000 20.000000000 419.00000000 1.0000000000
 1608.5000000 2.0000000000 20.000000000 419.00000000 1.0000000000
 1608.6250000 2.0000000000 20.000000000 419.00000000 1.0000000000
 1608.7500000 2.0000000000 20.000000000 419.00000000 1.0000000000
 1608.8750000 2.0000000000 20.000000000 419.00000000 1.0000000000
 1609.0000000 2.0000000000 20.000000000 419.00000000 1.0000000000
 1609.1250000 2.0000000000 20.000000000 419.00000000 1.0000000000
 1609.2500000 2.0000000000 20.000000000 419.00000000 1.0000000000
 1609.3750000 2.0000000000 20.000000000 419.00000000 1.0000000000
 1609.5000000 2.0000000000 20.000000000 419.00000000 1.0000000000
 1609.6250000 2.0000000000 20.000000000 419.00000000 1.0000000000
 1609.7500000 2.0000000000 20.000000000 419.00000000 1.0000000000
 1609.8750000 2.0000000000 20.000000000 419.00000000 1.0000000000
 1610.0000000 2.0000000000 20.000000000 419.00000000 1.0000000000
 1610.1250000 2.0000000000 20.000000000 419.00000000 1.0000000000
 1610.2500000 2.0000000000 20.000000000 419.00000000 1.0000000000
 1610.3750000 2.0000000000 20.000000000 419.00000000 1.0000000000
 1610.5000000 2.0000000000 20.000000000 419.00000000 1.0000000000
 1610.6250000 2.0000000000 20.000000000 419.00000000 1.0000000000
 1610.7500000 2.0000000000 20.000000000 419.00000000 1.0000000000
 1610.8750000 2.0000000000 20.000000000 419.00000000 1.0000000000
 1611.0000000 2.0000000000 20.000000000 419.00000000 1.0000000000
 1611.1250000 2.0000000000 20.000000000 419.00000000 1.0000000000
 1611.2500000 2.0000000000 20.000000000 419.00000000 1.0000000000
