# LAS format log file from PETREL
# Project units are specified as depth units
#==================================================================
~Version information
VERS.   2.0:
WRAP.   NO:
#==================================================================
~Well
STRT .m      730.00000000 :
STOP .m      1740.0000000 :
STEP .m     0.12500000 :
NULL .        -999.250000 :
COMP.           : COMPANY
WELL.  51-165   : WELL
FLD.            : FIELD
LOC.            : LOCATION
SRVC.           : SERVICE COMPANY
DATE.  2020-03-08 09:25:10   : Log Export Date {yyyy-MM-dd HH:mm:ss}
PROV.           : PROVINCE
UWI.      : UNIQUE WELL ID
API.            : API NUMBER
#==================================================================
~Curve
DEPT .m                   : DEPTH
RT .ohm.m                 : RT
SP .                      : SP
Fluids .                  : Fluids
POR .m3/m3                : POR
PERM .mD                  : PERM
Lith .                    : Lith
~Parameter
#==================================================================
~Ascii
# ...
 1567.3750000 2.5171999931 -9999.000000  -999.250000  -999.250000  -999.250000  -999.250000
 1567.5000000 2.4949998856 -9999.000000  -999.250000  -999.250000  -999.250000  -999.250000
 1567.6250000 2.5127000809 -9999.000000  -999.250000  -999.250000  -999.250000  -999.250000
 1567.7500000 2.5304999352 -9999.000000  -999.250000  -999.250000  -999.250000  -999.250000
 1567.8750000 2.5481998920 -9999.000000  -999.250000  -999.250000  -999.250000  -999.250000
 1568.0000000 2.5659999847 -9999.000000  -999.250000  -999.250000  -999.250000  -999.250000
 1568.1250000 2.4939999580 -9999.000000  -999.250000  -999.250000  -999.250000  -999.250000
 1568.2500000 2.4219999313 -9999.000000  -999.250000  -999.250000  -999.250000  -999.250000
 1568.3750000 2.3499999046 -9999.000000  -999.250000  -999.250000  -999.250000  -999.250000
 1568.5000000 2.2780001163 -9999.000000  -999.250000  -999.250000  -999.250000  -999.250000
 1568.6250000 2.3587999344 -9999.000000  -999.250000  -999.250000  -999.250000  -999.250000
 1568.7500000 2.4395000935 -9999.000000  -999.250000  -999.250000  -999.250000  -999.250000
 1568.8750000 2.5202999115 -9999.000000  -999.250000  -999.250000  -999.250000  -999.250000
 1569.0000000 2.6010000706 -9999.000000  -999.250000  -999.250000  -999.250000  -999.250000
 1569.1250000 2.9395000935 -9999.000000  -999.250000  -999.250000  -999.250000  -999.250000
 1569.2500000 3.2780001163 -9999.000000  -999.250000  -999.250000  -999.250000  -999.250000
 1569.3750000 3.6164999008 -9999.000000  -999.250000  -999.250000  -999.250000  -999.250000
 1569.5000000 3.9549999237 -9999.000000  -999.250000  -999.250000  -999.250000  -999.250000
 1569.6250000 4.1405000687 -9999.000000  -999.250000  -999.250000  -999.250000  -999.250000
 1569.7500000 4.3260002136 -9999.000000  -999.250000  -999.250000  -999.250000  -999.250000
 1569.8750000 4.5114998817 -9999.000000  -999.250000  -999.250000  -999.250000  -999.250000
 1570.0000000 4.6970000267 -9999.000000  -999.250000  -999.250000  -999.250000  -999.250000
 1570.1250000 5.2534999847 -9999.000000  -999.250000  -999.250000  -999.250000  -999.250000
 1570.2500000 5.8099999428 -9999.000000  -999.250000  -999.250000  -999.250000  -999.250000
 1570.3750000 6.3664999008 -9999.000000  -999.250000  -999.250000  -999.250000  -999.250000
 1570.5000000 6.9229998589 -9999.000000  -999.250000  -999.250000  -999.250000  -999.250000
 1570.6250000 7.8260002136 -9999.000000  -999.250000  -999.250000  -999.250000  -999.250000
 1570.7500000 8.7290000916 -9999.000000  -999.250000  -999.250000  -999.250000  -999.250000
 1570.8750000 9.6319999695 -9999.000000  -999.250000  -999.250000  -999.250000  -999.250000
 1571.0000000 10.534999847 -9999.000000  -999.250000  -999.250000  -999.250000  -999.250000
 1571.1250000 10.550200462 -9999.000000  -999.250000  -999.250000  -999.250000  -999.250000
 1571.2500000 10.565500259 -9999.000000  -999.250000  -999.250000  -999.250000  -999.250000
 1571.3750000 10.580699921 -9999.000000  -999.250000  -999.250000  -999.250000  -999.250000
 1571.5000000 10.595999718 -9999.000000  -999.250000  -999.250000  -999.250000  -999.250000
 1571.6250000 12.596799850 -9999.000000 4.0000000000 14.000000000 73.000000000 1.0000000000
 1571.7500000 14.597499847 -9999.000000 4.0000000000 14.000000000 73.000000000 1.0000000000
 1571.8750000 16.598300934 -9999.000000 4.0000000000 14.000000000 73.000000000 1.0000000000
 1572.0000000 18.599000931 -9999.000000 4.0000000000 14.000000000 73.000000000 1.0000000000
 1572.1250000 21.332300186 -9999.000000 4.0000000000 14.000000000 73.000000000 1.0000000000
 1572.2500000 24.065500259 -9999.000000 4.0000000000 14.000000000 73.000000000 1.0000000000
 1572.3750000 26.798700333 -9999.000000 4.0000000000 14.000000000 73.000000000 1.0000000000
 1572.5000000 29.531999588 -9999.000000 4.0000000000 14.000000000 73.000000000 1.0000000000
 1572.6250000 26.981500626 -9999.000000 4.0000000000 14.000000000 73.000000000 1.0000000000
 1572.7500000 24.430999756 -9999.000000 4.0000000000 14.000000000 73.000000000 1.0000000000
 1572.8750000 21.880500793 -9999.000000 4.0000000000 14.000000000 73.000000000 1.0000000000
 1573.0000000 19.329999924 -9999.000000 4.0000000000 14.000000000 73.000000000 1.0000000000
 1573.1250000 20.806299210 -9999.000000 4.0000000000 14.000000000 73.000000000 1.0000000000
 1573.2500000 22.282499313 -9999.000000 4.0000000000 14.000000000 73.000000000 1.0000000000
 1573.3750000 23.758800507 -9999.000000 4.0000000000 14.000000000 73.000000000 1.0000000000
 1573.5000000 25.235000610 -9999.000000 4.0000000000 14.000000000 73.000000000 1.0000000000
 1573.6250000 22.138299942 -9999.000000 4.0000000000 14.000000000 73.000000000 1.0000000000
 1573.7500000 19.041500092 -9999.000000 4.0000000000 14.000000000 73.000000000 1.0000000000
 1573.8750000 15.944700241 -9999.000000 4.0000000000 14.000000000 73.000000000 1.0000000000
 1574.0000000 12.847999573 -9999.000000  -999.250000 0.1000000015 0.1000000015 0.0000000000
 1574.1250000 11.357199669 -9999.000000  -999.250000 0.1000000015 0.1000000015 0.0000000000
 1574.2500000 9.8664999008 -9999.000000  -999.250000 0.1000000015 0.1000000015 0.0000000000
 1574.3750000 8.3758001328 -9999.000000  -999.250000 0.1000000015 0.1000000015 0.0000000000
 1574.5000000 6.8850002289 -9999.000000  -999.250000 0.1000000015 0.1000000015 0.0000000000
 1574.6250000 7.2652997971 -9999.000000  -999.250000 0.1000000015 0.1000000015 0.0000000000
 1574.7500000 7.6455001831 -9999.000000  -999.250000 0.1000000015 0.1000000015 0.0000000000
 1574.8750000 8.0257997513 -9999.000000  -999.250000 0.1000000015 0.1000000015 0.0000000000
 1575.0000000 8.4060001373 -9999.000000  -999.250000 0.1000000015 0.1000000015 0.0000000000
 1575.1250000 8.3660001755 -9999.000000  -999.250000 0.1000000015 0.1000000015 0.0000000000
 1575.2500000 8.3260002136 -9999.000000  -999.250000 0.1000000015 0.1000000015 0.0000000000
 1575.3750000 8.2860002518 -9999.000000  -999.250000 0.1000000015 0.1000000015 0.0000000000
 1575.5000000 8.2460002899 -9999.000000  -999.250000 0.1000000015 0.1000000015 0.0000000000
 1575.6250000 10.560799599 -9999.000000 4.0000000000 18.000000000 241.00000000 1.0000000000
 1575.7500000 12.875499725 -9999.000000 4.0000000000 18.000000000 241.00000000 1.0000000000
 1575.8750000 15.190199852 -9999.000000 4.0000000000 18.000000000 241.00000000 1.0000000000
 1576.0000000 17.504999161 -9999.000000 4.0000000000 18.000000000 241.00000000 1.0000000000
 1576.1250000 15.653499603 -9999.000000 4.0000000000 18.000000000 241.00000000 1.0000000000
 1576.2500000 13.802000046 -9999.000000 4.0000000000 18.000000000 241.00000000 1.0000000000
 1576.3750000 11.950499535 -9999.000000 4.0000000000 18.000000000 241.00000000 1.0000000000
 1576.5000000 10.098999977 -9999.000000  -999.250000 0.1000000015 0.1000000015 0.0000000000
 1576.6250000 9.7344999313 -9999.000000  -999.250000 0.1000000015 0.1000000015 0.0000000000
 1576.7500000 9.3699998856 -9999.000000  -999.250000 0.1000000015 0.1000000015 0.0000000000
 1576.8750000 9.0054998398 -9999.000000  -999.250000 0.1000000015 0.1000000015 0.0000000000
 1577.0000000 8.6409997940 -9999.000000  -999.250000 0.1000000015 0.1000000015 0.0000000000
 1577.1250000 10.909500122 -9999.000000 4.0000000000 16.000000000 167.00000000 1.0000000000
 1577.2500000 13.178000450 -9999.000000 4.0000000000 16.000000000 167.00000000 1.0000000000
 1577.3750000 15.446499825 -9999.000000 4.0000000000 16.000000000 167.00000000 1.0000000000
 1577.5000000 17.715000153 -9999.000000 4.0000000000 16.000000000 167.00000000 1.0000000000
 1577.6250000 17.372299194 -9999.000000 4.0000000000 16.000000000 167.00000000 1.0000000000
 1577.7500000 17.029499054 -9999.000000 4.0000000000 16.000000000 167.00000000 1.0000000000
 1577.8750000 16.686700821 -9999.000000 4.0000000000 16.000000000 167.00000000 1.0000000000
 1578.0000000 16.343999863 -9999.000000 4.0000000000 16.000000000 167.00000000 1.0000000000
 1578.1250000 16.882999420 -9999.000000 4.0000000000 16.000000000 167.00000000 1.0000000000
