# LAS format log file from PETREL
# Project units are specified as depth units
#==================================================================
~Version information
VERS.   2.0:
WRAP.   NO:
#==================================================================
~Well
STRT .m      1580.8750000 :
STOP .m      1709.7500000 :
STEP .m     0.12500000 :
NULL .        -999.250000 :
COMP.           : COMPANY
WELL.  51-166   : WELL
FLD.            : FIELD
LOC.            : LOCATION
SRVC.           : SERVICE COMPANY
DATE.  2020-03-08 09:25:10   : Log Export Date {yyyy-MM-dd HH:mm:ss}
PROV.           : PROVINCE
UWI.      : UNIQUE WELL ID
API.            : API NUMBER
#==================================================================
~Curve
DEPT .m                   : DEPTH
Fluids .                  : Fluids
POR .m3/m3                : POR
PERM .mD                  : PERM
Lith .                    : Lith
~Parameter
#==================================================================
~Ascii
# ...
 1626.6250000  -999.250000 0.1000000015 0.1000000015 0.0000000000
 1626.7500000  -999.250000 0.1000000015 0.1000000015 0.0000000000
 1626.8750000  -999.250000 0.1000000015 0.1000000015 0.0000000000
 1627.0000000  -999.250000 0.1000000015 0.1000000015 0.0000000000
 1627.1250000  -999.250000 0.1000000015 0.1000000015 0.0000000000
 1627.2500000  -999.250000 0.1000000015 0.1000000015 0.0000000000
 1627.3750000  -999.250000 0.1000000015 0.1000000015 0.0000000000
 1627.5000000  -999.250000 0.1000000015 0.1000000015 0.0000000000
 1627.6250000  -999.250000 0.1000000015 0.1000000015 0.0000000000
 1627.7500000  -999.250000 0.1000000015 0.1000000015 0.0000000000
 1627.8750000  -999.250000 0.1000000015 0.1000000015 0.0000000000
 1628.0000000  -999.250000 0.1000000015 0.1000000015 0.0000000000
 1628.1250000  -999.250000 0.1000000015 0.1000000015 0.0000000000
 1628.2500000  -999.250000 0.1000000015 0.1000000015 0.0000000000
 1628.3750000  -999.250000 0.1000000015 0.1000000015 0.0000000000
 1628.5000000  -999.250000 0.1000000015 0.1000000015 0.0000000000
 1628.6250000  -999.250000 0.1000000015 0.1000000015 0.0000000000
 1628.7500000  -999.250000 0.1000000015 0.1000000015 0.0000000000
 1628.8750000  -999.250000 0.1000000015 0.1000000015 0.0000000000
 1629.0000000  -999.250000 0.1000000015 0.1000000015 0.0000000000
 1629.1250000  -999.250000 0.1000000015 0.1000000015 0.0000000000
 1629.2500000  -999.250000 0.1000000015 0.1000000015 0.0000000000
 1629.3750000  -999.250000 0.1000000015 0.1000000015 0.0000000000
 1629.5000000  -999.250000 0.1000000015 0.1000000015 0.0000000000
 1629.6250000  -999.250000 0.1000000015 0.1000000015 0.0000000000
 1629.7500000  -999.250000 0.1000000015 0.1000000015 0.0000000000
 1629.8750000  -999.250000 0.1000000015 0.1000000015 0.0000000000
 1630.0000000  -999.250000 0.1000000015 0.1000000015 0.0000000000
 1630.1250000  -999.250000 0.1000000015 0.1000000015 0.0000000000
 1630.2500000  -999.250000 0.1000000015 0.1000000015 0.0000000000
 1630.3750000  -999.250000 0.1000000015 0.1000000015 0.0000000000
 1630.5000000  -999.250000 0.1000000015 0.1000000015 0.0000000000
 1630.6250000  -999.250000 0.1000000015 0.1000000015 0.0000000000
 1630.7500000  -999.250000 0.1000000015 0.1000000015 0.0000000000
 1630.8750000  -999.250000 0.1000000015 0.1000000015 0.0000000000
 1631.0000000  -999.250000 0.1000000015 0.1000000015 0.0000000000
 1631.1250000  -999.250000 0.1000000015 0.1000000015 0.0000000000
 1631.2500000  -999.250000 0.1000000015 0.1000000015 0.0000000000
 1631.3750000  -999.250000 0.1000000015 0.1000000015 0.0000000000
 1631.5000000  -999.250000 0.1000000015 0.1000000015 0.0000000000
 1631.6250000  -999.250000 0.1000000015 0.1000000015 0.0000000000
 1631.7500000  -999.250000 0.1000000015 0.1000000015 0.0000000000
 1631.8750000  -999.250000 0.1000000015 0.1000000015 0.0000000000
 1632.0000000  -999.250000 0.1000000015 0.1000000015 0.0000000000
 1632.1250000  -999.250000 0.1000000015 0.1000000015 0.0000000000
 1632.2500000  -999.250000 0.1000000015 0.1000000015 0.0000000000
 1632.3750000  -999.250000 0.1000000015 0.1000000015 0.0000000000
 1632.5000000  -999.250000 0.1000000015 0.1000000015 0.0000000000
 1632.6250000  -999.250000 0.1000000015 0.1000000015 0.0000000000
 1632.7500000  -999.250000 0.1000000015 0.1000000015 0.0000000000
 1632.8750000  -999.250000 0.1000000015 0.1000000015 0.0000000000
 1633.0000000  -999.250000 0.1000000015 0.1000000015 0.0000000000
 1633.1250000  -999.250000 0.1000000015 0.1000000015 0.0000000000
 1633.2500000  -999.250000 0.1000000015 0.1000000015 0.0000000000
 1633.3750000  -999.250000 0.1000000015 0.1000000015 0.0000000000
 1633.5000000  -999.250000 0.1000000015 0.1000000015 0.0000000000
 1633.6250000  -999.250000 0.1000000015 0.1000000015 0.0000000000
 1633.7500000  -999.250000 0.1000000015 0.1000000015 0.0000000000
 1633.8750000  -999.250000 0.1000000015 0.1000000015 0.0000000000
 1634.0000000  -999.250000 0.1000000015 0.1000000015 0.0000000000
 1634.1250000  -999.250000 0.1000000015 0.1000000015 0.0000000000
 1634.2500000  -999.250000 0.1000000015 0.1000000015 0.0000000000
 1634.3750000  -999.250000 0.1000000015 0.1000000015 0.0000000000
 1634.5000000  -999.250000 0.1000000015 0.1000000015 0.0000000000
 1634.6250000  -999.250000 0.1000000015 0.1000000015 0.0000000000
 1634.7500000  -999.250000 0.1000000015 0.1000000015 0.0000000000
 1634.8750000  -999.250000 0.1000000015 0.1000000015 0.0000000000
 1635.0000000  -999.250000 0.1000000015 0.1000000015 0.0000000000
 1635.1250000  -999.250000 0.1000000015 0.1000000015 0.0000000000
 1635.2500000  -999.250000 0.1000000015 0.1000000015 0.0000000000
 1635.3750000  -999.250000 0.1000000015 0.1000000015 0.0000000000
 1635.5000000  -999.250000 0.1000000015 0.1000000015 0.0000000000
 1635.6250000  -999.250000 0.1000000015 0.1000000015 0.0000000000
 1635.7500000  -999.250000 0.1000000015 0.1000000015 0.0000000000
 1635.8750000  -999.250000 0.1000000015 0.1000000015 0.0000000000
 1636.0000000  -999.250000 0.1000000015 0.1000000015 0.0000000000
 1636.1250000  -999.250000 0.1000000015 0.1000000015 0.0000000000
 1636.2500000  -999.250000 0.1000000015 0.1000000015 0.0000000000
 1636.3750000  -999.250000 0.1000000015 0.1000000015 0.0000000000
 1636.5000000  -999.250000 0.1000000015 0.1000000015 0.0000000000
 1636.6250000  -999.250000 0.1000000015 0.1000000015 0.0000000000
 1636.7500000  -999.250000 0.1000000015 0.1000000015 0.0000000000
 1636.8750000  -999.250000 0.1000000015 0.1000000015 0.0000000000
 1637.0000000  -999.250000 0.1000000015 0.1000000015 0.0000000000
 1637.1250000  -999.250000 0.1000000015 0.1000000015 0.0000000000
 1637.2500000  -999.250000 0.1000000015 0.1000000015 0.0000000000
 1637.3750000  -999.250000 0.1000000015 0.1000000015 0.0000000000
 1637.5000000  -999.250000 0.1000000015 0.1000000015 0.0000000000
 1637.6250000  -999.250000 0.1000000015 0.1000000015 0.0000000000
 1637.7500000  -999.250000 0.1000000015 0.1000000015 0.0000000000
 1637.8750000  -999.250000 0.1000000015 0.1000000015 0.0000000000
 1638.0000000  -999.250000 0.1000000015 0.1000000015 0.0000000000
 1638.1250000  -999.250000 0.1000000015 0.1000000015 0.0000000000
 1638.2500000  -999.250000 0.1000000015 0.1000000015 0.0000000000
 1638.3750000  -999.250000 0.1000000015 0.1000000015 0.0000000000
 1638.5000000  -999.250000 0.1000000015 0.1000000015 0.0000000000
 1638.6250000  -999.250000 0.1000000015 0.1000000015 0.0000000000
 1638.7500000  -999.250000 0.1000000015 0.1000000015 0.0000000000
 1638.8750000  -999.250000 0.1000000015 0.1000000015 0.0000000000
 1639.0000000  -999.250000 0.1000000015 0.1000000015 0.0000000000
 1639.1250000  -999.250000 0.1000000015 0.1000000015 0.0000000000
 1639.2500000  -999.250000 0.1000000015 0.1000000015 0.0000000000
 1639.3750000  -999.250000 0.1000000015 0.1000000015 0.0000000000
 1639.5000000  -999.250000 0.1000000015 0.1000000015 0.0000000000
 1639.6250000  -999.250000 0.1000000015 0.1000000015 0.0000000000
 1639.7500000  -999.250000 0.1000000015 0.1000000015 0.0000000000
 1639.8750000  -999.250000 0.1000000015 0.1000000015 0.0000000000
 1640.0000000  -999.250000 0.1000000015 0.1000000015 0.0000000000
 1640.1250000  -999.250000 0.1000000015 0.1000000015 0.0000000000
 1640.2500000  -999.250000 0.1000000015 0.1000000015 0.0000000000
 1640.3750000  -999.250000 0.1000000015 0.1000000015 0.0000000000
 1640.5000000  -999.250000 0.1000000015 0.1000000015 0.0000000000
 1640.6250000  -999.250000 0.1000000015 0.1000000015 0.0000000000
 1640.7500000  -999.250000 0.1000000015 0.1000000015 0.0000000000
 1640.8750000  -999.250000 0.1000000015 0.1000000015 0.0000000000
 1641.0000000  -999.250000 0.1000000015 0.1000000015 0.0000000000
 1641.1250000  -999.250000 0.1000000015 0.1000000015 0.0000000000
 1641.2500000  -999.250000 0.1000000015 0.1000000015 0.0000000000
 1641.3750000  -999.250000 0.1000000015 0.1000000015 0.0000000000
 1641.5000000  -999.250000 0.1000000015 0.1000000015 0.0000000000
 1641.6250000  -999.250000 0.1000000015 0.1000000015 0.0000000000
 1641.7500000  -999.250000 0.1000000015 0.1000000015 0.0000000000
