# LAS format log file from PETREL
# Project units are specified as depth units
#==================================================================
~Version information
VERS.   2.0:
WRAP.   NO:
#==================================================================
~Well
STRT .m      212.00000000 :
STOP .m      1748.0000000 :
STEP .m     0.12500000 :
NULL .        -999.250000 :
COMP.           : COMPANY
WELL.  51-164   : WELL
FLD.            : FIELD
LOC.            : LOCATION
SRVC.           : SERVICE COMPANY
DATE.  2020-03-08 09:25:10   : Log Export Date {yyyy-MM-dd HH:mm:ss}
PROV.           : PROVINCE
UWI.      : UNIQUE WELL ID
API.            : API NUMBER
#==================================================================
~Curve
DEPT .m                   : DEPTH
RT .ohm.m                 : RT
SP .                      : SP
Fluids .                  : Fluids
POR .m3/m3                : POR
PERM .mD                  : PERM
Lith .                    : Lith
~Parameter
#==================================================================
~Ascii
# ...
 1582.2500000 21.729999542 28.739999771 4.0000000000 22.000000000 1679.0000000 1.0000000000
 1582.3750000 17.120000839 28.979999542 4.0000000000 22.000000000 1679.0000000 1.0000000000
 1582.5000000 14.149999619 29.209999084 4.0000000000 22.000000000 1679.0000000 1.0000000000
 1582.6250000 12.270000458 29.440000534 4.0000000000 22.000000000 1679.0000000 1.0000000000
 1582.7500000 10.739999771 29.659999847 4.0000000000 22.000000000 1679.0000000 1.0000000000
 1582.8750000 10.550000191 29.879999161  -999.250000 0.1000000015 0.1000000015 0.0000000000
 1583.0000000 12.520000458 30.079999924 4.0000000000 18.000000000 828.00000000 1.0000000000
 1583.1250000 15.630000114 30.250000000 4.0000000000 18.000000000 828.00000000 1.0000000000
 1583.2500000 18.709999084 30.399999619 4.0000000000 18.000000000 828.00000000 1.0000000000
 1583.3750000 20.319999695 30.520000458 4.0000000000 18.000000000 828.00000000 1.0000000000
 1583.5000000 19.149999619 30.620000839 4.0000000000 18.000000000 828.00000000 1.0000000000
 1583.6250000 17.989999771 30.709999084 4.0000000000 18.000000000 828.00000000 1.0000000000
 1583.7500000 17.780000687 30.780000687 4.0000000000 18.000000000 828.00000000 1.0000000000
 1583.8750000 18.860000610 30.860000610 4.0000000000 18.000000000 828.00000000 1.0000000000
 1584.0000000 21.129999161 30.940000534 4.0000000000 18.000000000 828.00000000 1.0000000000
 1584.1250000 22.899999619 31.030000687 4.0000000000 18.000000000 828.00000000 1.0000000000
 1584.2500000 22.629999161 31.120000839 4.0000000000 18.000000000 828.00000000 1.0000000000
 1584.3750000 21.079999924 31.239999771 4.0000000000 18.000000000 828.00000000 1.0000000000
 1584.5000000 19.459999084 31.399999619 4.0000000000 18.000000000 828.00000000 1.0000000000
 1584.6250000 18.200000763 31.600000381 4.0000000000 18.000000000 828.00000000 1.0000000000
 1584.7500000 16.510000229 31.850000381 4.0000000000 18.000000000 828.00000000 1.0000000000
 1584.8750000 14.029999733 32.139999390 4.0000000000 18.000000000 828.00000000 1.0000000000
 1585.0000000 11.550000191 32.479999542 4.0000000000 18.000000000 828.00000000 1.0000000000
 1585.1250000 9.5500001907 32.869998932 4.0000000000 18.000000000 828.00000000 1.0000000000
 1585.2500000 8.5600004196 33.290000916 4.0000000000 18.000000000 828.00000000 1.0000000000
 1585.3750000 8.6099996567 33.720001221 3.0000000000 8.0000000000 9.0000000000 1.0000000000
 1585.5000000 9.7200002670 34.150001526 3.0000000000 8.0000000000 9.0000000000 1.0000000000
 1585.6250000 11.180000305 34.560001373 3.0000000000 8.0000000000 9.0000000000 1.0000000000
 1585.7500000 11.819999695 34.909999847 3.0000000000 8.0000000000 9.0000000000 1.0000000000
 1585.8750000 10.609999657 35.220001221 3.0000000000 8.0000000000 9.0000000000 1.0000000000
 1586.0000000 8.5200004578 35.470001221  -999.250000 0.1000000015 0.1000000015 0.0000000000
 1586.1250000 6.5900001526 35.680000305  -999.250000 0.1000000015 0.1000000015 0.0000000000
 1586.2500000 5.1100001335 35.860000610  -999.250000 0.1000000015 0.1000000015 0.0000000000
 1586.3750000 4.1700000763 36.000000000  -999.250000 0.1000000015 0.1000000015 0.0000000000
 1586.5000000 3.9100000858 36.090000153  -999.250000 0.1000000015 0.1000000015 0.0000000000
 1586.6250000 4.2300000191 36.139999390  -999.250000 0.1000000015 0.1000000015 0.0000000000
 1586.7500000 5.1100001335 36.130001068  -999.250000 0.1000000015 0.1000000015 0.0000000000
 1586.8750000 6.4099998474 36.060001373  -999.250000 0.1000000015 0.1000000015 0.0000000000
 1587.0000000 7.7899999619 35.909999847  -999.250000 0.1000000015 0.1000000015 0.0000000000
 1587.1250000 8.9200000763 35.669998169  -999.250000 0.1000000015 0.1000000015 0.0000000000
 1587.2500000 9.5200004578 35.360000610  -999.250000 0.1000000015 0.1000000015 0.0000000000
 1587.3750000 9.9700002670 34.970001221  -999.250000 0.1000000015 0.1000000015 0.0000000000
 1587.5000000 11.239999771 34.529998779 4.0000000000 13.000000000 118.00000000 1.0000000000
 1587.6250000 12.899999619 34.069999695 4.0000000000 13.000000000 118.00000000 1.0000000000
 1587.7500000 13.850000381 33.630001068 4.0000000000 13.000000000 118.00000000 1.0000000000
 1587.8750000 13.989999771 33.209999084 4.0000000000 13.000000000 118.00000000 1.0000000000
 1588.0000000 13.630000114 32.830001831 4.0000000000 13.000000000 118.00000000 1.0000000000
 1588.1250000 13.500000000 32.520000458 4.0000000000 13.000000000 118.00000000 1.0000000000
 1588.2500000 15.000000000 32.270000458 4.0000000000 13.000000000 118.00000000 1.0000000000
 1588.3750000 19.579999924 32.099998474 4.0000000000 13.000000000 118.00000000 1.0000000000
 1588.5000000 28.260000229 31.989999771 4.0000000000 13.000000000 118.00000000 1.0000000000
 1588.6250000 39.080001831 31.940000534 4.0000000000 13.000000000 118.00000000 1.0000000000
 1588.7500000 45.560001373 31.950000763 4.0000000000 13.000000000 118.00000000 1.0000000000
 1588.8750000 41.389999390 32.029998779 4.0000000000 13.000000000 118.00000000 1.0000000000
 1589.0000000 29.100000381 32.180000305 4.0000000000 13.000000000 118.00000000 1.0000000000
 1589.1250000 18.819999695 32.369998932 4.0000000000 13.000000000 118.00000000 1.0000000000
 1589.2500000 12.229999542 32.599998474 4.0000000000 13.000000000 118.00000000 1.0000000000
 1589.3750000 8.5200004578 32.860000610  -999.250000 0.1000000015 0.1000000015 0.0000000000
 1589.5000000 7.1100001335 33.119998932  -999.250000 0.1000000015 0.1000000015 0.0000000000
 1589.6250000 6.8699998856 33.369998932  -999.250000 0.1000000015 0.1000000015 0.0000000000
 1589.7500000 7.0999999046 33.580001831  -999.250000 0.1000000015 0.1000000015 0.0000000000
 1589.8750000 8.1099996567 33.729999542  -999.250000 0.1000000015 0.1000000015 0.0000000000
 1590.0000000 9.6800003052 33.790000916  -999.250000 0.1000000015 0.1000000015 0.0000000000
 1590.1250000 10.170000076 33.750000000  -999.250000 0.1000000015 0.1000000015 0.0000000000
 1590.2500000 9.0200004578 33.610000610  -999.250000 0.1000000015 0.1000000015 0.0000000000
 1590.3750000 7.7199997902 33.369998932  -999.250000 0.1000000015 0.1000000015 0.0000000000
 1590.5000000 7.3099999428 33.040000916  -999.250000 0.1000000015 0.1000000015 0.0000000000
 1590.6250000 8.1400003433 32.630001068  -999.250000 0.1000000015 0.1000000015 0.0000000000
 1590.7500000 11.239999771 32.169998169  -999.250000 0.1000000015 0.1000000015 0.0000000000
 1590.8750000 17.440000534 31.649999619  -999.250000 0.1000000015 0.1000000015 0.0000000000
 1591.0000000 24.469999313 31.090000153 4.0000000000 24.000000000 2606.0000000 1.0000000000
 1591.1250000 28.420000076 30.510000229 4.0000000000 24.000000000 2606.0000000 1.0000000000
 1591.2500000 29.209999084 29.940000534 4.0000000000 24.000000000 2606.0000000 1.0000000000
 1591.3750000 29.700000763 29.399999619 4.0000000000 24.000000000 2606.0000000 1.0000000000
 1591.5000000 31.889999390 28.909999847 4.0000000000 24.000000000 2606.0000000 1.0000000000
 1591.6250000 33.740001678 28.489999771 4.0000000000 24.000000000 2606.0000000 1.0000000000
 1591.7500000 32.590000153 28.149999619 4.0000000000 24.000000000 2606.0000000 1.0000000000
 1591.8750000 29.520000458 27.899999619 4.0000000000 24.000000000 2606.0000000 1.0000000000
 1592.0000000 26.430000305 27.770000458 4.0000000000 24.000000000 2606.0000000 1.0000000000
 1592.1250000 23.750000000 27.739999771 4.0000000000 24.000000000 2606.0000000 1.0000000000
 1592.2500000 21.909999847 27.780000687 4.0000000000 24.000000000 2606.0000000 1.0000000000
 1592.3750000 20.219999313 27.870000839 4.0000000000 24.000000000 2606.0000000 1.0000000000
 1592.5000000 17.950000763 27.950000763 4.0000000000 24.000000000 2606.0000000 1.0000000000
 1592.6250000 16.389999390 28.010000229 4.0000000000 24.000000000 2606.0000000 1.0000000000
 1592.7500000 15.869999886 28.040000916 4.0000000000 24.000000000 2606.0000000 1.0000000000
 1592.8750000 16.159999847 28.020000458 4.0000000000 24.000000000 2606.0000000 1.0000000000
 1593.0000000 18.309999466 27.930000305 4.0000000000 24.000000000 2606.0000000 1.0000000000
