# LAS format log file from PETREL
# Project units are specified as depth units
#==================================================================
~Version information
VERS.   2.0:
WRAP.   NO:
#==================================================================
~Well
STRT .m      730.00000000 :
STOP .m      1740.0000000 :
STEP .m     0.12500000 :
NULL .        -999.250000 :
COMP.           : COMPANY
WELL.  51-165   : WELL
FLD.            : FIELD
LOC.            : LOCATION
SRVC.           : SERVICE COMPANY
DATE.  2020-03-08 09:25:10   : Log Export Date {yyyy-MM-dd HH:mm:ss}
PROV.           : PROVINCE
UWI.      : UNIQUE WELL ID
API.            : API NUMBER
#==================================================================
~Curve
DEPT .m                   : DEPTH
RT .ohm.m                 : RT
SP .                      : SP
Fluids .                  : Fluids
POR .m3/m3                : POR
PERM .mD                  : PERM
Lith .                    : Lith
~Parameter
#==================================================================
~Ascii
# ...
 1578.2500000 17.422000885 -9999.000000 4.0000000000 16.000000000 167.00000000 1.0000000000
 1578.3750000 17.961000443 -9999.000000 4.0000000000 16.000000000 167.00000000 1.0000000000
 1578.5000000 18.500000000 -9999.000000 4.0000000000 16.000000000 167.00000000 1.0000000000
 1578.6250000 16.819799423 -9999.000000 4.0000000000 16.000000000 167.00000000 1.0000000000
 1578.7500000 15.139499664 -9999.000000 4.0000000000 16.000000000 167.00000000 1.0000000000
 1578.8750000 13.459300041 -9999.000000 4.0000000000 16.000000000 167.00000000 1.0000000000
 1579.0000000 11.779000282 -9999.000000 4.0000000000 16.000000000 167.00000000 1.0000000000
 1579.1250000 17.770299911 -9999.000000 4.0000000000 16.000000000 167.00000000 1.0000000000
 1579.2500000 23.761499405 -9999.000000 4.0000000000 16.000000000 167.00000000 1.0000000000
 1579.3750000 29.752700806 -9999.000000 4.0000000000 16.000000000 167.00000000 1.0000000000
 1579.5000000 35.743999481 -9999.000000 4.0000000000 16.000000000 167.00000000 1.0000000000
 1579.6250000 27.979499817 -9999.000000  -999.250000 0.1000000015 0.1000000015 0.0000000000
 1579.7500000 20.215000153 -9999.000000  -999.250000 0.1000000015 0.1000000015 0.0000000000
 1579.8750000 12.450499535 -9999.000000  -999.250000 0.1000000015 0.1000000015 0.0000000000
 1580.0000000 4.6859998703 -9999.000000  -999.250000 0.1000000015 0.1000000015 0.0000000000
 1580.1250000 4.1606998444 -9999.000000  -999.250000 0.1000000015 0.1000000015 0.0000000000
 1580.2500000 3.6354999542 -9999.000000  -999.250000 0.1000000015 0.1000000015 0.0000000000
 1580.3750000 3.1101999283 -9999.000000  -999.250000 0.1000000015 0.1000000015 0.0000000000
 1580.5000000 2.5850000381 -9999.000000  -999.250000 0.1000000015 0.1000000015 0.0000000000
 1580.6250000 2.9602999687 -9999.000000  -999.250000 0.1000000015 0.1000000015 0.0000000000
 1580.7500000 3.3355000019 -9999.000000  -999.250000 0.1000000015 0.1000000015 0.0000000000
 1580.8750000 3.7107000351 -9999.000000  -999.250000 0.1000000015 0.1000000015 0.0000000000
 1581.0000000 4.0859999657 -9999.000000  -999.250000 0.1000000015 0.1000000015 0.0000000000
 1581.1250000 4.4727001190 -9999.000000  -999.250000 0.1000000015 0.1000000015 0.0000000000
 1581.2500000 4.8594999313 -9999.000000  -999.250000 0.1000000015 0.1000000015 0.0000000000
 1581.3750000 5.2462000847 -9999.000000  -999.250000 0.1000000015 0.1000000015 0.0000000000
 1581.5000000 5.6329998970 -9999.000000  -999.250000 0.1000000015 0.1000000015 0.0000000000
 1581.6250000 6.4194998741 -9999.000000  -999.250000 0.1000000015 0.1000000015 0.0000000000
 1581.7500000 7.2059998512 -9999.000000  -999.250000 0.1000000015 0.1000000015 0.0000000000
 1581.8750000 7.9924998283 -9999.000000  -999.250000 0.1000000015 0.1000000015 0.0000000000
 1582.0000000 8.7790002823 -9999.000000  -999.250000 0.1000000015 0.1000000015 0.0000000000
 1582.1250000 10.348500252 -9999.000000 4.0000000000 18.000000000 371.00000000 1.0000000000
 1582.2500000 11.918000221 -9999.000000 4.0000000000 18.000000000 371.00000000 1.0000000000
 1582.3750000 13.487500191 -9999.000000 4.0000000000 18.000000000 371.00000000 1.0000000000
 1582.5000000 15.057000160 -9999.000000 4.0000000000 18.000000000 371.00000000 1.0000000000
 1582.6250000 14.588800430 -9999.000000 4.0000000000 18.000000000 371.00000000 1.0000000000
 1582.7500000 14.120499611 -9999.000000 4.0000000000 18.000000000 371.00000000 1.0000000000
 1582.8750000 13.652299881 -9999.000000 4.0000000000 18.000000000 371.00000000 1.0000000000
 1583.0000000 13.184000015 -9999.000000 4.0000000000 18.000000000 371.00000000 1.0000000000
 1583.1250000 12.626700401 -9999.000000 4.0000000000 18.000000000 371.00000000 1.0000000000
 1583.2500000 12.069499969 -9999.000000 4.0000000000 18.000000000 371.00000000 1.0000000000
 1583.3750000 11.512200356 -9999.000000 4.0000000000 18.000000000 371.00000000 1.0000000000
 1583.5000000 10.954999924 -9999.000000 4.0000000000 18.000000000 371.00000000 1.0000000000
 1583.6250000 12.314200401 -9999.000000 4.0000000000 18.000000000 371.00000000 1.0000000000
 1583.7500000 13.673500061 -9999.000000 4.0000000000 18.000000000 371.00000000 1.0000000000
 1583.8750000 15.032799721 -9999.000000 4.0000000000 18.000000000 371.00000000 1.0000000000
 1584.0000000 16.392000198 -9999.000000 4.0000000000 18.000000000 371.00000000 1.0000000000
 1584.1250000 16.658800125 -9999.000000 4.0000000000 18.000000000 371.00000000 1.0000000000
 1584.2500000 16.925500870 -9999.000000 4.0000000000 18.000000000 371.00000000 1.0000000000
 1584.3750000 17.192199707 -9999.000000 4.0000000000 18.000000000 371.00000000 1.0000000000
 1584.5000000 17.458999634 -9999.000000 4.0000000000 18.000000000 371.00000000 1.0000000000
 1584.6250000 18.542999268 -9999.000000 4.0000000000 18.000000000 371.00000000 1.0000000000
 1584.7500000 19.627000809 -9999.000000 4.0000000000 18.000000000 371.00000000 1.0000000000
 1584.8750000 20.711000443 -9999.000000 4.0000000000 18.000000000 371.00000000 1.0000000000
 1585.0000000 21.795000076 -9999.000000 4.0000000000 18.000000000 371.00000000 1.0000000000
 1585.1250000 24.925300598 -9999.000000 4.0000000000 18.000000000 371.00000000 1.0000000000
 1585.2500000 28.055500031 -9999.000000 4.0000000000 18.000000000 371.00000000 1.0000000000
 1585.3750000 31.185800552 -9999.000000 4.0000000000 18.000000000 371.00000000 1.0000000000
 1585.5000000 34.316001892 -9999.000000 4.0000000000 18.000000000 371.00000000 1.0000000000
 1585.6250000 33.003799438 -9999.000000 4.0000000000 18.000000000 371.00000000 1.0000000000
 1585.7500000 31.691499710 -9999.000000 4.0000000000 18.000000000 371.00000000 1.0000000000
 1585.8750000 30.379299164 -9999.000000 4.0000000000 18.000000000 371.00000000 1.0000000000
 1586.0000000 29.066999435 -9999.000000 4.0000000000 18.000000000 371.00000000 1.0000000000
 1586.1250000 30.504499435 -9999.000000 4.0000000000 18.000000000 371.00000000 1.0000000000
 1586.2500000 31.941999435 -9999.000000 4.0000000000 18.000000000 371.00000000 1.0000000000
 1586.3750000 33.379501343 -9999.000000 4.0000000000 18.000000000 371.00000000 1.0000000000
 1586.5000000 34.817001343 -9999.000000 4.0000000000 18.000000000 371.00000000 1.0000000000
 1586.6250000 35.699001312 -9999.000000 4.0000000000 18.000000000 371.00000000 1.0000000000
 1586.7500000 36.581001282 -9999.000000 4.0000000000 18.000000000 371.00000000 1.0000000000
 1586.8750000 37.463001251 -9999.000000 4.0000000000 18.000000000 371.00000000 1.0000000000
 1587.0000000 38.345001221 -9999.000000 4.0000000000 18.000000000 371.00000000 1.0000000000
 1587.1250000 37.825000763 -9999.000000 4.0000000000 18.000000000 371.00000000 1.0000000000
 1587.2500000 37.305000305 -9999.000000 4.0000000000 18.000000000 371.00000000 1.0000000000
 1587.3750000 36.784999847 -9999.000000 4.0000000000 18.000000000 371.00000000 1.0000000000
 1587.5000000 36.264999390 -9999.000000 4.0000000000 18.000000000 371.00000000 1.0000000000
 1587.6250000 33.964500427 -9999.000000 4.0000000000 18.000000000 371.00000000 1.0000000000
 1587.7500000 31.663999557 -9999.000000 4.0000000000 18.000000000 371.00000000 1.0000000000
 1587.8750000 29.363500595 -9999.000000 4.0000000000 18.000000000 371.00000000 1.0000000000
 1588.0000000 27.062999725 -9999.000000 4.0000000000 18.000000000 371.00000000 1.0000000000
 1588.1250000 25.747999191 -9999.000000 4.0000000000 18.000000000 371.00000000 1.0000000000
 1588.2500000 24.433000565 -9999.000000 4.0000000000 18.000000000 371.00000000 1.0000000000
 1588.3750000 23.118000031 -9999.000000 4.0000000000 18.000000000 371.00000000 1.0000000000
 1588.5000000 21.802999496 -9999.000000 4.0000000000 18.000000000 371.00000000 1.0000000000
 1588.6250000 19.694700241 -9999.000000 4.0000000000 18.000000000 371.00000000 1.0000000000
 1588.7500000 17.586500168 -9999.000000 4.0000000000 18.000000000 371.00000000 1.0000000000
 1588.8750000 15.478199959 -9999.000000 4.0000000000 18.000000000 371.00000000 1.0000000000
 1589.0000000 13.369999886 -9999.000000  -999.250000 0.1000000015 0.1000000015 0.0000000000
