# LAS format log file from PETREL
# Project units are specified as depth units
#==================================================================
~Version information
VERS.   2.0:
WRAP.   NO:
#==================================================================
~Well
STRT .m      1580.8750000 :
STOP .m      1709.7500000 :
STEP .m     0.12500000 :
NULL .        -999.250000 :
COMP.           : COMPANY
WELL.  51-166   : WELL
FLD.            : FIELD
LOC.            : LOCATION
SRVC.           : SERVICE COMPANY
DATE.  2020-03-08 09:25:10   : Log Export Date {yyyy-MM-dd HH:mm:ss}
PROV.           : PROVINCE
UWI.      : UNIQUE WELL ID
API.            : API NUMBER
#==================================================================
~Curve
DEPT .m                   : DEPTH
Fluids .                  : Fluids
POR .m3/m3                : POR
PERM .mD                  : PERM
Lith .                    : Lith
~Parameter
#==================================================================
~Ascii
# ...
 1611.3750000 2.0000000000 20.000000000 419.00000000 1.0000000000
 1611.5000000 2.0000000000 20.000000000 419.00000000 1.0000000000
 1611.6250000 2.0000000000 20.000000000 419.00000000 1.0000000000
 1611.7500000 2.0000000000 20.000000000 419.00000000 1.0000000000
 1611.8750000 2.0000000000 20.000000000 419.00000000 1.0000000000
 1612.0000000  -999.250000 0.1000000015 0.1000000015 0.0000000000
 1612.1250000  -999.250000 0.1000000015 0.1000000015 0.0000000000
 1612.2500000  -999.250000 0.1000000015 0.1000000015 0.0000000000
 1612.3750000  -999.250000 0.1000000015 0.1000000015 0.0000000000
 1612.5000000  -999.250000 0.1000000015 0.1000000015 0.0000000000
 1612.6250000  -999.250000 0.1000000015 0.1000000015 0.0000000000
 1612.7500000  -999.250000 0.1000000015 0.1000000015 0.0000000000
 1612.8750000  -999.250000 0.1000000015 0.1000000015 0.0000000000
 1613.0000000  -999.250000 0.1000000015 0.1000000015 0.0000000000
 1613.1250000  -999.250000 0.1000000015 0.1000000015 0.0000000000
 1613.2500000  -999.250000 0.1000000015 0.1000000015 0.0000000000
 1613.3750000  -999.250000 0.1000000015 0.1000000015 0.0000000000
 1613.5000000  -999.250000 0.1000000015 0.1000000015 0.0000000000
 1613.6250000  -999.250000 0.1000000015 0.1000000015 0.0000000000
 1613.7500000  -999.250000 0.1000000015 0.1000000015 0.0000000000
 1613.8750000  -999.250000 0.1000000015 0.1000000015 0.0000000000
 1614.0000000 2.0000000000 14.000000000 115.00000000 1.0000000000
 1614.1250000 2.0000000000 14.000000000 115.00000000 1.0000000000
 1614.2500000 2.0000000000 14.000000000 115.00000000 1.0000000000
 1614.3750000 2.0000000000 14.000000000 115.00000000 1.0000000000
 1614.5000000 2.0000000000 14.000000000 115.00000000 1.0000000000
 1614.6250000 2.0000000000 14.000000000 115.00000000 1.0000000000
 1614.7500000 2.0000000000 14.000000000 115.00000000 1.0000000000
 1614.8750000 2.0000000000 14.000000000 115.00000000 1.0000000000
 1615.0000000 2.0000000000 14.000000000 115.00000000 1.0000000000
 1615.1250000 2.0000000000 14.000000000 115.00000000 1.0000000000
 1615.2500000 2.0000000000 14.000000000 115.00000000 1.0000000000
 1615.3750000 2.0000000000 14.000000000 115.00000000 1.0000000000
 1615.5000000 2.0000000000 14.000000000 115.00000000 1.0000000000
 1615.6250000 2.0000000000 14.000000000 115.00000000 1.0000000000
 1615.7500000 2.0000000000 14.000000000 115.00000000 1.0000000000
 1615.8750000 2.0000000000 14.000000000 115.00000000 1.0000000000
 1616.0000000 2.0000000000 14.000000000 115.00000000 1.0000000000
 1616.1250000 2.0000000000 14.000000000 115.00000000 1.0000000000
 1616.2500000 2.0000000000 14.000000000 115.00000000 1.0000000000
 1616.3750000 2.0000000000 14.000000000 115.00000000 1.0000000000
 1616.5000000 2.0000000000 14.000000000 115.00000000 1.0000000000
 1616.6250000 2.0000000000 14.000000000 115.00000000 1.0000000000
 1616.7500000 2.0000000000 14.000000000 115.00000000 1.0000000000
 1616.8750000 2.0000000000 14.000000000 115.00000000 1.0000000000
 1617.0000000 2.0000000000 14.000000000 115.00000000 1.0000000000
 1617.1250000 2.0000000000 14.000000000 115.00000000 1.0000000000
 1617.2500000 2.0000000000 14.000000000 115.00000000 1.0000000000
 1617.3750000 2.0000000000 14.000000000 115.00000000 1.0000000000
 1617.5000000 2.0000000000 14.000000000 115.00000000 1.0000000000
 1617.6250000 2.0000000000 14.000000000 115.00000000 1.0000000000
 1617.7500000 2.0000000000 14.000000000 115.00000000 1.0000000000
 1617.8750000 2.0000000000 14.000000000 115.00000000 1.0000000000
 1618.0000000 2.0000000000 14.000000000 115.00000000 1.0000000000
 1618.1250000 2.0000000000 14.000000000 115.00000000 1.0000000000
 1618.2500000 2.0000000000 14.000000000 115.00000000 1.0000000000
 1618.3750000 2.0000000000 14.000000000 115.00000000 1.0000000000
 1618.5000000 2.0000000000 14.000000000 115.00000000 1.0000000000
 1618.6250000 2.0000000000 14.000000000 115.00000000 1.0000000000
 1618.7500000 2.0000000000 14.000000000 115.00000000 1.0000000000
 1618.8750000 2.0000000000 14.000000000 115.00000000 1.0000000000
 1619.0000000 2.0000000000 14.000000000 115.00000000 1.0000000000
 1619.1250000 2.0000000000 14.000000000 115.00000000 1.0000000000
 1619.2500000 2.0000000000 14.000000000 115.00000000 1.0000000000
 1619.3750000 2.0000000000 14.000000000 115.00000000 1.0000000000
 1619.5000000 2.0000000000 14.000000000 115.00000000 1.0000000000
 1619.6250000 2.0000000000 14.000000000 115.00000000 1.0000000000
 1619.7500000 2.0000000000 14.000000000 115.00000000 1.0000000000
 1619.8750000 2.0000000000 14.000000000 115.00000000 1.0000000000
 1620.0000000 2.0000000000 14.000000000 115.00000000 1.0000000000
 1620.1250000 2.0000000000 14.000000000 115.00000000 1.0000000000
 1620.2500000 2.0000000000 14.000000000 115.00000000 1.0000000000
 1620.3750000 2.0000000000 14.000000000 115.00000000 1.0000000000
 1620.5000000 2.0000000000 14.000000000 115.00000000 1.0000000000
 1620.6250000 2.0000000000 14.000000000 115.00000000 1.0000000000
 1620.7500000 2.0000000000 14.000000000 115.00000000 1.0000000000
 1620.8750000 2.0000000000 14.000000000 115.00000000 1.0000000000
 1621.0000000 2.0000000000 14.000000000 115.00000000 1.0000000000
 1621.1250000 2.0000000000 14.000000000 115.00000000 1.0000000000
 1621.2500000 2.0000000000 14.000000000 115.00000000 1.0000000000
 1621.3750000 2.0000000000 14.000000000 115.00000000 1.0000000000
 1621.5000000 2.0000000000 14.000000000 115.00000000 1.0000000000
 1621.6250000 2.0000000000 14.000000000 115.00000000 1.0000000000
 1621.7500000 2.0000000000 14.000000000 115.00000000 1.0000000000
 1621.8750000 2.0000000000 14.000000000 115.00000000 1.0000000000
 1622.0000000 2.0000000000 14.000000000 115.00000000 1.0000000000
 1622.1250000 2.0000000000 14.000000000 115.00000000 1.0000000000
 1622.2500000 2.0000000000 14.000000000 115.00000000 1.0000000000
 1622.3750000 2.0000000000 14.000000000 115.00000000 1.0000000000
 1622.5000000 2.0000000000 14.000000000 115.00000000 1.0000000000
 1622.6250000 2.0000000000 14.000000000 115.00000000 1.0000000000
 1622.7500000 2.0000000000 14.000000000 115.00000000 1.0000000000
 1622.8750000 2.0000000000 14.000000000 115.00000000 1.0000000000
 1623.0000000 2.0000000000 14.000000000 115.00000000 1.0000000000
 1623.1250000 2.0000000000 14.000000000 115.00000000 1.0000000000
 1623.2500000 2.0000000000 14.000000000 115.00000000 1.0000000000
 1623.3750000 2.0000000000 14.000000000 115.00000000 1.0000000000
 1623.5000000 2.0000000000 14.000000000 115.00000000 1.0000000000
 1623.6250000  -999.250000 0.1000000015 0.1000000015 0.0000000000
 1623.7500000  -999.250000 0.1000000015 0.1000000015 0.0000000000
 1623.8750000  -999.250000 0.1000000015 0.1000000015 0.0000000000
 1624.0000000  -999.250000 0.1000000015 0.1000000015 0.0000000000
 1624.1250000  -999.250000 0.1000000015 0.1000000015 0.0000000000
 1624.2500000  -999.250000 0.1000000015 0.1000000015 0.0000000000
 1624.3750000  -999.250000 0.1000000015 0.1000000015 0.0000000000
 1624.5000000  -999.250000 0.1000000015 0.1000000015 0.0000000000
 1624.6250000  -999.250000 0.1000000015 0.1000000015 0.0000000000
 1624.7500000  -999.250000 0.1000000015 0.1000000015 0.0000000000
 1624.8750000  -999.250000 0.1000000015 0.1000000015 0.0000000000
 1625.0000000  -999.250000 0.1000000015 0.1000000015 0.0000000000
 1625.1250000  -999.250000 0.1000000015 0.1000000015 0.0000000000
 1625.2500000  -999.250000 0.1000000015 0.1000000015 0.0000000000
 1625.3750000  -999.250000 0.1000000015 0.1000000015 0.0000000000
 1625.5000000  -999.250000 0.1000000015 0.1000000015 0.0000000000
 1625.6250000  -999.250000 0.1000000015 0.1000000015 0.0000000000
 1625.7500000  -999.250000 0.1000000015 0.1000000015 0.0000000000
 1625.8750000  -999.250000 0.1000000015 0.1000000015 0.0000000000
 1626.0000000  -999.250000 0.1000000015 0.1000000015 0.0000000000
 1626.1250000  -999.250000 0.1000000015 0.1000000015 0.0000000000
 1626.2500000  -999.250000 0.1000000015 0.1000000015 0.0000000000
 1626.3750000  -999.250000 0.1000000015 0.1000000015 0.0000000000
 1626.5000000  -999.250000 0.1000000015 0.1000000015 0.0000000000
