# LAS format log file from PETREL
# Project units are specified as depth units
#==================================================================
~Version information
VERS.   2.0:
WRAP.   NO:
#==================================================================
~Well
STRT .m      212.00000000 :
STOP .m      1748.0000000 :
STEP .m     0.12500000 :
NULL .        -999.250000 :
COMP.           : COMPANY
WELL.  51-164   : WELL
FLD.            : FIELD
LOC.            : LOCATION
SRVC.           : SERVICE COMPANY
DATE.  2020-03-08 09:25:10   : Log Export Date {yyyy-MM-dd HH:mm:ss}
PROV.           : PROVINCE
UWI.      : UNIQUE WELL ID
API.            : API NUMBER
#==================================================================
~Curve
DEPT .m                   : DEPTH
RT .ohm.m                 : RT
SP .                      : SP
Fluids .                  : Fluids
POR .m3/m3                : POR
PERM .mD                  : PERM
Lith .                    : Lith
~Parameter
#==================================================================
~Ascii
# ...
 1680.1250000 27.479999542 28.219999313 4.0000000000 22.000000000 2008.0000000 1.0000000000
 1680.2500000 25.899999619 28.139999390 4.0000000000 22.000000000 2008.0000000 1.0000000000
 1680.3750000 25.010000229 28.100000381 4.0000000000 22.000000000 2008.0000000 1.0000000000
 1680.5000000 24.909999847 28.100000381 4.0000000000 22.000000000 2008.0000000 1.0000000000
 1680.6250000 25.459999084 28.129999161 4.0000000000 22.000000000 2008.0000000 1.0000000000
 1680.7500000 26.250000000 28.200000763 4.0000000000 22.000000000 2008.0000000 1.0000000000
 1680.8750000 26.950000763 28.290000916 4.0000000000 22.000000000 2008.0000000 1.0000000000
 1681.0000000 27.409999847 28.420000076 4.0000000000 22.000000000 2008.0000000 1.0000000000
 1681.1250000 27.959999084 28.579999924 4.0000000000 22.000000000 2008.0000000 1.0000000000
 1681.2500000 28.860000610 28.770000458 4.0000000000 22.000000000 2008.0000000 1.0000000000
 1681.3750000 30.129999161 28.989999771 4.0000000000 22.000000000 2008.0000000 1.0000000000
 1681.5000000 31.620000839 29.229999542 4.0000000000 22.000000000 2008.0000000 1.0000000000
 1681.6250000 32.849998474 29.489999771 4.0000000000 22.000000000 2008.0000000 1.0000000000
 1681.7500000 32.580001831 29.760000229 4.0000000000 22.000000000 2008.0000000 1.0000000000
 1681.8750000 29.969999313 30.030000687 4.0000000000 22.000000000 2008.0000000 1.0000000000
 1682.0000000 26.069999695 30.280000687 4.0000000000 22.000000000 2008.0000000 1.0000000000
 1682.1250000 22.799999237 30.530000687 4.0000000000 22.000000000 2008.0000000 1.0000000000
 1682.2500000 20.690000534 30.770000458 4.0000000000 22.000000000 2008.0000000 1.0000000000
 1682.3750000 19.370000839 31.010000229 4.0000000000 22.000000000 2008.0000000 1.0000000000
 1682.5000000 18.110000610 31.239999771  -999.250000 0.1000000015 0.1000000015 0.0000000000
 1682.6250000 16.000000000 31.479999542  -999.250000 0.1000000015 0.1000000015 0.0000000000
 1682.7500000 13.489999771 31.739999771  -999.250000 0.1000000015 0.1000000015 0.0000000000
 1682.8750000 11.390000343 32.000000000  -999.250000 0.1000000015 0.1000000015 0.0000000000
 1683.0000000 10.210000038 32.279998779  -999.250000 0.1000000015 0.1000000015 0.0000000000
 1683.1250000 10.090000153 32.560001373  -999.250000 0.1000000015 0.1000000015 0.0000000000
 1683.2500000 10.500000000 32.799999237  -999.250000 0.1000000015 0.1000000015 0.0000000000
 1683.3750000 10.899999619 33.000000000  -999.250000 0.1000000015 0.1000000015 0.0000000000
 1683.5000000 11.130000114 33.159999847  -999.250000 0.1000000015 0.1000000015 0.0000000000
 1683.6250000 11.560000420 33.229999542  -999.250000 0.1000000015 0.1000000015 0.0000000000
 1683.7500000 12.729999542 33.240001678  -999.250000 0.1000000015 0.1000000015 0.0000000000
 1683.8750000 14.880000114 33.169998169 3.0000000000 17.000000000 394.00000000 1.0000000000
 1684.0000000 17.430000305 33.040000916 3.0000000000 17.000000000 394.00000000 1.0000000000
 1684.1250000 19.750000000 32.840000153 3.0000000000 17.000000000 394.00000000 1.0000000000
 1684.2500000 21.129999161 32.610000610 3.0000000000 17.000000000 394.00000000 1.0000000000
 1684.3750000 21.649999619 32.369998932 3.0000000000 17.000000000 394.00000000 1.0000000000
 1684.5000000 22.500000000 32.139999390 3.0000000000 17.000000000 394.00000000 1.0000000000
 1684.6250000 24.299999237 31.950000763 3.0000000000 17.000000000 394.00000000 1.0000000000
 1684.7500000 26.319999695 31.829999924 3.0000000000 17.000000000 394.00000000 1.0000000000
 1684.8750000 27.850000381 31.770000458 3.0000000000 17.000000000 394.00000000 1.0000000000
 1685.0000000 28.559999466 31.770000458 3.0000000000 17.000000000 394.00000000 1.0000000000
 1685.1250000 28.399999619 31.870000839 3.0000000000 17.000000000 394.00000000 1.0000000000
 1685.2500000 28.139999390 32.049999237 3.0000000000 17.000000000 394.00000000 1.0000000000
 1685.3750000 28.620000839 32.340000153 3.0000000000 17.000000000 394.00000000 1.0000000000
 1685.5000000 30.149999619 32.729999542 3.0000000000 17.000000000 394.00000000 1.0000000000
 1685.6250000 31.510000229 33.209999084 3.0000000000 17.000000000 394.00000000 1.0000000000
 1685.7500000 29.899999619 33.770000458 3.0000000000 17.000000000 394.00000000 1.0000000000
 1685.8750000 24.000000000 34.380001068 3.0000000000 17.000000000 394.00000000 1.0000000000
 1686.0000000 16.440000534 35.029998779  -999.250000 0.1000000015 0.1000000015 0.0000000000
 1686.1250000 10.619999886 35.720001221  -999.250000 0.1000000015 0.1000000015 0.0000000000
 1686.2500000 7.1300001144 36.419998169  -999.250000 0.1000000015 0.1000000015 0.0000000000
 1686.3750000 5.2399997711 37.119998932  -999.250000 0.1000000015 0.1000000015 0.0000000000
 1686.5000000 4.4299998283 37.799999237  -999.250000 0.1000000015 0.1000000015 0.0000000000
 1686.6250000 4.4299998283 38.419998169  -999.250000 0.1000000015 0.1000000015 0.0000000000
 1686.7500000 4.7800002098 38.979999542  -999.250000 0.1000000015 0.1000000015 0.0000000000
 1686.8750000 5.1900000572 39.470001221  -999.250000 0.1000000015 0.1000000015 0.0000000000
 1687.0000000 5.3600001335 39.869998932  -999.250000 0.1000000015 0.1000000015 0.0000000000
 1687.1250000 5.2500000000 40.189998627  -999.250000 0.1000000015 0.1000000015 0.0000000000
 1687.2500000 5.1300001144 40.430000305  -999.250000 0.1000000015 0.1000000015 0.0000000000
 1687.3750000 5.2800002098 40.590000153  -999.250000 0.1000000015 0.1000000015 0.0000000000
 1687.5000000 5.6599998474 40.680000305  -999.250000 0.1000000015 0.1000000015 0.0000000000
 1687.6250000 6.1300001144 40.709999084  -999.250000 0.1000000015 0.1000000015 0.0000000000
 1687.7500000 6.3499999046 40.700000763  -999.250000 0.1000000015 0.1000000015 0.0000000000
 1687.8750000 6.0900001526 40.659999847  -999.250000 0.1000000015 0.1000000015 0.0000000000
 1688.0000000 5.3699998856 40.619998932  -999.250000 0.1000000015 0.1000000015 0.0000000000
 1688.1250000 4.5999999046 40.599998474  -999.250000 0.1000000015 0.1000000015 0.0000000000
 1688.2500000 4.0900001526 40.610000610  -999.250000 0.1000000015 0.1000000015 0.0000000000
 1688.3750000 3.8900001049 40.630001068  -999.250000 0.1000000015 0.1000000015 0.0000000000
 1688.5000000 4.0100002289 40.639999390  -999.250000 0.1000000015 0.1000000015 0.0000000000
 1688.6250000 4.4000000954 40.639999390  -999.250000 0.1000000015 0.1000000015 0.0000000000
 1688.7500000 4.9000000954 40.610000610  -999.250000 0.1000000015 0.1000000015 0.0000000000
 1688.8750000 5.2600002289 40.569999695  -999.250000 0.1000000015 0.1000000015 0.0000000000
 1689.0000000 5.2199997902 40.509998322  -999.250000 0.1000000015 0.1000000015 0.0000000000
 1689.1250000 4.9699997902 40.400001526  -999.250000 0.1000000015 0.1000000015 0.0000000000
 1689.2500000 5.1599998474 40.240001678  -999.250000 0.1000000015 0.1000000015 0.0000000000
 1689.3750000 6.2300000191 40.049999237  -999.250000 0.1000000015 0.1000000015 0.0000000000
 1689.5000000 8.7899999619 39.819999695 4.0000000000 14.000000000 572.00000000 1.0000000000
 1689.6250000 13.699999809 39.580001831 4.0000000000 14.000000000 572.00000000 1.0000000000
 1689.7500000 19.659999847 39.340000153 4.0000000000 14.000000000 572.00000000 1.0000000000
 1689.8750000 23.540000916 39.099998474 4.0000000000 14.000000000 572.00000000 1.0000000000
 1690.0000000 23.920000076 38.900001526 4.0000000000 14.000000000 572.00000000 1.0000000000
 1690.1250000 21.870000839 38.759998322 4.0000000000 14.000000000 572.00000000 1.0000000000
 1690.2500000 18.399999619 38.669998169 4.0000000000 14.000000000 572.00000000 1.0000000000
 1690.3750000 14.170000076 38.639999390 4.0000000000 14.000000000 572.00000000 1.0000000000
 1690.5000000 10.630000114 38.680000305 4.0000000000 14.000000000 572.00000000 1.0000000000
 1690.6250000 8.4399995804 38.779998779 4.0000000000 14.000000000 572.00000000 1.0000000000
 1690.7500000 7.0500001907 38.939998627 4.0000000000 14.000000000 572.00000000 1.0000000000
 1690.8750000 6.1599998474 39.130001068  -999.250000 0.1000000015 0.1000000015 0.0000000000
