# LAS format log file from PETREL
# Project units are specified as depth units
#==================================================================
~Version information
VERS.   2.0:
WRAP.   NO:
#==================================================================
~Well
STRT .m      212.00000000 :
STOP .m      1748.0000000 :
STEP .m     0.12500000 :
NULL .        -999.250000 :
COMP.           : COMPANY
WELL.  51-164   : WELL
FLD.            : FIELD
LOC.            : LOCATION
SRVC.           : SERVICE COMPANY
DATE.  2020-03-08 09:25:10   : Log Export Date {yyyy-MM-dd HH:mm:ss}
PROV.           : PROVINCE
UWI.      : UNIQUE WELL ID
API.            : API NUMBER
#==================================================================
~Curve
DEPT .m                   : DEPTH
RT .ohm.m                 : RT
SP .                      : SP
Fluids .                  : Fluids
POR .m3/m3                : POR
PERM .mD                  : PERM
Lith .                    : Lith
~Parameter
#==================================================================
~Ascii
# ...
 1571.3750000 33.869998932 25.569999695 4.0000000000 23.000000000 1967.0000000 1.0000000000
 1571.5000000 38.939998627 25.309999466 4.0000000000 23.000000000 1967.0000000 1.0000000000
 1571.6250000 40.200000763 25.030000687 4.0000000000 23.000000000 1967.0000000 1.0000000000
 1571.7500000 39.209999084 24.729999542 4.0000000000 23.000000000 1967.0000000 1.0000000000
 1571.8750000 39.840000153 24.420000076 4.0000000000 23.000000000 1967.0000000 1.0000000000
 1572.0000000 44.060001373 24.120000839 4.0000000000 23.000000000 1967.0000000 1.0000000000
 1572.1250000 49.880001068 23.840000153 4.0000000000 23.000000000 1967.0000000 1.0000000000
 1572.2500000 54.520000458 23.569999695 4.0000000000 23.000000000 1967.0000000 1.0000000000
 1572.3750000 54.919998169 23.350000381 4.0000000000 23.000000000 1967.0000000 1.0000000000
 1572.5000000 48.919998169 23.159999847 4.0000000000 23.000000000 1967.0000000 1.0000000000
 1572.6250000 40.939998627 23.000000000 4.0000000000 23.000000000 1967.0000000 1.0000000000
 1572.7500000 36.470001221 22.879999161 4.0000000000 23.000000000 1967.0000000 1.0000000000
 1572.8750000 36.250000000 22.790000916 4.0000000000 23.000000000 1967.0000000 1.0000000000
 1573.0000000 39.639999390 22.729999542 4.0000000000 23.000000000 1967.0000000 1.0000000000
 1573.1250000 44.409999847 22.690000534 4.0000000000 23.000000000 1967.0000000 1.0000000000
 1573.2500000 47.869998932 22.659999847 4.0000000000 23.000000000 1967.0000000 1.0000000000
 1573.3750000 48.330001831 22.649999619 4.0000000000 23.000000000 1967.0000000 1.0000000000
 1573.5000000 47.229999542 22.649999619 4.0000000000 23.000000000 1967.0000000 1.0000000000
 1573.6250000 44.450000763 22.680000305 4.0000000000 23.000000000 1967.0000000 1.0000000000
 1573.7500000 39.290000916 22.729999542 4.0000000000 23.000000000 1967.0000000 1.0000000000
 1573.8750000 35.069999695 22.790000916 4.0000000000 23.000000000 1967.0000000 1.0000000000
 1574.0000000 33.130001068 22.879999161 4.0000000000 23.000000000 1967.0000000 1.0000000000
 1574.1250000 32.759998322 23.000000000 4.0000000000 23.000000000 1967.0000000 1.0000000000
 1574.2500000 34.150001526 23.149999619 4.0000000000 23.000000000 1967.0000000 1.0000000000
 1574.3750000 38.750000000 23.329999924 4.0000000000 23.000000000 1967.0000000 1.0000000000
 1574.5000000 41.659999847 23.540000916 4.0000000000 23.000000000 1967.0000000 1.0000000000
 1574.6250000 41.580001831 23.770000458 4.0000000000 23.000000000 1967.0000000 1.0000000000
 1574.7500000 39.659999847 24.030000687 4.0000000000 23.000000000 1967.0000000 1.0000000000
 1574.8750000 37.979999542 24.329999924 4.0000000000 23.000000000 1967.0000000 1.0000000000
 1575.0000000 37.650001526 24.659999847 4.0000000000 23.000000000 1967.0000000 1.0000000000
 1575.1250000 38.740001678 25.010000229 4.0000000000 23.000000000 1967.0000000 1.0000000000
 1575.2500000 41.610000610 25.379999161 4.0000000000 23.000000000 1967.0000000 1.0000000000
 1575.3750000 45.509998322 25.770000458 4.0000000000 23.000000000 1967.0000000 1.0000000000
 1575.5000000 47.490001678 26.159999847 4.0000000000 23.000000000 1967.0000000 1.0000000000
 1575.6250000 47.060001373 26.559999466 4.0000000000 23.000000000 1967.0000000 1.0000000000
 1575.7500000 45.610000610 26.950000763 4.0000000000 23.000000000 1967.0000000 1.0000000000
 1575.8750000 41.919998169 27.319999695 4.0000000000 23.000000000 1967.0000000 1.0000000000
 1576.0000000 31.870000839 27.659999847 4.0000000000 23.000000000 1967.0000000 1.0000000000
 1576.1250000 22.319999695 27.969999313 4.0000000000 23.000000000 1967.0000000 1.0000000000
 1576.2500000 16.209999084 28.250000000 4.0000000000 23.000000000 1967.0000000 1.0000000000
 1576.3750000 13.340000153 28.479999542  -999.250000 0.1000000015 0.1000000015 0.0000000000
 1576.5000000 13.590000153 28.670000076  -999.250000 0.1000000015 0.1000000015 0.0000000000
 1576.6250000 17.569999695 28.809999466  -999.250000 0.1000000015 0.1000000015 0.0000000000
 1576.7500000 25.799999237 28.889999390  -999.250000 0.1000000015 0.1000000015 0.0000000000
 1576.8750000 35.869998932 28.920000076 4.0000000000 24.000000000 2225.0000000 1.0000000000
 1577.0000000 43.700000763 28.899999619 4.0000000000 24.000000000 2225.0000000 1.0000000000
 1577.1250000 47.009998322 28.850000381 4.0000000000 24.000000000 2225.0000000 1.0000000000
 1577.2500000 46.659999847 28.799999237 4.0000000000 24.000000000 2225.0000000 1.0000000000
 1577.3750000 45.299999237 28.780000687 4.0000000000 24.000000000 2225.0000000 1.0000000000
 1577.5000000 44.049999237 28.790000916 4.0000000000 24.000000000 2225.0000000 1.0000000000
 1577.6250000 41.220001221 28.879999161 4.0000000000 24.000000000 2225.0000000 1.0000000000
 1577.7500000 34.860000610 29.040000916 4.0000000000 24.000000000 2225.0000000 1.0000000000
 1577.8750000 26.559999466 29.290000916 4.0000000000 24.000000000 2225.0000000 1.0000000000
 1578.0000000 20.260000229 29.620000839 4.0000000000 24.000000000 2225.0000000 1.0000000000
 1578.1250000 16.229999542 30.020000458 4.0000000000 24.000000000 2225.0000000 1.0000000000
 1578.2500000 13.649999619 30.450000763 4.0000000000 24.000000000 2225.0000000 1.0000000000
 1578.3750000 12.010000229 30.889999390  -999.250000 0.1000000015 0.1000000015 0.0000000000
 1578.5000000 10.609999657 31.299999237  -999.250000 0.1000000015 0.1000000015 0.0000000000
 1578.6250000 9.0299997330 31.649999619  -999.250000 0.1000000015 0.1000000015 0.0000000000
 1578.7500000 7.9899997711 31.920000076  -999.250000 0.1000000015 0.1000000015 0.0000000000
 1578.8750000 8.0900001526 32.090000153  -999.250000 0.1000000015 0.1000000015 0.0000000000
 1579.0000000 9.1400003433 32.139999390  -999.250000 0.1000000015 0.1000000015 0.0000000000
 1579.1250000 11.609999657 32.069999695  -999.250000 0.1000000015 0.1000000015 0.0000000000
 1579.2500000 16.049999237 31.879999161  -999.250000 0.1000000015 0.1000000015 0.0000000000
 1579.3750000 20.860000610 31.579999924 4.0000000000 22.000000000 1679.0000000 1.0000000000
 1579.5000000 23.709999084 31.219999313 4.0000000000 22.000000000 1679.0000000 1.0000000000
 1579.6250000 26.389999390 30.799999237 4.0000000000 22.000000000 1679.0000000 1.0000000000
 1579.7500000 29.590000153 30.360000610 4.0000000000 22.000000000 1679.0000000 1.0000000000
 1579.8750000 31.450000763 29.930000305 4.0000000000 22.000000000 1679.0000000 1.0000000000
 1580.0000000 30.000000000 29.549999237 4.0000000000 22.000000000 1679.0000000 1.0000000000
 1580.1250000 24.989999771 29.239999771 4.0000000000 22.000000000 1679.0000000 1.0000000000
 1580.2500000 18.690000534 28.979999542 4.0000000000 22.000000000 1679.0000000 1.0000000000
 1580.3750000 14.649999619 28.790000916 4.0000000000 22.000000000 1679.0000000 1.0000000000
 1580.5000000 13.670000076 28.659999847 4.0000000000 22.000000000 1679.0000000 1.0000000000
 1580.6250000 14.970000267 28.579999924 4.0000000000 22.000000000 1679.0000000 1.0000000000
 1580.7500000 19.549999237 28.530000687 4.0000000000 22.000000000 1679.0000000 1.0000000000
 1580.8750000 27.110000610 28.469999313 4.0000000000 22.000000000 1679.0000000 1.0000000000
 1581.0000000 30.680000305 28.409999847 4.0000000000 22.000000000 1679.0000000 1.0000000000
 1581.1250000 28.549999237 28.329999924 4.0000000000 22.000000000 1679.0000000 1.0000000000
 1581.2500000 24.690000534 28.260000229 4.0000000000 22.000000000 1679.0000000 1.0000000000
 1581.3750000 23.049999237 28.190000534 4.0000000000 22.000000000 1679.0000000 1.0000000000
 1581.5000000 24.440000534 28.149999619 4.0000000000 22.000000000 1679.0000000 1.0000000000
 1581.6250000 28.040000916 28.129999161 4.0000000000 22.000000000 1679.0000000 1.0000000000
 1581.7500000 32.939998627 28.170000076 4.0000000000 22.000000000 1679.0000000 1.0000000000
 1581.8750000 35.409999847 28.250000000 4.0000000000 22.000000000 1679.0000000 1.0000000000
 1582.0000000 31.600000381 28.370000839 4.0000000000 22.000000000 1679.0000000 1.0000000000
 1582.1250000 26.510000229 28.540000916 4.0000000000 22.000000000 1679.0000000 1.0000000000
