# LAS format log file from PETREL
# Project units are specified as depth units
#==================================================================
~Version information
VERS.   2.0:
WRAP.   NO:
#==================================================================
~Well
STRT .m      730.00000000 :
STOP .m      1740.0000000 :
STEP .m     0.12500000 :
NULL .        -999.250000 :
COMP.           : COMPANY
WELL.  51-165   : WELL
FLD.            : FIELD
LOC.            : LOCATION
SRVC.           : SERVICE COMPANY
DATE.  2020-03-08 09:25:10   : Log Export Date {yyyy-MM-dd HH:mm:ss}
PROV.           : PROVINCE
UWI.      : UNIQUE WELL ID
API.            : API NUMBER
#==================================================================
~Curve
DEPT .m                   : DEPTH
RT .ohm.m                 : RT
SP .                      : SP
Fluids .                  : Fluids
POR .m3/m3                : POR
PERM .mD                  : PERM
Lith .                    : Lith
~Parameter
#==================================================================
~Ascii
# ...
 1589.1250000 13.372200012 -9999.000000  -999.250000 0.1000000015 0.1000000015 0.0000000000
 1589.2500000 13.374500275 -9999.000000  -999.250000 0.1000000015 0.1000000015 0.0000000000
 1589.3750000 13.376700401 -9999.000000  -999.250000 0.1000000015 0.1000000015 0.0000000000
 1589.5000000 13.378999710 -9999.000000 4.0000000000 17.000000000 255.00000000 1.0000000000
 1589.6250000 16.731199265 -9999.000000 4.0000000000 17.000000000 255.00000000 1.0000000000
 1589.7500000 20.083499908 -9999.000000 4.0000000000 17.000000000 255.00000000 1.0000000000
 1589.8750000 23.435800552 -9999.000000 4.0000000000 17.000000000 255.00000000 1.0000000000
 1590.0000000 26.788000107 -9999.000000 4.0000000000 17.000000000 255.00000000 1.0000000000
 1590.1250000 23.728700638 -9999.000000 4.0000000000 17.000000000 255.00000000 1.0000000000
 1590.2500000 20.669500351 -9999.000000 4.0000000000 17.000000000 255.00000000 1.0000000000
 1590.3750000 17.610200882 -9999.000000 4.0000000000 17.000000000 255.00000000 1.0000000000
 1590.5000000 14.550999641 -9999.000000 4.0000000000 17.000000000 255.00000000 1.0000000000
 1590.6250000 14.933699608 -9999.000000 4.0000000000 17.000000000 255.00000000 1.0000000000
 1590.7500000 15.316499710 -9999.000000 4.0000000000 17.000000000 255.00000000 1.0000000000
 1590.8750000 15.699299812 -9999.000000 4.0000000000 17.000000000 255.00000000 1.0000000000
 1591.0000000 16.082000732 -9999.000000 4.0000000000 17.000000000 255.00000000 1.0000000000
 1591.1250000 16.098800659 -9999.000000 4.0000000000 17.000000000 255.00000000 1.0000000000
 1591.2500000 16.115499496 -9999.000000 4.0000000000 17.000000000 255.00000000 1.0000000000
 1591.3750000 16.132299423 -9999.000000 4.0000000000 17.000000000 255.00000000 1.0000000000
 1591.5000000 16.149000168 -9999.000000 4.0000000000 17.000000000 255.00000000 1.0000000000
 1591.6250000 15.670499802 -9999.000000 4.0000000000 17.000000000 255.00000000 1.0000000000
 1591.7500000 15.192000389 -9999.000000 4.0000000000 17.000000000 255.00000000 1.0000000000
 1591.8750000 14.713500023 -9999.000000 4.0000000000 17.000000000 255.00000000 1.0000000000
 1592.0000000 14.234999657 -9999.000000 4.0000000000 17.000000000 255.00000000 1.0000000000
 1592.1250000 14.782999992 -9999.000000 4.0000000000 17.000000000 255.00000000 1.0000000000
 1592.2500000 15.331000328 -9999.000000 4.0000000000 17.000000000 255.00000000 1.0000000000
 1592.3750000 15.878999710 -9999.000000 4.0000000000 17.000000000 255.00000000 1.0000000000
 1592.5000000 16.427000046 -9999.000000 4.0000000000 17.000000000 255.00000000 1.0000000000
 1592.6250000 18.132499695 -9999.000000 4.0000000000 17.000000000 255.00000000 1.0000000000
 1592.7500000 19.837999344 -9999.000000 4.0000000000 17.000000000 255.00000000 1.0000000000
 1592.8750000 21.543500900 -9999.000000 4.0000000000 17.000000000 255.00000000 1.0000000000
 1593.0000000 23.249000549 -9999.000000 4.0000000000 17.000000000 255.00000000 1.0000000000
 1593.1250000 21.025999069 -9999.000000 4.0000000000 17.000000000 255.00000000 1.0000000000
 1593.2500000 18.802999496 -9999.000000 4.0000000000 17.000000000 255.00000000 1.0000000000
 1593.3750000 16.579999924 -9999.000000 4.0000000000 17.000000000 255.00000000 1.0000000000
 1593.5000000 14.357000351 -9999.000000 4.0000000000 17.000000000 255.00000000 1.0000000000
 1593.6250000 14.342800140 -9999.000000 4.0000000000 17.000000000 255.00000000 1.0000000000
 1593.7500000 14.328499794 -9999.000000 4.0000000000 17.000000000 255.00000000 1.0000000000
 1593.8750000 14.314299583 -9999.000000 4.0000000000 17.000000000 255.00000000 1.0000000000
 1594.0000000 14.300000191 -9999.000000 4.0000000000 17.000000000 255.00000000 1.0000000000
 1594.1250000 15.597000122 -9999.000000 4.0000000000 17.000000000 255.00000000 1.0000000000
 1594.2500000 16.893999100 -9999.000000 4.0000000000 17.000000000 255.00000000 1.0000000000
 1594.3750000 18.190999985 -9999.000000 4.0000000000 17.000000000 255.00000000 1.0000000000
 1594.5000000 19.488000870 -9999.000000 4.0000000000 17.000000000 255.00000000 1.0000000000
 1594.6250000 18.569299698 -9999.000000 4.0000000000 17.000000000 255.00000000 1.0000000000
 1594.7500000 17.650499344 -9999.000000 4.0000000000 17.000000000 255.00000000 1.0000000000
 1594.8750000 16.731800079 -9999.000000 4.0000000000 17.000000000 255.00000000 1.0000000000
 1595.0000000 15.812999725 -9999.000000 4.0000000000 17.000000000 255.00000000 1.0000000000
 1595.1250000 17.198799133 -9999.000000 4.0000000000 17.000000000 255.00000000 1.0000000000
 1595.2500000 18.584499359 -9999.000000 4.0000000000 17.000000000 255.00000000 1.0000000000
 1595.3750000 19.970300674 -9999.000000 4.0000000000 17.000000000 255.00000000 1.0000000000
 1595.5000000 21.356000900 -9999.000000 4.0000000000 17.000000000 255.00000000 1.0000000000
 1595.6250000 23.132999420 -9999.000000 4.0000000000 17.000000000 255.00000000 1.0000000000
 1595.7500000 24.909999847 -9999.000000 4.0000000000 17.000000000 255.00000000 1.0000000000
 1595.8750000 26.687000275 -9999.000000 4.0000000000 17.000000000 255.00000000 1.0000000000
 1596.0000000 28.464000702 -9999.000000 4.0000000000 17.000000000 255.00000000 1.0000000000
 1596.1250000 28.659500122 -9999.000000 4.0000000000 17.000000000 255.00000000 1.0000000000
 1596.2500000 28.854999542 -9999.000000 4.0000000000 17.000000000 255.00000000 1.0000000000
 1596.3750000 29.050500870 -9999.000000 4.0000000000 17.000000000 255.00000000 1.0000000000
 1596.5000000 29.246000290 -9999.000000 4.0000000000 17.000000000 255.00000000 1.0000000000
 1596.6250000 29.244499207 -9999.000000 4.0000000000 17.000000000 255.00000000 1.0000000000
 1596.7500000 29.243000031 -9999.000000 4.0000000000 17.000000000 255.00000000 1.0000000000
 1596.8750000 29.241500854 -9999.000000 4.0000000000 17.000000000 255.00000000 1.0000000000
 1597.0000000 29.239999771 -9999.000000 4.0000000000 17.000000000 255.00000000 1.0000000000
 1597.1250000 28.074499130 -9999.000000 4.0000000000 17.000000000 255.00000000 1.0000000000
 1597.2500000 26.909000397 -9999.000000 4.0000000000 17.000000000 255.00000000 1.0000000000
 1597.3750000 25.743499756 -9999.000000 4.0000000000 17.000000000 255.00000000 1.0000000000
 1597.5000000 24.577999115 -9999.000000 4.0000000000 17.000000000 255.00000000 1.0000000000
 1597.6250000 25.094200134 -9999.000000 4.0000000000 17.000000000 255.00000000 1.0000000000
 1597.7500000 25.610500336 -9999.000000 4.0000000000 17.000000000 255.00000000 1.0000000000
 1597.8750000 26.126699448 -9999.000000 4.0000000000 17.000000000 255.00000000 1.0000000000
 1598.0000000 26.642999649 -9999.000000 4.0000000000 17.000000000 255.00000000 1.0000000000
 1598.1250000 26.950700760 -9999.000000 4.0000000000 17.000000000 255.00000000 1.0000000000
 1598.2500000 27.258499146 -9999.000000 4.0000000000 17.000000000 255.00000000 1.0000000000
 1598.3750000 27.566299438 -9999.000000 4.0000000000 17.000000000 255.00000000 1.0000000000
 1598.5000000 27.874000549 -9999.000000 4.0000000000 17.000000000 255.00000000 1.0000000000
 1598.6250000 27.576299667 -9999.000000 4.0000000000 17.000000000 255.00000000 1.0000000000
 1598.7500000 27.278499603 -9999.000000 4.0000000000 17.000000000 255.00000000 1.0000000000
 1598.8750000 26.980800629 -9999.000000 4.0000000000 17.000000000 255.00000000 1.0000000000
 1599.0000000 26.683000565 -9999.000000 4.0000000000 17.000000000 255.00000000 1.0000000000
 1599.1250000 25.706499100 -9999.000000 4.0000000000 17.000000000 255.00000000 1.0000000000
 1599.2500000 24.729999542 -9999.000000 4.0000000000 17.000000000 255.00000000 1.0000000000
 1599.3750000 23.753499985 -9999.000000 4.0000000000 17.000000000 255.00000000 1.0000000000
 1599.5000000 22.777000427 -9999.000000 4.0000000000 17.000000000 255.00000000 1.0000000000
 1599.6250000 28.774499893 -9999.000000 4.0000000000 17.000000000 255.00000000 1.0000000000
 1599.7500000 34.771999359 -9999.000000 4.0000000000 17.000000000 255.00000000 1.0000000000
 1599.8750000 40.769500732 -9999.000000 4.0000000000 17.000000000 255.00000000 1.0000000000
