# LAS format log file from PETREL
# Project units are specified as depth units
#==================================================================
~Version information
VERS.   2.0:
WRAP.   NO:
#==================================================================
~Well
STRT .m      730.00000000 :
STOP .m      1740.0000000 :
STEP .m     0.12500000 :
NULL .        -999.250000 :
COMP.           : COMPANY
WELL.  51-165   : WELL
FLD.            : FIELD
LOC.            : LOCATION
SRVC.           : SERVICE COMPANY
DATE.  2020-03-08 09:25:10   : Log Export Date {yyyy-MM-dd HH:mm:ss}
PROV.           : PROVINCE
UWI.      : UNIQUE WELL ID
API.            : API NUMBER
#==================================================================
~Curve
DEPT .m                   : DEPTH
RT .ohm.m                 : RT
SP .                      : SP
Fluids .                  : Fluids
POR .m3/m3                : POR
PERM .mD                  : PERM
Lith .                    : Lith
~Parameter
#==================================================================
~Ascii
# ...
 1665.2500000 32.830501556 -9999.000000 2.0000000000 16.000000000 120.00000000 1.0000000000
 1665.3750000 34.286701202 -9999.000000 2.0000000000 16.000000000 120.00000000 1.0000000000
 1665.5000000 35.743000031 -9999.000000 2.0000000000 16.000000000 120.00000000 1.0000000000
 1665.6250000 30.868999481 -9999.000000 2.0000000000 16.000000000 120.00000000 1.0000000000
 1665.7500000 25.995000839 -9999.000000 2.0000000000 16.000000000 120.00000000 1.0000000000
 1665.8750000 21.121000290 -9999.000000 2.0000000000 16.000000000 120.00000000 1.0000000000
 1666.0000000 16.246999741 -9999.000000  -999.250000 0.1000000015 0.1000000015 0.0000000000
 1666.1250000 15.767700195 -9999.000000  -999.250000 0.1000000015 0.1000000015 0.0000000000
 1666.2500000 15.288499832 -9999.000000  -999.250000 0.1000000015 0.1000000015 0.0000000000
 1666.3750000 14.809200287 -9999.000000  -999.250000 0.1000000015 0.1000000015 0.0000000000
 1666.5000000 14.329999924 -9999.000000  -999.250000 0.1000000015 0.1000000015 0.0000000000
 1666.6250000 16.153699875 -9999.000000 2.0000000000 15.000000000 121.00000000 1.0000000000
 1666.7500000 17.977500916 -9999.000000 2.0000000000 15.000000000 121.00000000 1.0000000000
 1666.8750000 19.801200867 -9999.000000 2.0000000000 15.000000000 121.00000000 1.0000000000
 1667.0000000 21.625000000 -9999.000000 2.0000000000 15.000000000 121.00000000 1.0000000000
 1667.1250000 21.961500168 -9999.000000 2.0000000000 15.000000000 121.00000000 1.0000000000
 1667.2500000 22.298000336 -9999.000000 2.0000000000 15.000000000 121.00000000 1.0000000000
 1667.3750000 22.634500504 -9999.000000 2.0000000000 15.000000000 121.00000000 1.0000000000
 1667.5000000 22.971000671 -9999.000000 2.0000000000 15.000000000 121.00000000 1.0000000000
 1667.6250000 24.215799332 -9999.000000 2.0000000000 15.000000000 121.00000000 1.0000000000
 1667.7500000 25.460500717 -9999.000000 2.0000000000 15.000000000 121.00000000 1.0000000000
 1667.8750000 26.705299377 -9999.000000 2.0000000000 15.000000000 121.00000000 1.0000000000
 1668.0000000 27.950000763 -9999.000000 2.0000000000 15.000000000 121.00000000 1.0000000000
 1668.1250000 28.374799728 -9999.000000 2.0000000000 15.000000000 121.00000000 1.0000000000
 1668.2500000 28.799499512 -9999.000000 2.0000000000 15.000000000 121.00000000 1.0000000000
 1668.3750000 29.224300385 -9999.000000 2.0000000000 15.000000000 121.00000000 1.0000000000
 1668.5000000 29.649000168 -9999.000000 2.0000000000 15.000000000 121.00000000 1.0000000000
 1668.6250000 29.423299789 -9999.000000 2.0000000000 15.000000000 121.00000000 1.0000000000
 1668.7500000 29.197500229 -9999.000000 2.0000000000 15.000000000 121.00000000 1.0000000000
 1668.8750000 28.971799850 -9999.000000 2.0000000000 15.000000000 121.00000000 1.0000000000
 1669.0000000 28.746000290 -9999.000000 2.0000000000 15.000000000 121.00000000 1.0000000000
 1669.1250000 31.376499176 -9999.000000 2.0000000000 15.000000000 121.00000000 1.0000000000
 1669.2500000 34.006999969 -9999.000000 2.0000000000 15.000000000 121.00000000 1.0000000000
 1669.3750000 36.637500763 -9999.000000 2.0000000000 15.000000000 121.00000000 1.0000000000
 1669.5000000 39.268001556 -9999.000000 2.0000000000 15.000000000 121.00000000 1.0000000000
 1669.6250000 37.703800201 -9999.000000 2.0000000000 15.000000000 121.00000000 1.0000000000
 1669.7500000 36.139499664 -9999.000000 2.0000000000 15.000000000 121.00000000 1.0000000000
 1669.8750000 34.575298309 -9999.000000 2.0000000000 15.000000000 121.00000000 1.0000000000
 1670.0000000 33.011001587 -9999.000000 2.0000000000 15.000000000 121.00000000 1.0000000000
 1670.1250000 31.917299271 -9999.000000 2.0000000000 15.000000000 121.00000000 1.0000000000
 1670.2500000 30.823499680 -9999.000000 2.0000000000 15.000000000 121.00000000 1.0000000000
 1670.3750000 29.729799271 -9999.000000 2.0000000000 15.000000000 121.00000000 1.0000000000
 1670.5000000 28.635999680 -9999.000000 2.0000000000 15.000000000 121.00000000 1.0000000000
 1670.6250000 28.793500900 -9999.000000 2.0000000000 15.000000000 121.00000000 1.0000000000
 1670.7500000 28.951000214 -9999.000000 2.0000000000 15.000000000 121.00000000 1.0000000000
 1670.8750000 29.108499527 -9999.000000 2.0000000000 15.000000000 121.00000000 1.0000000000
 1671.0000000 29.266000748 -9999.000000 2.0000000000 15.000000000 121.00000000 1.0000000000
 1671.1250000 28.806800842 -9999.000000 2.0000000000 15.000000000 121.00000000 1.0000000000
 1671.2500000 28.347499847 -9999.000000 2.0000000000 15.000000000 121.00000000 1.0000000000
 1671.3750000 27.888299942 -9999.000000 2.0000000000 15.000000000 121.00000000 1.0000000000
 1671.5000000 27.429000854 -9999.000000 2.0000000000 15.000000000 121.00000000 1.0000000000
 1671.6250000 27.572999954 -9999.000000 2.0000000000 15.000000000 121.00000000 1.0000000000
 1671.7500000 27.716999054 -9999.000000 2.0000000000 15.000000000 121.00000000 1.0000000000
 1671.8750000 27.861000061 -9999.000000 2.0000000000 15.000000000 121.00000000 1.0000000000
 1672.0000000 28.004999161 -9999.000000 2.0000000000 15.000000000 121.00000000 1.0000000000
 1672.1250000 28.735000610 -9999.000000 2.0000000000 15.000000000 121.00000000 1.0000000000
 1672.2500000 29.465000153 -9999.000000 2.0000000000 15.000000000 121.00000000 1.0000000000
 1672.3750000 30.194999695 -9999.000000 2.0000000000 15.000000000 121.00000000 1.0000000000
 1672.5000000 30.924999237 -9999.000000 2.0000000000 15.000000000 121.00000000 1.0000000000
 1672.6250000 29.742700577 -9999.000000 2.0000000000 15.000000000 121.00000000 1.0000000000
 1672.7500000 28.560499191 -9999.000000 2.0000000000 15.000000000 121.00000000 1.0000000000
 1672.8750000 27.378200531 -9999.000000 2.0000000000 15.000000000 121.00000000 1.0000000000
 1673.0000000 26.195999146 -9999.000000 2.0000000000 15.000000000 121.00000000 1.0000000000
 1673.1250000 23.951000214 -9999.000000 2.0000000000 15.000000000 121.00000000 1.0000000000
 1673.2500000 21.705999374 -9999.000000 2.0000000000 15.000000000 121.00000000 1.0000000000
 1673.3750000 19.461000443 -9999.000000 2.0000000000 15.000000000 121.00000000 1.0000000000
 1673.5000000 17.215999603 -9999.000000 2.0000000000 15.000000000 121.00000000 1.0000000000
 1673.6250000 17.978500366 -9999.000000 2.0000000000 15.000000000 121.00000000 1.0000000000
 1673.7500000 18.740999222 -9999.000000 2.0000000000 15.000000000 121.00000000 1.0000000000
 1673.8750000 19.503499985 -9999.000000 2.0000000000 15.000000000 121.00000000 1.0000000000
 1674.0000000 20.266000748 -9999.000000 2.0000000000 15.000000000 121.00000000 1.0000000000
 1674.1250000 20.250000000 -9999.000000 2.0000000000 15.000000000 121.00000000 1.0000000000
 1674.2500000 20.233999252 -9999.000000 2.0000000000 15.000000000 121.00000000 1.0000000000
 1674.3750000 20.218000412 -9999.000000 2.0000000000 15.000000000 121.00000000 1.0000000000
 1674.5000000 20.201999664 -9999.000000  -999.250000 0.1000000015 0.1000000015 0.0000000000
 1674.6250000 17.591699600 -9999.000000  -999.250000 0.1000000015 0.1000000015 0.0000000000
 1674.7500000 14.981499672 -9999.000000  -999.250000 0.1000000015 0.1000000015 0.0000000000
 1674.8750000 12.371199608 -9999.000000  -999.250000 0.1000000015 0.1000000015 0.0000000000
 1675.0000000 9.7609996796 -9999.000000  -999.250000 0.1000000015 0.1000000015 0.0000000000
 1675.1250000 13.110500336 -9999.000000  -999.250000 0.1000000015 0.1000000015 0.0000000000
 1675.2500000 16.459999084 -9999.000000  -999.250000 0.1000000015 0.1000000015 0.0000000000
 1675.3750000 19.809499741 -9999.000000 2.0000000000 14.000000000 106.00000000 1.0000000000
 1675.5000000 23.159000397 -9999.000000 2.0000000000 14.000000000 106.00000000 1.0000000000
 1675.6250000 31.106000900 -9999.000000 2.0000000000 14.000000000 106.00000000 1.0000000000
 1675.7500000 39.053001404 -9999.000000 2.0000000000 14.000000000 106.00000000 1.0000000000
 1675.8750000 47.000000000 -9999.000000 2.0000000000 14.000000000 106.00000000 1.0000000000
 1676.0000000 54.946998596 -9999.000000 2.0000000000 14.000000000 106.00000000 1.0000000000
