# LAS format log file from PETREL
# Project units are specified as depth units
#==================================================================
~Version information
VERS.   2.0:
WRAP.   NO:
#==================================================================
~Well
STRT .m      730.00000000 :
STOP .m      1740.0000000 :
STEP .m     0.12500000 :
NULL .        -999.250000 :
COMP.           : COMPANY
WELL.  51-165   : WELL
FLD.            : FIELD
LOC.            : LOCATION
SRVC.           : SERVICE COMPANY
DATE.  2020-03-08 09:25:10   : Log Export Date {yyyy-MM-dd HH:mm:ss}
PROV.           : PROVINCE
UWI.      : UNIQUE WELL ID
API.            : API NUMBER
#==================================================================
~Curve
DEPT .m                   : DEPTH
RT .ohm.m                 : RT
SP .                      : SP
Fluids .                  : Fluids
POR .m3/m3                : POR
PERM .mD                  : PERM
Lith .                    : Lith
~Parameter
#==================================================================
~Ascii
# ...
 1654.3750000 3.3143000603 -9999.000000  -999.250000 0.1000000015 0.1000000015 0.0000000000
 1654.5000000 3.2320001125 -9999.000000  -999.250000 0.1000000015 0.1000000015 0.0000000000
 1654.6250000 3.1793000698 -9999.000000  -999.250000 0.1000000015 0.1000000015 0.0000000000
 1654.7500000 3.1264998913 -9999.000000  -999.250000 0.1000000015 0.1000000015 0.0000000000
 1654.8750000 3.0736999512 -9999.000000  -999.250000 0.1000000015 0.1000000015 0.0000000000
 1655.0000000 3.0209999084 -9999.000000  -999.250000 0.1000000015 0.1000000015 0.0000000000
 1655.1250000 3.1742000580 -9999.000000  -999.250000 0.1000000015 0.1000000015 0.0000000000
 1655.2500000 3.3275001049 -9999.000000  -999.250000 0.1000000015 0.1000000015 0.0000000000
 1655.3750000 3.4807999134 -9999.000000  -999.250000 0.1000000015 0.1000000015 0.0000000000
 1655.5000000 3.6340000629 -9999.000000  -999.250000 0.1000000015 0.1000000015 0.0000000000
 1655.6250000 3.9137001038 -9999.000000  -999.250000 0.1000000015 0.1000000015 0.0000000000
 1655.7500000 4.1935000420 -9999.000000  -999.250000 0.1000000015 0.1000000015 0.0000000000
 1655.8750000 4.4731998444 -9999.000000  -999.250000 0.1000000015 0.1000000015 0.0000000000
 1656.0000000 4.7529997826 -9999.000000  -999.250000 0.1000000015 0.1000000015 0.0000000000
 1656.1250000 4.3102002144 -9999.000000  -999.250000 0.1000000015 0.1000000015 0.0000000000
 1656.2500000 3.8675000668 -9999.000000  -999.250000 0.1000000015 0.1000000015 0.0000000000
 1656.3750000 3.4247999191 -9999.000000  -999.250000 0.1000000015 0.1000000015 0.0000000000
 1656.5000000 2.9820001125 -9999.000000  -999.250000 0.1000000015 0.1000000015 0.0000000000
 1656.6250000 3.3013000488 -9999.000000  -999.250000 0.1000000015 0.1000000015 0.0000000000
 1656.7500000 3.6205000877 -9999.000000  -999.250000 0.1000000015 0.1000000015 0.0000000000
 1656.8750000 3.9396998882 -9999.000000  -999.250000 0.1000000015 0.1000000015 0.0000000000
 1657.0000000 4.2589998245 -9999.000000  -999.250000 0.1000000015 0.1000000015 0.0000000000
 1657.1250000 5.4054999352 -9999.000000  -999.250000 0.1000000015 0.1000000015 0.0000000000
 1657.2500000 6.5520000458 -9999.000000  -999.250000 0.1000000015 0.1000000015 0.0000000000
 1657.3750000 7.6985001564 -9999.000000  -999.250000 0.1000000015 0.1000000015 0.0000000000
 1657.5000000 8.8450002670 -9999.000000 3.0000000000 10.000000000 35.000000000 1.0000000000
 1657.6250000 9.2757997513 -9999.000000 3.0000000000 10.000000000 35.000000000 1.0000000000
 1657.7500000 9.7065000534 -9999.000000 3.0000000000 10.000000000 35.000000000 1.0000000000
 1657.8750000 10.137200356 -9999.000000 3.0000000000 10.000000000 35.000000000 1.0000000000
 1658.0000000 10.567999840 -9999.000000 3.0000000000 10.000000000 35.000000000 1.0000000000
 1658.1250000 9.3357000351 -9999.000000 3.0000000000 10.000000000 35.000000000 1.0000000000
 1658.2500000 8.1035003662 -9999.000000 3.0000000000 10.000000000 35.000000000 1.0000000000
 1658.3750000 6.8712000847 -9999.000000  -999.250000 0.1000000015 0.1000000015 0.0000000000
 1658.5000000 5.6389999390 -9999.000000  -999.250000 0.1000000015 0.1000000015 0.0000000000
 1658.6250000 6.5640001297 -9999.000000  -999.250000 0.1000000015 0.1000000015 0.0000000000
 1658.7500000 7.4889998436 -9999.000000  -999.250000 0.1000000015 0.1000000015 0.0000000000
 1658.8750000 8.4139995575 -9999.000000  -999.250000 0.1000000015 0.1000000015 0.0000000000
 1659.0000000 9.3389997482 -9999.000000  -999.250000 0.1000000015 0.1000000015 0.0000000000
 1659.1250000 12.010999680 -9999.000000 2.0000000000 19.000000000 324.00000000 1.0000000000
 1659.2500000 14.682999611 -9999.000000 2.0000000000 19.000000000 324.00000000 1.0000000000
 1659.3750000 17.354999542 -9999.000000 2.0000000000 19.000000000 324.00000000 1.0000000000
 1659.5000000 20.027000427 -9999.000000 2.0000000000 19.000000000 324.00000000 1.0000000000
 1659.6250000 19.639999390 -9999.000000 2.0000000000 19.000000000 324.00000000 1.0000000000
 1659.7500000 19.253000259 -9999.000000 2.0000000000 19.000000000 324.00000000 1.0000000000
 1659.8750000 18.865999222 -9999.000000 2.0000000000 19.000000000 324.00000000 1.0000000000
 1660.0000000 18.479000092 -9999.000000 2.0000000000 19.000000000 324.00000000 1.0000000000
 1660.1250000 20.069999695 -9999.000000 2.0000000000 19.000000000 324.00000000 1.0000000000
 1660.2500000 21.660999298 -9999.000000 2.0000000000 19.000000000 324.00000000 1.0000000000
 1660.3750000 23.252000809 -9999.000000 2.0000000000 19.000000000 324.00000000 1.0000000000
 1660.5000000 24.843000412 -9999.000000 2.0000000000 19.000000000 324.00000000 1.0000000000
 1660.6250000 22.288299561 -9999.000000 2.0000000000 19.000000000 324.00000000 1.0000000000
 1660.7500000 19.733499527 -9999.000000 2.0000000000 19.000000000 324.00000000 1.0000000000
 1660.8750000 17.178699493 -9999.000000 2.0000000000 19.000000000 324.00000000 1.0000000000
 1661.0000000 14.623999596 -9999.000000 2.0000000000 19.000000000 324.00000000 1.0000000000
 1661.1250000 13.019499779 -9999.000000 2.0000000000 19.000000000 324.00000000 1.0000000000
 1661.2500000 11.414999962 -9999.000000 2.0000000000 19.000000000 324.00000000 1.0000000000
 1661.3750000 9.8105001450 -9999.000000  -999.250000 0.1000000015 0.1000000015 0.0000000000
 1661.5000000 8.2060003281 -9999.000000  -999.250000 0.1000000015 0.1000000015 0.0000000000
 1661.6250000 9.8393001556 -9999.000000  -999.250000 0.1000000015 0.1000000015 0.0000000000
 1661.7500000 11.472499847 -9999.000000  -999.250000 0.1000000015 0.1000000015 0.0000000000
 1661.8750000 13.105799675 -9999.000000 2.0000000000 16.000000000 112.00000000 1.0000000000
 1662.0000000 14.739000320 -9999.000000 2.0000000000 16.000000000 112.00000000 1.0000000000
 1662.1250000 15.682999611 -9999.000000 2.0000000000 16.000000000 112.00000000 1.0000000000
 1662.2500000 16.627000809 -9999.000000 2.0000000000 16.000000000 112.00000000 1.0000000000
 1662.3750000 17.570999146 -9999.000000 2.0000000000 16.000000000 112.00000000 1.0000000000
 1662.5000000 18.514999390 -9999.000000 2.0000000000 16.000000000 112.00000000 1.0000000000
 1662.6250000 16.832199097 -9999.000000 2.0000000000 16.000000000 112.00000000 1.0000000000
 1662.7500000 15.149499893 -9999.000000 2.0000000000 16.000000000 112.00000000 1.0000000000
 1662.8750000 13.466799736 -9999.000000 2.0000000000 16.000000000 112.00000000 1.0000000000
 1663.0000000 11.784000397 -9999.000000  -999.250000 0.1000000015 0.1000000015 0.0000000000
 1663.1250000 12.531800270 -9999.000000  -999.250000 0.1000000015 0.1000000015 0.0000000000
 1663.2500000 13.279500008 -9999.000000  -999.250000 0.1000000015 0.1000000015 0.0000000000
 1663.3750000 14.027199745 -9999.000000  -999.250000 0.1000000015 0.1000000015 0.0000000000
 1663.5000000 14.774999619 -9999.000000 2.0000000000 16.000000000 120.00000000 1.0000000000
 1663.6250000 14.307499886 -9999.000000 2.0000000000 16.000000000 120.00000000 1.0000000000
 1663.7500000 13.840000153 -9999.000000 2.0000000000 16.000000000 120.00000000 1.0000000000
 1663.8750000 13.372500420 -9999.000000 2.0000000000 16.000000000 120.00000000 1.0000000000
 1664.0000000 12.904999733 -9999.000000 2.0000000000 16.000000000 120.00000000 1.0000000000
 1664.1250000 14.189700127 -9999.000000 2.0000000000 16.000000000 120.00000000 1.0000000000
 1664.2500000 15.474499702 -9999.000000 2.0000000000 16.000000000 120.00000000 1.0000000000
 1664.3750000 16.759300232 -9999.000000 2.0000000000 16.000000000 120.00000000 1.0000000000
 1664.5000000 18.044000626 -9999.000000 2.0000000000 16.000000000 120.00000000 1.0000000000
 1664.6250000 21.012500763 -9999.000000 2.0000000000 16.000000000 120.00000000 1.0000000000
 1664.7500000 23.981000900 -9999.000000 2.0000000000 16.000000000 120.00000000 1.0000000000
 1664.8750000 26.949499130 -9999.000000 2.0000000000 16.000000000 120.00000000 1.0000000000
 1665.0000000 29.917999268 -9999.000000 2.0000000000 16.000000000 120.00000000 1.0000000000
 1665.1250000 31.374200821 -9999.000000 2.0000000000 16.000000000 120.00000000 1.0000000000
