# LAS format log file from PETREL
# Project units are specified as depth units
#==================================================================
~Version information
VERS.   2.0:
WRAP.   NO:
#==================================================================
~Well
STRT .m      730.00000000 :
STOP .m      1740.0000000 :
STEP .m     0.12500000 :
NULL .        -999.250000 :
COMP.           : COMPANY
WELL.  51-165   : WELL
FLD.            : FIELD
LOC.            : LOCATION
SRVC.           : SERVICE COMPANY
DATE.  2020-03-08 09:25:10   : Log Export Date {yyyy-MM-dd HH:mm:ss}
PROV.           : PROVINCE
UWI.      : UNIQUE WELL ID
API.            : API NUMBER
#==================================================================
~Curve
DEPT .m                   : DEPTH
RT .ohm.m                 : RT
SP .                      : SP
Fluids .                  : Fluids
POR .m3/m3                : POR
PERM .mD                  : PERM
Lith .                    : Lith
~Parameter
#==================================================================
~Ascii
# ...
 1621.7500000 20.678499222 -9999.000000 4.0000000000 18.000000000 242.00000000 1.0000000000
 1621.8750000 23.065200806 -9999.000000 4.0000000000 18.000000000 242.00000000 1.0000000000
 1622.0000000 25.451999664 -9999.000000 4.0000000000 18.000000000 242.00000000 1.0000000000
 1622.1250000 23.169700623 -9999.000000 4.0000000000 18.000000000 242.00000000 1.0000000000
 1622.2500000 20.887500763 -9999.000000 4.0000000000 18.000000000 242.00000000 1.0000000000
 1622.3750000 18.605199814 -9999.000000 4.0000000000 18.000000000 242.00000000 1.0000000000
 1622.5000000 16.322999954 -9999.000000 4.0000000000 18.000000000 242.00000000 1.0000000000
 1622.6250000 17.300300598 -9999.000000 4.0000000000 18.000000000 242.00000000 1.0000000000
 1622.7500000 18.277500153 -9999.000000 4.0000000000 18.000000000 242.00000000 1.0000000000
 1622.8750000 19.254800797 -9999.000000 4.0000000000 18.000000000 242.00000000 1.0000000000
 1623.0000000 20.232000351 -9999.000000 4.0000000000 18.000000000 242.00000000 1.0000000000
 1623.1250000 19.649299622 -9999.000000 4.0000000000 18.000000000 242.00000000 1.0000000000
 1623.2500000 19.066499710 -9999.000000 4.0000000000 18.000000000 242.00000000 1.0000000000
 1623.3750000 18.483699799 -9999.000000 4.0000000000 18.000000000 242.00000000 1.0000000000
 1623.5000000 17.900999069 -9999.000000 4.0000000000 18.000000000 242.00000000 1.0000000000
 1623.6250000 20.679700851 -9999.000000 4.0000000000 18.000000000 242.00000000 1.0000000000
 1623.7500000 23.458499908 -9999.000000 4.0000000000 18.000000000 242.00000000 1.0000000000
 1623.8750000 26.237300873 -9999.000000 4.0000000000 18.000000000 242.00000000 1.0000000000
 1624.0000000 29.016000748 -9999.000000 4.0000000000 18.000000000 242.00000000 1.0000000000
 1624.1250000 25.437000275 -9999.000000 4.0000000000 18.000000000 242.00000000 1.0000000000
 1624.2500000 21.857999802 -9999.000000 4.0000000000 18.000000000 242.00000000 1.0000000000
 1624.3750000 18.278999329 -9999.000000 4.0000000000 18.000000000 242.00000000 1.0000000000
 1624.5000000 14.699999809 -9999.000000 4.0000000000 18.000000000 242.00000000 1.0000000000
 1624.6250000 14.407699585 -9999.000000 4.0000000000 18.000000000 242.00000000 1.0000000000
 1624.7500000 14.115500450 -9999.000000 4.0000000000 18.000000000 242.00000000 1.0000000000
 1624.8750000 13.823300362 -9999.000000 4.0000000000 18.000000000 242.00000000 1.0000000000
 1625.0000000 13.531000137 -9999.000000 4.0000000000 18.000000000 242.00000000 1.0000000000
 1625.1250000 14.048000336 -9999.000000 4.0000000000 18.000000000 242.00000000 1.0000000000
 1625.2500000 14.564999580 -9999.000000 4.0000000000 18.000000000 242.00000000 1.0000000000
 1625.3750000 15.081999779 -9999.000000 4.0000000000 18.000000000 242.00000000 1.0000000000
 1625.5000000 15.598999977 -9999.000000 4.0000000000 18.000000000 242.00000000 1.0000000000
 1625.6250000 14.238300323 -9999.000000  -999.250000 0.1000000015 0.1000000015 0.0000000000
 1625.7500000 12.877499580 -9999.000000  -999.250000 0.1000000015 0.1000000015 0.0000000000
 1625.8750000 11.516799927 -9999.000000  -999.250000 0.1000000015 0.1000000015 0.0000000000
 1626.0000000 10.156000137 -9999.000000 4.0000000000 15.000000000 119.00000000 1.0000000000
 1626.1250000 12.002499580 -9999.000000 4.0000000000 15.000000000 119.00000000 1.0000000000
 1626.2500000 13.848999977 -9999.000000 4.0000000000 15.000000000 119.00000000 1.0000000000
 1626.3750000 15.695500374 -9999.000000 4.0000000000 15.000000000 119.00000000 1.0000000000
 1626.5000000 17.541999817 -9999.000000 4.0000000000 15.000000000 119.00000000 1.0000000000
 1626.6250000 17.343799591 -9999.000000 4.0000000000 15.000000000 119.00000000 1.0000000000
 1626.7500000 17.145500183 -9999.000000 4.0000000000 15.000000000 119.00000000 1.0000000000
 1626.8750000 16.947299957 -9999.000000 4.0000000000 15.000000000 119.00000000 1.0000000000
 1627.0000000 16.749000549 -9999.000000 4.0000000000 15.000000000 119.00000000 1.0000000000
 1627.1250000 16.671300888 -9999.000000 4.0000000000 15.000000000 119.00000000 1.0000000000
 1627.2500000 16.593500137 -9999.000000 4.0000000000 15.000000000 119.00000000 1.0000000000
 1627.3750000 16.515699387 -9999.000000 4.0000000000 15.000000000 119.00000000 1.0000000000
 1627.5000000 16.437999725 -9999.000000 4.0000000000 15.000000000 119.00000000 1.0000000000
 1627.6250000 15.285699844 -9999.000000 4.0000000000 15.000000000 119.00000000 1.0000000000
 1627.7500000 14.133500099 -9999.000000 4.0000000000 15.000000000 119.00000000 1.0000000000
 1627.8750000 12.981300354 -9999.000000 4.0000000000 15.000000000 119.00000000 1.0000000000
 1628.0000000 11.829000473 -9999.000000 4.0000000000 15.000000000 119.00000000 1.0000000000
 1628.1250000 12.536000252 -9999.000000 4.0000000000 15.000000000 119.00000000 1.0000000000
 1628.2500000 13.243000031 -9999.000000 4.0000000000 15.000000000 119.00000000 1.0000000000
 1628.3750000 13.949999809 -9999.000000 4.0000000000 15.000000000 119.00000000 1.0000000000
 1628.5000000 14.656999588 -9999.000000  -999.250000 0.1000000015 0.1000000015 0.0000000000
 1628.6250000 13.294500351 -9999.000000  -999.250000 0.1000000015 0.1000000015 0.0000000000
 1628.7500000 11.932000160 -9999.000000  -999.250000 0.1000000015 0.1000000015 0.0000000000
 1628.8750000 10.569499969 -9999.000000  -999.250000 0.1000000015 0.1000000015 0.0000000000
 1629.0000000 9.2069997787 -9999.000000  -999.250000 0.1000000015 0.1000000015 0.0000000000
 1629.1250000 9.9724998474 -9999.000000  -999.250000 0.1000000015 0.1000000015 0.0000000000
 1629.2500000 10.737999916 -9999.000000  -999.250000 0.1000000015 0.1000000015 0.0000000000
 1629.3750000 11.503499985 -9999.000000 4.0000000000 14.000000000 75.000000000 1.0000000000
 1629.5000000 12.269000053 -9999.000000 4.0000000000 14.000000000 75.000000000 1.0000000000
 1629.6250000 12.929300308 -9999.000000 4.0000000000 14.000000000 75.000000000 1.0000000000
 1629.7500000 13.589500427 -9999.000000 4.0000000000 14.000000000 75.000000000 1.0000000000
 1629.8750000 14.249699593 -9999.000000 4.0000000000 14.000000000 75.000000000 1.0000000000
 1630.0000000 14.909999847 -9999.000000 4.0000000000 14.000000000 75.000000000 1.0000000000
 1630.1250000 13.278699875 -9999.000000  -999.250000 0.1000000015 0.1000000015 0.0000000000
 1630.2500000 11.647500038 -9999.000000  -999.250000 0.1000000015 0.1000000015 0.0000000000
 1630.3750000 10.016300201 -9999.000000  -999.250000 0.1000000015 0.1000000015 0.0000000000
 1630.5000000 8.3850002289 -9999.000000  -999.250000 0.1000000015 0.1000000015 0.0000000000
 1630.6250000 9.5869998932 -9999.000000  -999.250000 0.1000000015 0.1000000015 0.0000000000
 1630.7500000 10.788999557 -9999.000000  -999.250000 0.1000000015 0.1000000015 0.0000000000
 1630.8750000 11.991000175 -9999.000000  -999.250000 0.1000000015 0.1000000015 0.0000000000
 1631.0000000 13.192999840 -9999.000000 4.0000000000 13.000000000 97.000000000 1.0000000000
 1631.1250000 14.238499641 -9999.000000 4.0000000000 13.000000000 97.000000000 1.0000000000
 1631.2500000 15.284000397 -9999.000000 4.0000000000 13.000000000 97.000000000 1.0000000000
 1631.3750000 16.329500198 -9999.000000 4.0000000000 13.000000000 97.000000000 1.0000000000
 1631.5000000 17.375000000 -9999.000000 4.0000000000 13.000000000 97.000000000 1.0000000000
 1631.6250000 15.174200058 -9999.000000 4.0000000000 13.000000000 97.000000000 1.0000000000
 1631.7500000 12.973500252 -9999.000000 4.0000000000 13.000000000 97.000000000 1.0000000000
 1631.8750000 10.772700310 -9999.000000 4.0000000000 13.000000000 97.000000000 1.0000000000
 1632.0000000 8.5719995499 -9999.000000 4.0000000000 13.000000000 97.000000000 1.0000000000
 1632.1250000 9.5944995880 -9999.000000 4.0000000000 13.000000000 97.000000000 1.0000000000
 1632.2500000 10.616999626 -9999.000000 4.0000000000 13.000000000 97.000000000 1.0000000000
 1632.3750000 11.639499664 -9999.000000 4.0000000000 13.000000000 97.000000000 1.0000000000
 1632.5000000 12.661999702 -9999.000000 4.0000000000 13.000000000 97.000000000 1.0000000000
