# LAS format log file from PETREL
# Project units are specified as depth units
#==================================================================
~Version information
VERS.   2.0:
WRAP.   NO:
#==================================================================
~Well
STRT .m      730.00000000 :
STOP .m      1740.0000000 :
STEP .m     0.12500000 :
NULL .        -999.250000 :
COMP.           : COMPANY
WELL.  51-165   : WELL
FLD.            : FIELD
LOC.            : LOCATION
SRVC.           : SERVICE COMPANY
DATE.  2020-03-08 09:25:10   : Log Export Date {yyyy-MM-dd HH:mm:ss}
PROV.           : PROVINCE
UWI.      : UNIQUE WELL ID
API.            : API NUMBER
#==================================================================
~Curve
DEPT .m                   : DEPTH
RT .ohm.m                 : RT
SP .                      : SP
Fluids .                  : Fluids
POR .m3/m3                : POR
PERM .mD                  : PERM
Lith .                    : Lith
~Parameter
#==================================================================
~Ascii
# ...
 1676.1250000 51.063201904 -9999.000000 2.0000000000 14.000000000 106.00000000 1.0000000000
 1676.2500000 47.179500580 -9999.000000 2.0000000000 14.000000000 106.00000000 1.0000000000
 1676.3750000 43.295700073 -9999.000000 2.0000000000 14.000000000 106.00000000 1.0000000000
 1676.5000000 39.411998749 -9999.000000 2.0000000000 14.000000000 106.00000000 1.0000000000
 1676.6250000 41.248500824 -9999.000000 2.0000000000 14.000000000 106.00000000 1.0000000000
 1676.7500000 43.084999084 -9999.000000 2.0000000000 14.000000000 106.00000000 1.0000000000
 1676.8750000 44.921501160 -9999.000000 2.0000000000 14.000000000 106.00000000 1.0000000000
 1677.0000000 46.757999420 -9999.000000 2.0000000000 14.000000000 106.00000000 1.0000000000
 1677.1250000 42.202499390 -9999.000000 2.0000000000 14.000000000 106.00000000 1.0000000000
 1677.2500000 37.646999359 -9999.000000 2.0000000000 14.000000000 106.00000000 1.0000000000
 1677.3750000 33.091499329 -9999.000000 2.0000000000 14.000000000 106.00000000 1.0000000000
 1677.5000000 28.535999298 -9999.000000 2.0000000000 14.000000000 106.00000000 1.0000000000
 1677.6250000 28.463699341 -9999.000000 2.0000000000 14.000000000 106.00000000 1.0000000000
 1677.7500000 28.391500473 -9999.000000 2.0000000000 14.000000000 106.00000000 1.0000000000
 1677.8750000 28.319200516 -9999.000000 2.0000000000 14.000000000 106.00000000 1.0000000000
 1678.0000000 28.246999741 -9999.000000 2.0000000000 14.000000000 106.00000000 1.0000000000
 1678.1250000 26.949199677 -9999.000000 2.0000000000 14.000000000 106.00000000 1.0000000000
 1678.2500000 25.651500702 -9999.000000 2.0000000000 14.000000000 106.00000000 1.0000000000
 1678.3750000 24.353700638 -9999.000000 2.0000000000 14.000000000 106.00000000 1.0000000000
 1678.5000000 23.055999756 -9999.000000 2.0000000000 14.000000000 106.00000000 1.0000000000
 1678.6250000 24.956499100 -9999.000000 2.0000000000 14.000000000 106.00000000 1.0000000000
 1678.7500000 26.857000351 -9999.000000 2.0000000000 14.000000000 106.00000000 1.0000000000
 1678.8750000 28.757499695 -9999.000000 2.0000000000 14.000000000 106.00000000 1.0000000000
 1679.0000000 30.658000946 -9999.000000 2.0000000000 14.000000000 106.00000000 1.0000000000
 1679.1250000 33.117801666 -9999.000000 2.0000000000 14.000000000 106.00000000 1.0000000000
 1679.2500000 35.577499390 -9999.000000 2.0000000000 14.000000000 106.00000000 1.0000000000
 1679.3750000 38.037300110 -9999.000000 2.0000000000 14.000000000 106.00000000 1.0000000000
 1679.5000000 40.497001648 -9999.000000 2.0000000000 14.000000000 106.00000000 1.0000000000
 1679.6250000 38.689498901 -9999.000000 2.0000000000 14.000000000 106.00000000 1.0000000000
 1679.7500000 36.881999969 -9999.000000 2.0000000000 14.000000000 106.00000000 1.0000000000
 1679.8750000 35.074501038 -9999.000000 2.0000000000 14.000000000 106.00000000 1.0000000000
 1680.0000000 33.266998291 -9999.000000 2.0000000000 14.000000000 106.00000000 1.0000000000
 1680.1250000 37.075698853 -9999.000000 2.0000000000 14.000000000 106.00000000 1.0000000000
 1680.2500000 40.884498596 -9999.000000 2.0000000000 14.000000000 106.00000000 1.0000000000
 1680.3750000 44.693199158 -9999.000000 2.0000000000 14.000000000 106.00000000 1.0000000000
 1680.5000000 48.501998901 -9999.000000 2.0000000000 14.000000000 106.00000000 1.0000000000
 1680.6250000 42.722698212 -9999.000000 2.0000000000 14.000000000 106.00000000 1.0000000000
 1680.7500000 36.943500519 -9999.000000 2.0000000000 14.000000000 106.00000000 1.0000000000
 1680.8750000 31.164199829 -9999.000000 2.0000000000 14.000000000 106.00000000 1.0000000000
 1681.0000000 25.385000229 -9999.000000 2.0000000000 14.000000000 106.00000000 1.0000000000
 1681.1250000 25.966499329 -9999.000000 2.0000000000 14.000000000 106.00000000 1.0000000000
 1681.2500000 26.548000336 -9999.000000 2.0000000000 14.000000000 106.00000000 1.0000000000
 1681.3750000 27.129499435 -9999.000000 2.0000000000 14.000000000 106.00000000 1.0000000000
 1681.5000000 27.711000443 -9999.000000 2.0000000000 14.000000000 106.00000000 1.0000000000
 1681.6250000 27.531000137 -9999.000000 2.0000000000 14.000000000 106.00000000 1.0000000000
 1681.7500000 27.350999832 -9999.000000 2.0000000000 14.000000000 106.00000000 1.0000000000
 1681.8750000 27.170999527 -9999.000000 2.0000000000 14.000000000 106.00000000 1.0000000000
 1682.0000000 26.990999222 -9999.000000 2.0000000000 14.000000000 106.00000000 1.0000000000
 1682.1250000 27.553699493 -9999.000000 2.0000000000 14.000000000 106.00000000 1.0000000000
 1682.2500000 28.116500854 -9999.000000 2.0000000000 14.000000000 106.00000000 1.0000000000
 1682.3750000 28.679300308 -9999.000000 2.0000000000 14.000000000 106.00000000 1.0000000000
 1682.5000000 29.242000580 -9999.000000 2.0000000000 14.000000000 106.00000000 1.0000000000
 1682.6250000 30.460800171 -9999.000000 2.0000000000 14.000000000 106.00000000 1.0000000000
 1682.7500000 31.679500580 -9999.000000 2.0000000000 14.000000000 106.00000000 1.0000000000
 1682.8750000 32.898300171 -9999.000000 2.0000000000 14.000000000 106.00000000 1.0000000000
 1683.0000000 34.117000580 -9999.000000 2.0000000000 14.000000000 106.00000000 1.0000000000
 1683.1250000 30.823999405 -9999.000000 2.0000000000 14.000000000 106.00000000 1.0000000000
 1683.2500000 27.531000137 -9999.000000 2.0000000000 14.000000000 106.00000000 1.0000000000
 1683.3750000 24.238000870 -9999.000000 2.0000000000 14.000000000 106.00000000 1.0000000000
 1683.5000000 20.944999695 -9999.000000 2.0000000000 14.000000000 106.00000000 1.0000000000
 1683.6250000 22.639200211 -9999.000000 2.0000000000 14.000000000 106.00000000 1.0000000000
 1683.7500000 24.333499908 -9999.000000 2.0000000000 14.000000000 106.00000000 1.0000000000
 1683.8750000 26.027799606 -9999.000000 2.0000000000 14.000000000 106.00000000 1.0000000000
 1684.0000000 27.722000122 -9999.000000 2.0000000000 14.000000000 106.00000000 1.0000000000
 1684.1250000 28.174499512 -9999.000000 2.0000000000 14.000000000 106.00000000 1.0000000000
 1684.2500000 28.627000809 -9999.000000 2.0000000000 14.000000000 106.00000000 1.0000000000
 1684.3750000 29.079500198 -9999.000000 2.0000000000 14.000000000 106.00000000 1.0000000000
 1684.5000000 29.531999588 -9999.000000 2.0000000000 14.000000000 106.00000000 1.0000000000
 1684.6250000 30.799699783 -9999.000000 2.0000000000 14.000000000 106.00000000 1.0000000000
 1684.7500000 32.067501068 -9999.000000 2.0000000000 14.000000000 106.00000000 1.0000000000
 1684.8750000 33.335300446 -9999.000000 2.0000000000 14.000000000 106.00000000 1.0000000000
 1685.0000000 34.603000641 -9999.000000 2.0000000000 14.000000000 106.00000000 1.0000000000
 1685.1250000 35.173000336 -9999.000000 2.0000000000 14.000000000 106.00000000 1.0000000000
 1685.2500000 35.743000031 -9999.000000 2.0000000000 14.000000000 106.00000000 1.0000000000
 1685.3750000 36.312999725 -9999.000000 2.0000000000 14.000000000 106.00000000 1.0000000000
 1685.5000000 36.882999420 -9999.000000 2.0000000000 14.000000000 106.00000000 1.0000000000
 1685.6250000 38.846000671 -9999.000000 2.0000000000 14.000000000 106.00000000 1.0000000000
 1685.7500000 40.808998108 -9999.000000 2.0000000000 14.000000000 106.00000000 1.0000000000
 1685.8750000 42.771999359 -9999.000000 2.0000000000 14.000000000 106.00000000 1.0000000000
 1686.0000000 44.735000610 -9999.000000 2.0000000000 14.000000000 106.00000000 1.0000000000
 1686.1250000 44.650299072 -9999.000000 2.0000000000 14.000000000 106.00000000 1.0000000000
 1686.2500000 44.565498352 -9999.000000 2.0000000000 14.000000000 106.00000000 1.0000000000
 1686.3750000 44.480800629 -9999.000000 2.0000000000 14.000000000 106.00000000 1.0000000000
 1686.5000000 44.395999908 -9999.000000 2.0000000000 14.000000000 106.00000000 1.0000000000
 1686.6250000 39.110000610 -9999.000000 2.0000000000 14.000000000 106.00000000 1.0000000000
 1686.7500000 33.824001312 -9999.000000 2.0000000000 14.000000000 106.00000000 1.0000000000
 1686.8750000 28.538000107 -9999.000000 2.0000000000 14.000000000 106.00000000 1.0000000000
