# LAS format log file from PETREL
# Project units are specified as depth units
#==================================================================
~Version information
VERS.   2.0:
WRAP.   NO:
#==================================================================
~Well
STRT .m      212.00000000 :
STOP .m      1748.0000000 :
STEP .m     0.12500000 :
NULL .        -999.250000 :
COMP.           : COMPANY
WELL.  51-164   : WELL
FLD.            : FIELD
LOC.            : LOCATION
SRVC.           : SERVICE COMPANY
DATE.  2020-03-08 09:25:10   : Log Export Date {yyyy-MM-dd HH:mm:ss}
PROV.           : PROVINCE
UWI.      : UNIQUE WELL ID
API.            : API NUMBER
#==================================================================
~Curve
DEPT .m                   : DEPTH
RT .ohm.m                 : RT
SP .                      : SP
Fluids .                  : Fluids
POR .m3/m3                : POR
PERM .mD                  : PERM
Lith .                    : Lith
~Parameter
#==================================================================
~Ascii
# ...
 1614.8750000 3.6199998856 41.080001831  -999.250000 0.1000000015 0.1000000015 0.0000000000
 1615.0000000 4.1399998665 41.080001831  -999.250000 0.1000000015 0.1000000015 0.0000000000
 1615.1250000 4.5399999619 41.080001831  -999.250000 0.1000000015 0.1000000015 0.0000000000
 1615.2500000 4.6500000954 41.069999695  -999.250000 0.1000000015 0.1000000015 0.0000000000
 1615.3750000 4.5100002289 41.069999695  -999.250000 0.1000000015 0.1000000015 0.0000000000
 1615.5000000 4.3499999046 41.049999237  -999.250000 0.1000000015 0.1000000015 0.0000000000
 1615.6250000 4.3400001526 41.020000458  -999.250000 0.1000000015 0.1000000015 0.0000000000
 1615.7500000 4.4200000763 40.979999542  -999.250000 0.1000000015 0.1000000015 0.0000000000
 1615.8750000 4.4800000191 40.959999084  -999.250000 0.1000000015 0.1000000015 0.0000000000
 1616.0000000 4.4000000954 40.930000305  -999.250000 0.1000000015 0.1000000015 0.0000000000
 1616.1250000 4.1300001144 40.919998169  -999.250000 0.1000000015 0.1000000015 0.0000000000
 1616.2500000 3.7400000095 40.909999847  -999.250000 0.1000000015 0.1000000015 0.0000000000
 1616.3750000 3.5000000000 40.909999847  -999.250000 0.1000000015 0.1000000015 0.0000000000
 1616.5000000 3.3800001144 40.930000305  -999.250000 0.1000000015 0.1000000015 0.0000000000
 1616.6250000 3.2300000191 40.959999084  -999.250000 0.1000000015 0.1000000015 0.0000000000
 1616.7500000 3.0799999237 40.979999542  -999.250000 0.1000000015 0.1000000015 0.0000000000
 1616.8750000 3.0999999046 41.020000458  -999.250000 0.1000000015 0.1000000015 0.0000000000
 1617.0000000 3.3399999142 41.069999695  -999.250000 0.1000000015 0.1000000015 0.0000000000
 1617.1250000 3.7799999714 41.130001068  -999.250000 0.1000000015 0.1000000015 0.0000000000
 1617.2500000 4.2399997711 41.180000305  -999.250000 0.1000000015 0.1000000015 0.0000000000
 1617.3750000 4.4699997902 41.220001221  -999.250000 0.1000000015 0.1000000015 0.0000000000
 1617.5000000 4.3699998856 41.250000000  -999.250000 0.1000000015 0.1000000015 0.0000000000
 1617.6250000 4.0000000000 41.270000458  -999.250000 0.1000000015 0.1000000015 0.0000000000
 1617.7500000 3.5299999714 41.270000458  -999.250000 0.1000000015 0.1000000015 0.0000000000
 1617.8750000 3.1500000954 41.240001678  -999.250000 0.1000000015 0.1000000015 0.0000000000
 1618.0000000 2.9300000668 41.189998627  -999.250000 0.1000000015 0.1000000015 0.0000000000
 1618.1250000 2.8699998856 41.130001068  -999.250000 0.1000000015 0.1000000015 0.0000000000
 1618.2500000 2.9800000191 41.069999695  -999.250000 0.1000000015 0.1000000015 0.0000000000
 1618.3750000 3.1900000572 41.020000458  -999.250000 0.1000000015 0.1000000015 0.0000000000
 1618.5000000 3.4200000763 40.959999084  -999.250000 0.1000000015 0.1000000015 0.0000000000
 1618.6250000 3.6099998951 40.900001526  -999.250000 0.1000000015 0.1000000015 0.0000000000
 1618.7500000 3.7699999809 40.840000153  -999.250000 0.1000000015 0.1000000015 0.0000000000
 1618.8750000 3.8699998856 40.779998779  -999.250000 0.1000000015 0.1000000015 0.0000000000
 1619.0000000 3.9800000191 40.709999084  -999.250000 0.1000000015 0.1000000015 0.0000000000
 1619.1250000 4.1500000954 40.619998932  -999.250000 0.1000000015 0.1000000015 0.0000000000
 1619.2500000 4.2500000000 40.520000458  -999.250000 0.1000000015 0.1000000015 0.0000000000
 1619.3750000 4.1300001144 40.389999390  -999.250000 0.1000000015 0.1000000015 0.0000000000
 1619.5000000 3.8699998856 40.250000000  -999.250000 0.1000000015 0.1000000015 0.0000000000
 1619.6250000 3.5599999428 40.090000153  -999.250000 0.1000000015 0.1000000015 0.0000000000
 1619.7500000 3.2200000286 39.919998169  -999.250000 0.1000000015 0.1000000015 0.0000000000
 1619.8750000 2.9200000763 39.729999542  -999.250000 0.1000000015 0.1000000015 0.0000000000
 1620.0000000 2.7899999619 39.520000458  -999.250000 0.1000000015 0.1000000015 0.0000000000
 1620.1250000 2.9100000858 39.299999237  -999.250000 0.1000000015 0.1000000015 0.0000000000
 1620.2500000 3.3699998856 39.069999695  -999.250000 0.1000000015 0.1000000015 0.0000000000
 1620.3750000 4.2100000381 38.799999237  -999.250000 0.1000000015 0.1000000015 0.0000000000
 1620.5000000 5.2899999619 38.490001678  -999.250000 0.1000000015 0.1000000015 0.0000000000
 1620.6250000 6.4299998283 38.159999847  -999.250000 0.1000000015 0.1000000015 0.0000000000
 1620.7500000 7.4499998093 37.810001373  -999.250000 0.1000000015 0.1000000015 0.0000000000
 1620.8750000 8.2200002670 37.419998169 4.0000000000 7.0000000000 6.0000000000 1.0000000000
 1621.0000000 8.8500003815 37.009998322 4.0000000000 7.0000000000 6.0000000000 1.0000000000
 1621.1250000 9.6700000763 36.599998474 4.0000000000 7.0000000000 6.0000000000 1.0000000000
 1621.2500000 10.539999962 36.220001221 4.0000000000 7.0000000000 6.0000000000 1.0000000000
 1621.3750000 10.850000381 35.869998932 4.0000000000 7.0000000000 6.0000000000 1.0000000000
 1621.5000000 10.439999580 35.560001373 4.0000000000 7.0000000000 6.0000000000 1.0000000000
 1621.6250000 9.5200004578 35.290000916 4.0000000000 7.0000000000 6.0000000000 1.0000000000
 1621.7500000 8.5500001907 35.090000153 4.0000000000 7.0000000000 6.0000000000 1.0000000000
 1621.8750000 7.6900000572 34.950000763 4.0000000000 7.0000000000 6.0000000000 1.0000000000
 1622.0000000 7.2699999809 34.860000610 4.0000000000 7.0000000000 6.0000000000 1.0000000000
 1622.1250000 7.8400001526 34.799999237 4.0000000000 7.0000000000 6.0000000000 1.0000000000
 1622.2500000 9.5000000000 34.759998322 4.0000000000 7.0000000000 6.0000000000 1.0000000000
 1622.3750000 11.659999847 34.740001678 4.0000000000 7.0000000000 6.0000000000 1.0000000000
 1622.5000000 13.569999695 34.729999542 4.0000000000 7.0000000000 6.0000000000 1.0000000000
 1622.6250000 14.489999771 34.689998627 4.0000000000 7.0000000000 6.0000000000 1.0000000000
 1622.7500000 14.270000458 34.639999390 4.0000000000 7.0000000000 6.0000000000 1.0000000000
 1622.8750000 13.520000458 34.569999695 4.0000000000 7.0000000000 6.0000000000 1.0000000000
 1623.0000000 11.979999542 34.520000458 4.0000000000 7.0000000000 6.0000000000 1.0000000000
 1623.1250000 9.6899995804 34.459999084 4.0000000000 7.0000000000 6.0000000000 1.0000000000
 1623.2500000 7.6599998474 34.409999847 4.0000000000 7.0000000000 6.0000000000 1.0000000000
 1623.3750000 6.6100001335 34.360000610  -999.250000 0.1000000015 0.1000000015 0.0000000000
 1623.5000000 6.7600002289 34.330001831  -999.250000 0.1000000015 0.1000000015 0.0000000000
 1623.6250000 8.9099998474 34.290000916  -999.250000 0.1000000015 0.1000000015 0.0000000000
 1623.7500000 13.899999619 34.240001678  -999.250000 0.1000000015 0.1000000015 0.0000000000
 1623.8750000 19.409999847 34.150001526 4.0000000000 15.000000000 806.00000000 1.0000000000
 1624.0000000 21.069999695 33.990001678 4.0000000000 15.000000000 806.00000000 1.0000000000
 1624.1250000 18.190000534 33.790000916 4.0000000000 15.000000000 806.00000000 1.0000000000
 1624.2500000 14.789999962 33.549999237 4.0000000000 15.000000000 806.00000000 1.0000000000
 1624.3750000 12.619999886 33.290000916 4.0000000000 15.000000000 806.00000000 1.0000000000
 1624.5000000 11.560000420 33.000000000 4.0000000000 15.000000000 806.00000000 1.0000000000
 1624.6250000 11.920000076 32.729999542 4.0000000000 15.000000000 806.00000000 1.0000000000
 1624.7500000 13.800000191 32.490001678 4.0000000000 15.000000000 806.00000000 1.0000000000
 1624.8750000 16.139999390 32.290000916 4.0000000000 15.000000000 806.00000000 1.0000000000
 1625.0000000 19.139999390 32.130001068 4.0000000000 15.000000000 806.00000000 1.0000000000
 1625.1250000 23.430000305 31.989999771 4.0000000000 15.000000000 806.00000000 1.0000000000
 1625.2500000 27.950000763 31.870000839 4.0000000000 15.000000000 806.00000000 1.0000000000
 1625.3750000 29.270000458 31.780000687 4.0000000000 15.000000000 806.00000000 1.0000000000
 1625.5000000 25.500000000 31.700000763 4.0000000000 15.000000000 806.00000000 1.0000000000
 1625.6250000 19.100000381 31.639999390 4.0000000000 15.000000000 806.00000000 1.0000000000
