# LAS format log file from PETREL
# Project units are specified as depth units
#==================================================================
~Version information
VERS.   2.0:
WRAP.   NO:
#==================================================================
~Well
STRT .m      1580.8750000 :
STOP .m      1709.7500000 :
STEP .m     0.12500000 :
NULL .        -999.250000 :
COMP.           : COMPANY
WELL.  51-166   : WELL
FLD.            : FIELD
LOC.            : LOCATION
SRVC.           : SERVICE COMPANY
DATE.  2020-03-08 09:25:10   : Log Export Date {yyyy-MM-dd HH:mm:ss}
PROV.           : PROVINCE
UWI.      : UNIQUE WELL ID
API.            : API NUMBER
#==================================================================
~Curve
DEPT .m                   : DEPTH
Fluids .                  : Fluids
POR .m3/m3                : POR
PERM .mD                  : PERM
Lith .                    : Lith
~Parameter
#==================================================================
~Ascii
# ...
 1641.8750000  -999.250000 0.1000000015 0.1000000015 0.0000000000
 1642.0000000  -999.250000 0.1000000015 0.1000000015 0.0000000000
 1642.1250000  -999.250000 0.1000000015 0.1000000015 0.0000000000
 1642.2500000  -999.250000 0.1000000015 0.1000000015 0.0000000000
 1642.3750000  -999.250000 0.1000000015 0.1000000015 0.0000000000
 1642.5000000 2.0000000000 11.000000000 47.000000000 1.0000000000
 1642.6250000 2.0000000000 11.000000000 47.000000000 1.0000000000
 1642.7500000 2.0000000000 11.000000000 47.000000000 1.0000000000
 1642.8750000 2.0000000000 11.000000000 47.000000000 1.0000000000
 1643.0000000 2.0000000000 11.000000000 47.000000000 1.0000000000
 1643.1250000 2.0000000000 11.000000000 47.000000000 1.0000000000
 1643.2500000 2.0000000000 11.000000000 47.000000000 1.0000000000
 1643.3750000 2.0000000000 11.000000000 47.000000000 1.0000000000
 1643.5000000 2.0000000000 11.000000000 47.000000000 1.0000000000
 1643.6250000 2.0000000000 11.000000000 47.000000000 1.0000000000
 1643.7500000 2.0000000000 11.000000000 47.000000000 1.0000000000
 1643.8750000 2.0000000000 11.000000000 47.000000000 1.0000000000
 1644.0000000 2.0000000000 11.000000000 47.000000000 1.0000000000
 1644.1250000 2.0000000000 11.000000000 47.000000000 1.0000000000
 1644.2500000 2.0000000000 11.000000000 47.000000000 1.0000000000
 1644.3750000 2.0000000000 11.000000000 47.000000000 1.0000000000
 1644.5000000 2.0000000000 11.000000000 47.000000000 1.0000000000
 1644.6250000 2.0000000000 11.000000000 47.000000000 1.0000000000
 1644.7500000 2.0000000000 11.000000000 47.000000000 1.0000000000
 1644.8750000 2.0000000000 11.000000000 47.000000000 1.0000000000
 1645.0000000 2.0000000000 11.000000000 47.000000000 1.0000000000
 1645.1250000 2.0000000000 11.000000000 47.000000000 1.0000000000
 1645.2500000 2.0000000000 11.000000000 47.000000000 1.0000000000
 1645.3750000 2.0000000000 11.000000000 47.000000000 1.0000000000
 1645.5000000 2.0000000000 11.000000000 47.000000000 1.0000000000
 1645.6250000 2.0000000000 11.000000000 47.000000000 1.0000000000
 1645.7500000  -999.250000 0.1000000015 0.1000000015 0.0000000000
 1645.8750000  -999.250000 0.1000000015 0.1000000015 0.0000000000
 1646.0000000  -999.250000 0.1000000015 0.1000000015 0.0000000000
 1646.1250000  -999.250000 0.1000000015 0.1000000015 0.0000000000
 1646.2500000  -999.250000 0.1000000015 0.1000000015 0.0000000000
 1646.3750000  -999.250000 0.1000000015 0.1000000015 0.0000000000
 1646.5000000 2.0000000000 15.000000000 130.00000000 1.0000000000
 1646.6250000 2.0000000000 15.000000000 130.00000000 1.0000000000
 1646.7500000 2.0000000000 15.000000000 130.00000000 1.0000000000
 1646.8750000 2.0000000000 15.000000000 130.00000000 1.0000000000
 1647.0000000 2.0000000000 15.000000000 130.00000000 1.0000000000
 1647.1250000 2.0000000000 15.000000000 130.00000000 1.0000000000
 1647.2500000 2.0000000000 15.000000000 130.00000000 1.0000000000
 1647.3750000 2.0000000000 15.000000000 130.00000000 1.0000000000
 1647.5000000 2.0000000000 15.000000000 130.00000000 1.0000000000
 1647.6250000 2.0000000000 15.000000000 130.00000000 1.0000000000
 1647.7500000 2.0000000000 15.000000000 130.00000000 1.0000000000
 1647.8750000 2.0000000000 15.000000000 130.00000000 1.0000000000
 1648.0000000 2.0000000000 15.000000000 130.00000000 1.0000000000
 1648.1250000 2.0000000000 15.000000000 130.00000000 1.0000000000
 1648.2500000 2.0000000000 15.000000000 130.00000000 1.0000000000
 1648.3750000 2.0000000000 15.000000000 130.00000000 1.0000000000
 1648.5000000 2.0000000000 15.000000000 130.00000000 1.0000000000
 1648.6250000 2.0000000000 15.000000000 130.00000000 1.0000000000
 1648.7500000 2.0000000000 15.000000000 130.00000000 1.0000000000
 1648.8750000 2.0000000000 15.000000000 130.00000000 1.0000000000
 1649.0000000 2.0000000000 15.000000000 130.00000000 1.0000000000
 1649.1250000 2.0000000000 15.000000000 130.00000000 1.0000000000
 1649.2500000 2.0000000000 15.000000000 130.00000000 1.0000000000
 1649.3750000 2.0000000000 15.000000000 130.00000000 1.0000000000
 1649.5000000 2.0000000000 15.000000000 130.00000000 1.0000000000
 1649.6250000 2.0000000000 15.000000000 130.00000000 1.0000000000
 1649.7500000 2.0000000000 15.000000000 130.00000000 1.0000000000
 1649.8750000 2.0000000000 15.000000000 130.00000000 1.0000000000
 1650.0000000 2.0000000000 15.000000000 130.00000000 1.0000000000
 1650.1250000 2.0000000000 15.000000000 130.00000000 1.0000000000
 1650.2500000 2.0000000000 15.000000000 130.00000000 1.0000000000
 1650.3750000 2.0000000000 15.000000000 130.00000000 1.0000000000
 1650.5000000 2.0000000000 15.000000000 130.00000000 1.0000000000
 1650.6250000 2.0000000000 15.000000000 130.00000000 1.0000000000
 1650.7500000 2.0000000000 15.000000000 130.00000000 1.0000000000
 1650.8750000 2.0000000000 15.000000000 130.00000000 1.0000000000
 1651.0000000 2.0000000000 15.000000000 130.00000000 1.0000000000
 1651.1250000 2.0000000000 15.000000000 130.00000000 1.0000000000
 1651.2500000 2.0000000000 15.000000000 130.00000000 1.0000000000
 1651.3750000 2.0000000000 15.000000000 130.00000000 1.0000000000
 1651.5000000 2.0000000000 15.000000000 130.00000000 1.0000000000
 1651.6250000 2.0000000000 15.000000000 130.00000000 1.0000000000
 1651.7500000 2.0000000000 15.000000000 130.00000000 1.0000000000
 1651.8750000 2.0000000000 15.000000000 130.00000000 1.0000000000
 1652.0000000 2.0000000000 15.000000000 130.00000000 1.0000000000
 1652.1250000 2.0000000000 15.000000000 130.00000000 1.0000000000
 1652.2500000 2.0000000000 15.000000000 130.00000000 1.0000000000
 1652.3750000 2.0000000000 15.000000000 130.00000000 1.0000000000
 1652.5000000 2.0000000000 15.000000000 130.00000000 1.0000000000
 1652.6250000 2.0000000000 15.000000000 130.00000000 1.0000000000
 1652.7500000 2.0000000000 15.000000000 130.00000000 1.0000000000
 1652.8750000 2.0000000000 15.000000000 130.00000000 1.0000000000
 1653.0000000 2.0000000000 15.000000000 130.00000000 1.0000000000
 1653.1250000 2.0000000000 15.000000000 130.00000000 1.0000000000
 1653.2500000 2.0000000000 15.000000000 130.00000000 1.0000000000
 1653.3750000 2.0000000000 15.000000000 130.00000000 1.0000000000
 1653.5000000 2.0000000000 15.000000000 130.00000000 1.0000000000
 1653.6250000 2.0000000000 15.000000000 130.00000000 1.0000000000
 1653.7500000 2.0000000000 15.000000000 130.00000000 1.0000000000
 1653.8750000 2.0000000000 15.000000000 130.00000000 1.0000000000
 1654.0000000 2.0000000000 15.000000000 130.00000000 1.0000000000
 1654.1250000 2.0000000000 15.000000000 130.00000000 1.0000000000
 1654.2500000 2.0000000000 15.000000000 130.00000000 1.0000000000
 1654.3750000 2.0000000000 15.000000000 130.00000000 1.0000000000
 1654.5000000 2.0000000000 15.000000000 130.00000000 1.0000000000
 1654.6250000 2.0000000000 15.000000000 130.00000000 1.0000000000
 1654.7500000 2.0000000000 15.000000000 130.00000000 1.0000000000
 1654.8750000 2.0000000000 15.000000000 130.00000000 1.0000000000
 1655.0000000 2.0000000000 15.000000000 130.00000000 1.0000000000
 1655.1250000 2.0000000000 15.000000000 130.00000000 1.0000000000
 1655.2500000 2.0000000000 15.000000000 130.00000000 1.0000000000
 1655.3750000 2.0000000000 15.000000000 130.00000000 1.0000000000
 1655.5000000 2.0000000000 15.000000000 130.00000000 1.0000000000
 1655.6250000 2.0000000000 15.000000000 130.00000000 1.0000000000
 1655.7500000 2.0000000000 15.000000000 130.00000000 1.0000000000
 1655.8750000 2.0000000000 15.000000000 130.00000000 1.0000000000
 1656.0000000 2.0000000000 15.000000000 130.00000000 1.0000000000
 1656.1250000 2.0000000000 15.000000000 130.00000000 1.0000000000
 1656.2500000 2.0000000000 15.000000000 130.00000000 1.0000000000
 1656.3750000 2.0000000000 15.000000000 130.00000000 1.0000000000
 1656.5000000 2.0000000000 15.000000000 130.00000000 1.0000000000
 1656.6250000 2.0000000000 15.000000000 130.00000000 1.0000000000
 1656.7500000 2.0000000000 15.000000000 130.00000000 1.0000000000
 1656.8750000 2.0000000000 15.000000000 130.00000000 1.0000000000
 1657.0000000 2.0000000000 15.000000000 130.00000000 1.0000000000
