# LAS format log file from PETREL
# Project units are specified as depth units
#==================================================================
~Version information
VERS.   2.0:
WRAP.   NO:
#==================================================================
~Well
STRT .m      730.00000000 :
STOP .m      1740.0000000 :
STEP .m     0.12500000 :
NULL .        -999.250000 :
COMP.           : COMPANY
WELL.  51-165   : WELL
FLD.            : FIELD
LOC.            : LOCATION
SRVC.           : SERVICE COMPANY
DATE.  2020-03-08 09:25:10   : Log Export Date {yyyy-MM-dd HH:mm:ss}
PROV.           : PROVINCE
UWI.      : UNIQUE WELL ID
API.            : API NUMBER
#==================================================================
~Curve
DEPT .m                   : DEPTH
RT .ohm.m                 : RT
SP .                      : SP
Fluids .                  : Fluids
POR .m3/m3                : POR
PERM .mD                  : PERM
Lith .                    : Lith
~Parameter
#==================================================================
~Ascii
# ...
 1697.8750000 17.811300278 -9999.000000 2.0000000000 14.000000000 106.00000000 1.0000000000
 1698.0000000 17.363000870 -9999.000000 2.0000000000 14.000000000 106.00000000 1.0000000000
 1698.1250000 17.853799820 -9999.000000 2.0000000000 14.000000000 106.00000000 1.0000000000
 1698.2500000 18.344499588 -9999.000000 2.0000000000 14.000000000 106.00000000 1.0000000000
 1698.3750000 18.835300446 -9999.000000 2.0000000000 14.000000000 106.00000000 1.0000000000
 1698.5000000 19.326000214 -9999.000000 2.0000000000 14.000000000 106.00000000 1.0000000000
 1698.6250000 25.205799103 -9999.000000 2.0000000000 14.000000000 106.00000000 1.0000000000
 1698.7500000 31.085500717 -9999.000000 2.0000000000 14.000000000 106.00000000 1.0000000000
 1698.8750000 36.965301514 -9999.000000 2.0000000000 14.000000000 106.00000000 1.0000000000
 1699.0000000 42.845001221 -9999.000000 2.0000000000 14.000000000 106.00000000 1.0000000000
 1699.1250000 45.276798248 -9999.000000 2.0000000000 14.000000000 106.00000000 1.0000000000
 1699.2500000 47.708499908 -9999.000000 2.0000000000 14.000000000 106.00000000 1.0000000000
 1699.3750000 50.140201569 -9999.000000 2.0000000000 14.000000000 106.00000000 1.0000000000
 1699.5000000 52.571998596 -9999.000000 2.0000000000 14.000000000 106.00000000 1.0000000000
 1699.6250000 50.998199463 -9999.000000 2.0000000000 14.000000000 106.00000000 1.0000000000
 1699.7500000 49.424499512 -9999.000000 2.0000000000 14.000000000 106.00000000 1.0000000000
 1699.8750000 47.850700378 -9999.000000 2.0000000000 14.000000000 106.00000000 1.0000000000
 1700.0000000 46.277000427 -9999.000000 2.0000000000 14.000000000 106.00000000 1.0000000000
 1700.1250000 45.826000214 -9999.000000 2.0000000000 14.000000000 106.00000000 1.0000000000
 1700.2500000 45.375000000 -9999.000000 2.0000000000 14.000000000 106.00000000 1.0000000000
 1700.3750000 44.923999786 -9999.000000 2.0000000000 14.000000000 106.00000000 1.0000000000
 1700.5000000 44.472999573 -9999.000000 2.0000000000 14.000000000 106.00000000 1.0000000000
 1700.6250000 42.967498779 -9999.000000 2.0000000000 14.000000000 106.00000000 1.0000000000
 1700.7500000 41.462001801 -9999.000000 2.0000000000 14.000000000 106.00000000 1.0000000000
 1700.8750000 39.956501007 -9999.000000 2.0000000000 14.000000000 106.00000000 1.0000000000
 1701.0000000 38.451000214 -9999.000000 2.0000000000 14.000000000 106.00000000 1.0000000000
 1701.1250000 37.900001526 -9999.000000 2.0000000000 14.000000000 106.00000000 1.0000000000
 1701.2500000 37.348999023 -9999.000000 2.0000000000 14.000000000 106.00000000 1.0000000000
 1701.3750000 36.798000336 -9999.000000 2.0000000000 14.000000000 106.00000000 1.0000000000
 1701.5000000 36.247001648 -9999.000000 2.0000000000 14.000000000 106.00000000 1.0000000000
 1701.6250000 40.381999969 -9999.000000 2.0000000000 14.000000000 106.00000000 1.0000000000
 1701.7500000 44.516998291 -9999.000000 2.0000000000 14.000000000 106.00000000 1.0000000000
 1701.8750000 48.652000427 -9999.000000 2.0000000000 14.000000000 106.00000000 1.0000000000
 1702.0000000 52.786998749 -9999.000000 2.0000000000 14.000000000 106.00000000 1.0000000000
 1702.1250000 53.714500427 -9999.000000 2.0000000000 14.000000000 106.00000000 1.0000000000
 1702.2500000 54.641998291 -9999.000000 2.0000000000 14.000000000 106.00000000 1.0000000000
 1702.3750000 55.569499969 -9999.000000 2.0000000000 14.000000000 106.00000000 1.0000000000
 1702.5000000 56.497001648 -9999.000000 2.0000000000 14.000000000 106.00000000 1.0000000000
 1702.6250000 53.518501282 -9999.000000 2.0000000000 14.000000000 106.00000000 1.0000000000
 1702.7500000 50.540000916 -9999.000000 2.0000000000 14.000000000 106.00000000 1.0000000000
 1702.8750000 47.561500549 -9999.000000 2.0000000000 14.000000000 106.00000000 1.0000000000
 1703.0000000 44.583000183 -9999.000000 2.0000000000 14.000000000 106.00000000 1.0000000000
 1703.1250000 46.443199158 -9999.000000 2.0000000000 14.000000000 106.00000000 1.0000000000
 1703.2500000 48.303501129 -9999.000000 2.0000000000 14.000000000 106.00000000 1.0000000000
 1703.3750000 50.163700104 -9999.000000 2.0000000000 14.000000000 106.00000000 1.0000000000
 1703.5000000 52.023998260 -9999.000000 2.0000000000 14.000000000 106.00000000 1.0000000000
 1703.6250000 43.570999146 -9999.000000 2.0000000000 14.000000000 106.00000000 1.0000000000
 1703.7500000 35.118000031 -9999.000000 2.0000000000 14.000000000 106.00000000 1.0000000000
 1703.8750000 26.665000916 -9999.000000 2.0000000000 14.000000000 106.00000000 1.0000000000
 1704.0000000 18.211999893 -9999.000000 2.0000000000 14.000000000 106.00000000 1.0000000000
 1704.1250000 20.943500519 -9999.000000 2.0000000000 14.000000000 106.00000000 1.0000000000
 1704.2500000 23.674999237 -9999.000000 2.0000000000 14.000000000 106.00000000 1.0000000000
 1704.3750000 26.406499863 -9999.000000 2.0000000000 14.000000000 106.00000000 1.0000000000
 1704.5000000 29.138000488 -9999.000000 2.0000000000 14.000000000 106.00000000 1.0000000000
 1704.6250000 25.376300812 -9999.000000 2.0000000000 14.000000000 106.00000000 1.0000000000
 1704.7500000 21.614500046 -9999.000000 2.0000000000 14.000000000 106.00000000 1.0000000000
 1704.8750000 17.852699280 -9999.000000 2.0000000000 14.000000000 106.00000000 1.0000000000
 1705.0000000 14.090999603 -9999.000000  -999.250000 0.1000000015 0.1000000015 0.0000000000
 1705.1250000 14.719200134 -9999.000000  -999.250000 0.1000000015 0.1000000015 0.0000000000
 1705.2500000 15.347499847 -9999.000000  -999.250000 0.1000000015 0.1000000015 0.0000000000
 1705.3750000 15.975700378 -9999.000000  -999.250000 0.1000000015 0.1000000015 0.0000000000
 1705.5000000 16.604000092 -9999.000000 2.0000000000 14.000000000 83.000000000 1.0000000000
 1705.6250000 21.907300949 -9999.000000 2.0000000000 14.000000000 83.000000000 1.0000000000
 1705.7500000 27.210500717 -9999.000000 2.0000000000 14.000000000 83.000000000 1.0000000000
 1705.8750000 32.513801575 -9999.000000 2.0000000000 14.000000000 83.000000000 1.0000000000
 1706.0000000 37.817001343 -9999.000000 2.0000000000 14.000000000 83.000000000 1.0000000000
 1706.1250000 35.832298279 -9999.000000 2.0000000000 14.000000000 83.000000000 1.0000000000
 1706.2500000 33.847499847 -9999.000000 2.0000000000 14.000000000 83.000000000 1.0000000000
 1706.3750000 31.862800598 -9999.000000 2.0000000000 14.000000000 83.000000000 1.0000000000
 1706.5000000 29.878000259 -9999.000000 2.0000000000 14.000000000 83.000000000 1.0000000000
 1706.6250000 29.254800797 -9999.000000 2.0000000000 14.000000000 83.000000000 1.0000000000
 1706.7500000 28.631500244 -9999.000000 2.0000000000 14.000000000 83.000000000 1.0000000000
 1706.8750000 28.008300781 -9999.000000 2.0000000000 14.000000000 83.000000000 1.0000000000
 1707.0000000 27.385000229 -9999.000000 2.0000000000 14.000000000 83.000000000 1.0000000000
 1707.1250000 26.681299210 -9999.000000 2.0000000000 14.000000000 83.000000000 1.0000000000
 1707.2500000 25.977500916 -9999.000000 2.0000000000 14.000000000 83.000000000 1.0000000000
 1707.3750000 25.273700714 -9999.000000 2.0000000000 14.000000000 83.000000000 1.0000000000
 1707.5000000 24.569999695 -9999.000000 2.0000000000 14.000000000 83.000000000 1.0000000000
 1707.6250000 23.693700790 -9999.000000 2.0000000000 14.000000000 83.000000000 1.0000000000
 1707.7500000 22.817499161 -9999.000000 2.0000000000 14.000000000 83.000000000 1.0000000000
 1707.8750000 21.941299438 -9999.000000 2.0000000000 14.000000000 83.000000000 1.0000000000
 1708.0000000 21.065000534 -9999.000000 2.0000000000 14.000000000 83.000000000 1.0000000000
 1708.1250000 23.327999115 -9999.000000 2.0000000000 14.000000000 83.000000000 1.0000000000
 1708.2500000 25.590999603 -9999.000000 2.0000000000 14.000000000 83.000000000 1.0000000000
 1708.3750000 27.854000092 -9999.000000 2.0000000000 14.000000000 83.000000000 1.0000000000
 1708.5000000 30.117000580 -9999.000000 2.0000000000 14.000000000 83.000000000 1.0000000000
 1708.6250000 29.559499741 -9999.000000 2.0000000000 14.000000000 83.000000000 1.0000000000
