# LAS format log file from PETREL
# Project units are specified as depth units
#==================================================================
~Version information
VERS.   2.0:
WRAP.   NO:
#==================================================================
~Well
STRT .m      730.00000000 :
STOP .m      1740.0000000 :
STEP .m     0.12500000 :
NULL .        -999.250000 :
COMP.           : COMPANY
WELL.  51-165   : WELL
FLD.            : FIELD
LOC.            : LOCATION
SRVC.           : SERVICE COMPANY
DATE.  2020-03-08 09:25:10   : Log Export Date {yyyy-MM-dd HH:mm:ss}
PROV.           : PROVINCE
UWI.      : UNIQUE WELL ID
API.            : API NUMBER
#==================================================================
~Curve
DEPT .m                   : DEPTH
RT .ohm.m                 : RT
SP .                      : SP
Fluids .                  : Fluids
POR .m3/m3                : POR
PERM .mD                  : PERM
Lith .                    : Lith
~Parameter
#==================================================================
~Ascii
# ...
 1719.6250000 3.4725000858 -9999.000000  -999.250000 0.1000000015 0.1000000015 0.0000000000
 1719.7500000 3.2730000019 -9999.000000  -999.250000 0.1000000015 0.1000000015 0.0000000000
 1719.8750000 3.0734999180 -9999.000000  -999.250000 0.1000000015 0.1000000015 0.0000000000
 1720.0000000 2.8740000725 -9999.000000  -999.250000 0.1000000015 0.1000000015 0.0000000000
 1720.1250000 3.1500000954 -9999.000000  -999.250000 0.1000000015 0.1000000015 0.0000000000
 1720.2500000 3.4260001183 -9999.000000  -999.250000 0.1000000015 0.1000000015 0.0000000000
 1720.3750000 3.7019999027 -9999.000000  -999.250000 0.1000000015 0.1000000015 0.0000000000
 1720.5000000 3.9779999256 -9999.000000  -999.250000 0.1000000015 0.1000000015 0.0000000000
 1720.6250000 4.6944999695 -9999.000000  -999.250000 0.1000000015 0.1000000015 0.0000000000
 1720.7500000 5.4109997749 -9999.000000  -999.250000 0.1000000015 0.1000000015 0.0000000000
 1720.8750000 6.1275000572 -9999.000000  -999.250000 0.1000000015 0.1000000015 0.0000000000
 1721.0000000 6.8439998627 -9999.000000  -999.250000 0.1000000015 0.1000000015 0.0000000000
 1721.1250000 9.2790002823 -9999.000000 3.0000000000 8.0000000000 9.0000000000 1.0000000000
 1721.2500000 11.713999748 -9999.000000 3.0000000000 8.0000000000 9.0000000000 1.0000000000
 1721.3750000 14.149000168 -9999.000000 3.0000000000 8.0000000000 9.0000000000 1.0000000000
 1721.5000000 16.583999634 -9999.000000 3.0000000000 8.0000000000 9.0000000000 1.0000000000
 1721.6250000 13.502499580 -9999.000000  -999.250000 0.1000000015 0.1000000015 0.0000000000
 1721.7500000 10.420999527 -9999.000000  -999.250000 0.1000000015 0.1000000015 0.0000000000
 1721.8750000 7.3394999504 -9999.000000  -999.250000 0.1000000015 0.1000000015 0.0000000000
 1722.0000000 4.2579998970 -9999.000000  -999.250000 0.1000000015 0.1000000015 0.0000000000
 1722.1250000 4.4864997864 -9999.000000  -999.250000 0.1000000015 0.1000000015 0.0000000000
 1722.2500000 4.7150001526 -9999.000000  -999.250000 0.1000000015 0.1000000015 0.0000000000
 1722.3750000 4.9435000420 -9999.000000  -999.250000 0.1000000015 0.1000000015 0.0000000000
 1722.5000000 5.1719999313 -9999.000000  -999.250000 0.1000000015 0.1000000015 0.0000000000
 1722.6250000 8.4588003159 -9999.000000 3.0000000000 8.0000000000 7.0000000000 1.0000000000
 1722.7500000 11.745499611 -9999.000000 3.0000000000 8.0000000000 7.0000000000 1.0000000000
 1722.8750000 15.032299995 -9999.000000 3.0000000000 8.0000000000 7.0000000000 1.0000000000
 1723.0000000 18.319000244 -9999.000000 3.0000000000 8.0000000000 7.0000000000 1.0000000000
 1723.1250000 19.988300323 -9999.000000 3.0000000000 8.0000000000 7.0000000000 1.0000000000
 1723.2500000 21.657499313 -9999.000000 3.0000000000 8.0000000000 7.0000000000 1.0000000000
 1723.3750000 23.326799393 -9999.000000 3.0000000000 8.0000000000 7.0000000000 1.0000000000
 1723.5000000 24.996000290 -9999.000000  -999.250000 0.1000000015 0.1000000015 0.0000000000
 1723.6250000 19.667800903 -9999.000000  -999.250000 0.1000000015 0.1000000015 0.0000000000
 1723.7500000 14.339500427 -9999.000000  -999.250000 0.1000000015 0.1000000015 0.0000000000
 1723.8750000 9.0113000870 -9999.000000  -999.250000 0.1000000015 0.1000000015 0.0000000000
 1724.0000000 3.6830000877 -9999.000000  -999.250000 0.1000000015 0.1000000015 0.0000000000
 1724.1250000 4.7578001022 -9999.000000  -999.250000 0.1000000015 0.1000000015 0.0000000000
 1724.2500000 5.8324999809 -9999.000000  -999.250000 0.1000000015 0.1000000015 0.0000000000
 1724.3750000 6.9071998596 -9999.000000  -999.250000 0.1000000015 0.1000000015 0.0000000000
 1724.5000000 7.9819998741 -9999.000000  -999.250000 0.1000000015 0.1000000015 0.0000000000
 1724.6250000 7.4569997787 -9999.000000  -999.250000 0.1000000015 0.1000000015 0.0000000000
 1724.7500000 6.9320001602 -9999.000000  -999.250000 0.1000000015 0.1000000015 0.0000000000
 1724.8750000 6.4070000648 -9999.000000  -999.250000 0.1000000015 0.1000000015 0.0000000000
 1725.0000000 5.8819999695 -9999.000000  -999.250000 0.1000000015 0.1000000015 0.0000000000
 1725.1250000 5.9654998779 -9999.000000  -999.250000 0.1000000015 0.1000000015 0.0000000000
 1725.2500000 6.0489997864 -9999.000000  -999.250000 0.1000000015 0.1000000015 0.0000000000
 1725.3750000 6.1325001717 -9999.000000  -999.250000 0.1000000015 0.1000000015 0.0000000000
 1725.5000000 6.2160000801 -9999.000000  -999.250000 0.1000000015 0.1000000015 0.0000000000
 1725.6250000 5.8343000412 -9999.000000  -999.250000 0.1000000015 0.1000000015 0.0000000000
 1725.7500000 5.4524998665 -9999.000000  -999.250000 0.1000000015 0.1000000015 0.0000000000
 1725.8750000 5.0707998276 -9999.000000  -999.250000 0.1000000015 0.1000000015 0.0000000000
 1726.0000000 4.6890001297 -9999.000000  -999.250000 0.1000000015 0.1000000015 0.0000000000
 1726.1250000 4.7179999352 -9999.000000  -999.250000 0.1000000015 0.1000000015 0.0000000000
 1726.2500000 4.7470002174 -9999.000000  -999.250000 0.1000000015 0.1000000015 0.0000000000
 1726.3750000 4.7760000229 -9999.000000  -999.250000 0.1000000015 0.1000000015 0.0000000000
 1726.5000000 4.8049998283 -9999.000000  -999.250000 0.1000000015 0.1000000015 0.0000000000
 1726.6250000 4.9050002098 -9999.000000  -999.250000 0.1000000015 0.1000000015 0.0000000000
 1726.7500000 5.0050001144 -9999.000000  -999.250000 0.1000000015 0.1000000015 0.0000000000
 1726.8750000 5.1050000191 -9999.000000  -999.250000 0.1000000015 0.1000000015 0.0000000000
 1727.0000000 5.2049999237 -9999.000000  -999.250000 0.1000000015 0.1000000015 0.0000000000
 1727.1250000 10.622300148 -9999.000000 3.0000000000 9.0000000000 18.000000000 1.0000000000
 1727.2500000 16.039499283 -9999.000000 3.0000000000 9.0000000000 18.000000000 1.0000000000
 1727.3750000 21.456800461 -9999.000000 3.0000000000 9.0000000000 18.000000000 1.0000000000
 1727.5000000 26.874000549 -9999.000000 3.0000000000 9.0000000000 18.000000000 1.0000000000
 1727.6250000 21.552999496 -9999.000000 3.0000000000 9.0000000000 18.000000000 1.0000000000
 1727.7500000 16.232000351 -9999.000000 3.0000000000 9.0000000000 18.000000000 1.0000000000
 1727.8750000 10.911000252 -9999.000000  -999.250000 0.1000000015 0.1000000015 0.0000000000
 1728.0000000 5.5900001526 -9999.000000  -999.250000 0.1000000015 0.1000000015 0.0000000000
 1728.1250000 5.0082998276 -9999.000000  -999.250000 0.1000000015 0.1000000015 0.0000000000
 1728.2500000 4.4264998436 -9999.000000  -999.250000 0.1000000015 0.1000000015 0.0000000000
 1728.3750000 3.8447999954 -9999.000000  -999.250000 0.1000000015 0.1000000015 0.0000000000
 1728.5000000 3.2630000114 -9999.000000  -999.250000 0.1000000015 0.1000000015 0.0000000000
 1728.6250000 3.6029999256 -9999.000000  -999.250000 0.1000000015 0.1000000015 0.0000000000
 1728.7500000 3.9430000782 -9999.000000  -999.250000 0.1000000015 0.1000000015 0.0000000000
 1728.8750000 4.2829999924 -9999.000000  -999.250000 0.1000000015 0.1000000015 0.0000000000
 1729.0000000 4.6230001450 -9999.000000  -999.250000 0.1000000015 0.1000000015 0.0000000000
 1729.1250000 5.0095000267 -9999.000000  -999.250000 0.1000000015 0.1000000015 0.0000000000
 1729.2500000 5.3959999084 -9999.000000  -999.250000 0.1000000015 0.1000000015 0.0000000000
 1729.3750000 5.7824997902 -9999.000000  -999.250000 0.1000000015 0.1000000015 0.0000000000
 1729.5000000 6.1690001488 -9999.000000  -999.250000 0.1000000015 0.1000000015 0.0000000000
 1729.6250000 11.969799995 -9999.000000 4.0000000000 14.000000000 223.00000000 1.0000000000
 1729.7500000 17.770500183 -9999.000000 4.0000000000 14.000000000 223.00000000 1.0000000000
 1729.8750000 23.571199417 -9999.000000 4.0000000000 14.000000000 223.00000000 1.0000000000
 1730.0000000 29.371999741 -9999.000000 4.0000000000 14.000000000 223.00000000 1.0000000000
 1730.1250000 35.816001892 -9999.000000 4.0000000000 14.000000000 223.00000000 1.0000000000
 1730.2500000 42.259998322 -9999.000000 4.0000000000 14.000000000 223.00000000 1.0000000000
 1730.3750000 48.703998566 -9999.000000 4.0000000000 14.000000000 223.00000000 1.0000000000
