# LAS format log file from PETREL
# Project units are specified as depth units
#==================================================================
~Version information
VERS.   2.0:
WRAP.   NO:
#==================================================================
~Well
STRT .m      212.00000000 :
STOP .m      1748.0000000 :
STEP .m     0.12500000 :
NULL .        -999.250000 :
COMP.           : COMPANY
WELL.  51-164   : WELL
FLD.            : FIELD
LOC.            : LOCATION
SRVC.           : SERVICE COMPANY
DATE.  2020-03-08 09:25:10   : Log Export Date {yyyy-MM-dd HH:mm:ss}
PROV.           : PROVINCE
UWI.      : UNIQUE WELL ID
API.            : API NUMBER
#==================================================================
~Curve
DEPT .m                   : DEPTH
RT .ohm.m                 : RT
SP .                      : SP
Fluids .                  : Fluids
POR .m3/m3                : POR
PERM .mD                  : PERM
Lith .                    : Lith
~Parameter
#==================================================================
~Ascii
# ...
 1636.6250000 38.290000916 23.969999313 4.0000000000 21.000000000 1522.0000000 1.0000000000
 1636.7500000 37.279998779 23.870000839 4.0000000000 21.000000000 1522.0000000 1.0000000000
 1636.8750000 37.750000000 23.790000916 4.0000000000 21.000000000 1522.0000000 1.0000000000
 1637.0000000 38.439998627 23.729999542 4.0000000000 21.000000000 1522.0000000 1.0000000000
 1637.1250000 39.029998779 23.659999847 4.0000000000 21.000000000 1522.0000000 1.0000000000
 1637.2500000 39.389999390 23.610000610 4.0000000000 21.000000000 1522.0000000 1.0000000000
 1637.3750000 39.099998474 23.569999695 4.0000000000 21.000000000 1522.0000000 1.0000000000
 1637.5000000 38.490001678 23.559999466 4.0000000000 21.000000000 1522.0000000 1.0000000000
 1637.6250000 38.909999847 23.579999924 4.0000000000 21.000000000 1522.0000000 1.0000000000
 1637.7500000 40.479999542 23.620000839 4.0000000000 21.000000000 1522.0000000 1.0000000000
 1637.8750000 41.779998779 23.690000534 4.0000000000 21.000000000 1522.0000000 1.0000000000
 1638.0000000 42.409999847 23.799999237 4.0000000000 21.000000000 1522.0000000 1.0000000000
 1638.1250000 43.049999237 23.950000763 4.0000000000 21.000000000 1522.0000000 1.0000000000
 1638.2500000 43.389999390 24.159999847 4.0000000000 21.000000000 1522.0000000 1.0000000000
 1638.3750000 43.849998474 24.420000076 4.0000000000 21.000000000 1522.0000000 1.0000000000
 1638.5000000 45.119998932 24.719999313 4.0000000000 21.000000000 1522.0000000 1.0000000000
 1638.6250000 44.919998169 25.069999695 4.0000000000 21.000000000 1522.0000000 1.0000000000
 1638.7500000 36.770000458 25.459999084 4.0000000000 21.000000000 1522.0000000 1.0000000000
 1638.8750000 26.239999771 25.899999619 4.0000000000 21.000000000 1522.0000000 1.0000000000
 1639.0000000 19.319999695 26.350000381 4.0000000000 21.000000000 1522.0000000 1.0000000000
 1639.1250000 16.579999924 26.809999466 4.0000000000 21.000000000 1522.0000000 1.0000000000
 1639.2500000 16.610000610 27.239999771 4.0000000000 21.000000000 1522.0000000 1.0000000000
 1639.3750000 17.940000534 27.639999390 4.0000000000 21.000000000 1522.0000000 1.0000000000
 1639.5000000 18.920000076 28.000000000 4.0000000000 21.000000000 1522.0000000 1.0000000000
 1639.6250000 18.479999542 28.270000458 4.0000000000 21.000000000 1522.0000000 1.0000000000
 1639.7500000 16.610000610 28.440000534 4.0000000000 21.000000000 1522.0000000 1.0000000000
 1639.8750000 15.020000458 28.520000458  -999.250000 0.1000000015 0.1000000015 0.0000000000
 1640.0000000 14.329999924 28.510000229  -999.250000 0.1000000015 0.1000000015 0.0000000000
 1640.1250000 14.819999695 28.450000763  -999.250000 0.1000000015 0.1000000015 0.0000000000
 1640.2500000 16.290000916 28.309999466  -999.250000 0.1000000015 0.1000000015 0.0000000000
 1640.3750000 18.409999847 28.110000610  -999.250000 0.1000000015 0.1000000015 0.0000000000
 1640.5000000 20.870000839 27.850000381 4.0000000000 24.000000000 2617.0000000 1.0000000000
 1640.6250000 24.690000534 27.569999695 4.0000000000 24.000000000 2617.0000000 1.0000000000
 1640.7500000 29.770000458 27.270000458 4.0000000000 24.000000000 2617.0000000 1.0000000000
 1640.8750000 34.139999390 26.979999542 4.0000000000 24.000000000 2617.0000000 1.0000000000
 1641.0000000 36.700000763 26.670000076 4.0000000000 24.000000000 2617.0000000 1.0000000000
 1641.1250000 37.729999542 26.379999161 4.0000000000 24.000000000 2617.0000000 1.0000000000
 1641.2500000 38.500000000 26.120000839 4.0000000000 24.000000000 2617.0000000 1.0000000000
 1641.3750000 39.110000610 25.909999847 4.0000000000 24.000000000 2617.0000000 1.0000000000
 1641.5000000 39.220001221 25.770000458 4.0000000000 24.000000000 2617.0000000 1.0000000000
 1641.6250000 39.389999390 25.700000763 4.0000000000 24.000000000 2617.0000000 1.0000000000
 1641.7500000 39.279998779 25.680000305 4.0000000000 24.000000000 2617.0000000 1.0000000000
 1641.8750000 38.349998474 25.729999542 4.0000000000 24.000000000 2617.0000000 1.0000000000
 1642.0000000 36.680000305 25.840000153 4.0000000000 24.000000000 2617.0000000 1.0000000000
 1642.1250000 34.360000610 26.010000229 4.0000000000 24.000000000 2617.0000000 1.0000000000
 1642.2500000 30.790000916 26.200000763 4.0000000000 24.000000000 2617.0000000 1.0000000000
 1642.3750000 27.409999847 26.409999847 4.0000000000 24.000000000 2617.0000000 1.0000000000
 1642.5000000 25.559999466 26.629999161 4.0000000000 24.000000000 2617.0000000 1.0000000000
 1642.6250000 24.370000839 26.860000610 4.0000000000 24.000000000 2617.0000000 1.0000000000
 1642.7500000 23.670000076 27.100000381 4.0000000000 24.000000000 2617.0000000 1.0000000000
 1642.8750000 23.799999237 27.309999466 4.0000000000 24.000000000 2617.0000000 1.0000000000
 1643.0000000 24.239999771 27.489999771 4.0000000000 24.000000000 2617.0000000 1.0000000000
 1643.1250000 24.670000076 27.629999161 4.0000000000 24.000000000 2617.0000000 1.0000000000
 1643.2500000 23.680000305 27.739999771 4.0000000000 24.000000000 2617.0000000 1.0000000000
 1643.3750000 20.309999466 27.790000916 4.0000000000 24.000000000 2617.0000000 1.0000000000
 1643.5000000 16.760000229 27.799999237  -999.250000 0.1000000015 0.1000000015 0.0000000000
 1643.6250000 15.069999695 27.750000000  -999.250000 0.1000000015 0.1000000015 0.0000000000
 1643.7500000 15.420000076 27.639999390  -999.250000 0.1000000015 0.1000000015 0.0000000000
 1643.8750000 18.290000916 27.489999771  -999.250000 0.1000000015 0.1000000015 0.0000000000
 1644.0000000 24.729999542 27.280000687 4.0000000000 24.000000000 2479.0000000 1.0000000000
 1644.1250000 32.799999237 27.010000229 4.0000000000 24.000000000 2479.0000000 1.0000000000
 1644.2500000 36.709999084 26.670000076 4.0000000000 24.000000000 2479.0000000 1.0000000000
 1644.3750000 36.369998932 26.299999237 4.0000000000 24.000000000 2479.0000000 1.0000000000
 1644.5000000 35.159999847 25.920000076 4.0000000000 24.000000000 2479.0000000 1.0000000000
 1644.6250000 35.349998474 25.540000916 4.0000000000 24.000000000 2479.0000000 1.0000000000
 1644.7500000 36.650001526 25.159999847 4.0000000000 24.000000000 2479.0000000 1.0000000000
 1644.8750000 38.040000916 24.809999466 4.0000000000 24.000000000 2479.0000000 1.0000000000
 1645.0000000 38.840000153 24.510000229 4.0000000000 24.000000000 2479.0000000 1.0000000000
 1645.1250000 38.810001373 24.299999237 4.0000000000 24.000000000 2479.0000000 1.0000000000
 1645.2500000 38.029998779 24.159999847 4.0000000000 24.000000000 2479.0000000 1.0000000000
 1645.3750000 37.669998169 24.079999924 4.0000000000 24.000000000 2479.0000000 1.0000000000
 1645.5000000 37.270000458 24.040000916 4.0000000000 24.000000000 2479.0000000 1.0000000000
 1645.6250000 35.869998932 24.040000916 4.0000000000 24.000000000 2479.0000000 1.0000000000
 1645.7500000 34.139999390 24.079999924 4.0000000000 24.000000000 2479.0000000 1.0000000000
 1645.8750000 33.380001068 24.149999619 4.0000000000 24.000000000 2479.0000000 1.0000000000
 1646.0000000 33.599998474 24.209999084 4.0000000000 24.000000000 2479.0000000 1.0000000000
 1646.1250000 34.930000305 24.260000229 4.0000000000 24.000000000 2479.0000000 1.0000000000
 1646.2500000 37.459999084 24.309999466 4.0000000000 24.000000000 2479.0000000 1.0000000000
 1646.3750000 39.220001221 24.360000610 4.0000000000 24.000000000 2479.0000000 1.0000000000
 1646.5000000 38.330001831 24.409999847 4.0000000000 24.000000000 2479.0000000 1.0000000000
 1646.6250000 36.310001373 24.440000534 4.0000000000 24.000000000 2479.0000000 1.0000000000
 1646.7500000 34.569999695 24.450000763 4.0000000000 24.000000000 2479.0000000 1.0000000000
 1646.8750000 33.389999390 24.469999313 4.0000000000 24.000000000 2479.0000000 1.0000000000
 1647.0000000 32.939998627 24.479999542 4.0000000000 24.000000000 2479.0000000 1.0000000000
 1647.1250000 33.500000000 24.489999771 4.0000000000 24.000000000 2479.0000000 1.0000000000
 1647.2500000 33.419998169 24.489999771 4.0000000000 24.000000000 2479.0000000 1.0000000000
 1647.3750000 32.979999542 24.500000000 4.0000000000 24.000000000 2479.0000000 1.0000000000
