# LAS format log file from PETREL
# Project units are specified as depth units
#==================================================================
~Version information
VERS.   2.0:
WRAP.   NO:
#==================================================================
~Well
STRT .m      1580.8750000 :
STOP .m      1709.7500000 :
STEP .m     0.12500000 :
NULL .        -999.250000 :
COMP.           : COMPANY
WELL.  51-166   : WELL
FLD.            : FIELD
LOC.            : LOCATION
SRVC.           : SERVICE COMPANY
DATE.  2020-03-08 09:25:10   : Log Export Date {yyyy-MM-dd HH:mm:ss}
PROV.           : PROVINCE
UWI.      : UNIQUE WELL ID
API.            : API NUMBER
#==================================================================
~Curve
DEPT .m                   : DEPTH
Fluids .                  : Fluids
POR .m3/m3                : POR
PERM .mD                  : PERM
Lith .                    : Lith
~Parameter
#==================================================================
~Ascii
# ...
 1672.3750000 2.0000000000 15.000000000 130.00000000 1.0000000000
 1672.5000000 2.0000000000 15.000000000 130.00000000 1.0000000000
 1672.6250000 2.0000000000 15.000000000 130.00000000 1.0000000000
 1672.7500000 2.0000000000 15.000000000 130.00000000 1.0000000000
 1672.8750000 2.0000000000 15.000000000 130.00000000 1.0000000000
 1673.0000000 2.0000000000 15.000000000 130.00000000 1.0000000000
 1673.1250000 2.0000000000 15.000000000 130.00000000 1.0000000000
 1673.2500000 2.0000000000 15.000000000 130.00000000 1.0000000000
 1673.3750000 2.0000000000 15.000000000 130.00000000 1.0000000000
 1673.5000000 2.0000000000 15.000000000 130.00000000 1.0000000000
 1673.6250000 2.0000000000 15.000000000 130.00000000 1.0000000000
 1673.7500000 2.0000000000 15.000000000 130.00000000 1.0000000000
 1673.8750000 2.0000000000 15.000000000 130.00000000 1.0000000000
 1674.0000000 2.0000000000 15.000000000 130.00000000 1.0000000000
 1674.1250000 2.0000000000 15.000000000 130.00000000 1.0000000000
 1674.2500000 2.0000000000 15.000000000 130.00000000 1.0000000000
 1674.3750000 2.0000000000 15.000000000 130.00000000 1.0000000000
 1674.5000000 2.0000000000 15.000000000 130.00000000 1.0000000000
 1674.6250000 2.0000000000 15.000000000 130.00000000 1.0000000000
 1674.7500000 2.0000000000 15.000000000 130.00000000 1.0000000000
 1674.8750000 2.0000000000 15.000000000 130.00000000 1.0000000000
 1675.0000000 2.0000000000 15.000000000 130.00000000 1.0000000000
 1675.1250000 2.0000000000 15.000000000 130.00000000 1.0000000000
 1675.2500000 2.0000000000 15.000000000 130.00000000 1.0000000000
 1675.3750000 2.0000000000 15.000000000 130.00000000 1.0000000000
 1675.5000000 2.0000000000 15.000000000 130.00000000 1.0000000000
 1675.6250000 2.0000000000 15.000000000 130.00000000 1.0000000000
 1675.7500000 2.0000000000 15.000000000 130.00000000 1.0000000000
 1675.8750000 2.0000000000 15.000000000 130.00000000 1.0000000000
 1676.0000000 2.0000000000 15.000000000 130.00000000 1.0000000000
 1676.1250000 2.0000000000 15.000000000 130.00000000 1.0000000000
 1676.2500000 2.0000000000 15.000000000 130.00000000 1.0000000000
 1676.3750000 2.0000000000 15.000000000 130.00000000 1.0000000000
 1676.5000000 2.0000000000 15.000000000 130.00000000 1.0000000000
 1676.6250000 2.0000000000 15.000000000 130.00000000 1.0000000000
 1676.7500000 2.0000000000 15.000000000 130.00000000 1.0000000000
 1676.8750000 2.0000000000 15.000000000 130.00000000 1.0000000000
 1677.0000000  -999.250000 0.1000000015 0.1000000015 0.0000000000
 1677.1250000  -999.250000 0.1000000015 0.1000000015 0.0000000000
 1677.2500000  -999.250000 0.1000000015 0.1000000015 0.0000000000
 1677.3750000  -999.250000 0.1000000015 0.1000000015 0.0000000000
 1677.5000000 2.0000000000 16.000000000 145.00000000 1.0000000000
 1677.6250000 2.0000000000 16.000000000 145.00000000 1.0000000000
 1677.7500000 2.0000000000 16.000000000 145.00000000 1.0000000000
 1677.8750000 2.0000000000 16.000000000 145.00000000 1.0000000000
 1678.0000000 2.0000000000 16.000000000 145.00000000 1.0000000000
 1678.1250000 2.0000000000 16.000000000 145.00000000 1.0000000000
 1678.2500000 2.0000000000 16.000000000 145.00000000 1.0000000000
 1678.3750000 2.0000000000 16.000000000 145.00000000 1.0000000000
 1678.5000000 2.0000000000 16.000000000 145.00000000 1.0000000000
 1678.6250000 2.0000000000 16.000000000 145.00000000 1.0000000000
 1678.7500000 2.0000000000 16.000000000 145.00000000 1.0000000000
 1678.8750000 2.0000000000 16.000000000 145.00000000 1.0000000000
 1679.0000000 2.0000000000 16.000000000 145.00000000 1.0000000000
 1679.1250000 2.0000000000 16.000000000 145.00000000 1.0000000000
 1679.2500000 2.0000000000 16.000000000 145.00000000 1.0000000000
 1679.3750000 2.0000000000 16.000000000 145.00000000 1.0000000000
 1679.5000000 2.0000000000 16.000000000 145.00000000 1.0000000000
 1679.6250000 2.0000000000 16.000000000 145.00000000 1.0000000000
 1679.7500000 2.0000000000 16.000000000 145.00000000 1.0000000000
 1679.8750000 2.0000000000 16.000000000 145.00000000 1.0000000000
 1680.0000000 2.0000000000 16.000000000 145.00000000 1.0000000000
 1680.1250000 2.0000000000 16.000000000 145.00000000 1.0000000000
 1680.2500000 2.0000000000 16.000000000 145.00000000 1.0000000000
 1680.3750000 2.0000000000 16.000000000 145.00000000 1.0000000000
 1680.5000000 2.0000000000 16.000000000 145.00000000 1.0000000000
 1680.6250000 2.0000000000 16.000000000 145.00000000 1.0000000000
 1680.7500000 2.0000000000 16.000000000 145.00000000 1.0000000000
 1680.8750000 2.0000000000 16.000000000 145.00000000 1.0000000000
 1681.0000000 2.0000000000 16.000000000 145.00000000 1.0000000000
 1681.1250000 2.0000000000 16.000000000 145.00000000 1.0000000000
 1681.2500000 2.0000000000 16.000000000 145.00000000 1.0000000000
 1681.3750000 2.0000000000 16.000000000 145.00000000 1.0000000000
 1681.5000000 2.0000000000 16.000000000 145.00000000 1.0000000000
 1681.6250000 2.0000000000 16.000000000 145.00000000 1.0000000000
 1681.7500000 2.0000000000 16.000000000 145.00000000 1.0000000000
 1681.8750000 2.0000000000 16.000000000 145.00000000 1.0000000000
 1682.0000000 2.0000000000 16.000000000 145.00000000 1.0000000000
 1682.1250000 2.0000000000 16.000000000 145.00000000 1.0000000000
 1682.2500000 2.0000000000 16.000000000 145.00000000 1.0000000000
 1682.3750000 2.0000000000 16.000000000 145.00000000 1.0000000000
 1682.5000000 2.0000000000 16.000000000 145.00000000 1.0000000000
 1682.6250000 2.0000000000 16.000000000 145.00000000 1.0000000000
 1682.7500000 2.0000000000 16.000000000 145.00000000 1.0000000000
 1682.8750000 2.0000000000 16.000000000 145.00000000 1.0000000000
 1683.0000000 2.0000000000 16.000000000 145.00000000 1.0000000000
 1683.1250000 2.0000000000 16.000000000 145.00000000 1.0000000000
 1683.2500000 2.0000000000 16.000000000 145.00000000 1.0000000000
 1683.3750000 2.0000000000 16.000000000 145.00000000 1.0000000000
 1683.5000000 2.0000000000 16.000000000 145.00000000 1.0000000000
 1683.6250000 2.0000000000 16.000000000 145.00000000 1.0000000000
 1683.7500000 2.0000000000 16.000000000 145.00000000 1.0000000000
 1683.8750000 2.0000000000 16.000000000 145.00000000 1.0000000000
 1684.0000000 2.0000000000 16.000000000 145.00000000 1.0000000000
 1684.1250000 2.0000000000 16.000000000 145.00000000 1.0000000000
 1684.2500000 2.0000000000 16.000000000 145.00000000 1.0000000000
 1684.3750000 2.0000000000 16.000000000 145.00000000 1.0000000000
 1684.5000000 2.0000000000 16.000000000 145.00000000 1.0000000000
 1684.6250000 2.0000000000 16.000000000 145.00000000 1.0000000000
 1684.7500000 2.0000000000 16.000000000 145.00000000 1.0000000000
 1684.8750000 2.0000000000 16.000000000 145.00000000 1.0000000000
 1685.0000000 2.0000000000 16.000000000 145.00000000 1.0000000000
 1685.1250000 2.0000000000 16.000000000 145.00000000 1.0000000000
 1685.2500000 2.0000000000 16.000000000 145.00000000 1.0000000000
 1685.3750000 2.0000000000 16.000000000 145.00000000 1.0000000000
 1685.5000000 2.0000000000 16.000000000 145.00000000 1.0000000000
 1685.6250000 2.0000000000 16.000000000 145.00000000 1.0000000000
 1685.7500000 2.0000000000 16.000000000 145.00000000 1.0000000000
 1685.8750000 2.0000000000 16.000000000 145.00000000 1.0000000000
 1686.0000000 2.0000000000 16.000000000 145.00000000 1.0000000000
 1686.1250000 2.0000000000 16.000000000 145.00000000 1.0000000000
 1686.2500000 2.0000000000 16.000000000 145.00000000 1.0000000000
 1686.3750000 2.0000000000 16.000000000 145.00000000 1.0000000000
 1686.5000000 2.0000000000 16.000000000 145.00000000 1.0000000000
 1686.6250000 2.0000000000 16.000000000 145.00000000 1.0000000000
 1686.7500000 2.0000000000 16.000000000 145.00000000 1.0000000000
 1686.8750000 2.0000000000 16.000000000 145.00000000 1.0000000000
 1687.0000000 2.0000000000 16.000000000 145.00000000 1.0000000000
 1687.1250000 2.0000000000 16.000000000 145.00000000 1.0000000000
 1687.2500000 2.0000000000 16.000000000 145.00000000 1.0000000000
 1687.3750000 2.0000000000 16.000000000 145.00000000 1.0000000000
 1687.5000000 2.0000000000 16.000000000 145.00000000 1.0000000000
