# LAS format log file from PETREL
# Project units are specified as depth units
#==================================================================
~Version information
VERS.   2.0:
WRAP.   NO:
#==================================================================
~Well
STRT .m      730.00000000 :
STOP .m      1740.0000000 :
STEP .m     0.12500000 :
NULL .        -999.250000 :
COMP.           : COMPANY
WELL.  51-165   : WELL
FLD.            : FIELD
LOC.            : LOCATION
SRVC.           : SERVICE COMPANY
DATE.  2020-03-08 09:25:10   : Log Export Date {yyyy-MM-dd HH:mm:ss}
PROV.           : PROVINCE
UWI.      : UNIQUE WELL ID
API.            : API NUMBER
#==================================================================
~Curve
DEPT .m                   : DEPTH
RT .ohm.m                 : RT
SP .                      : SP
Fluids .                  : Fluids
POR .m3/m3                : POR
PERM .mD                  : PERM
Lith .                    : Lith
~Parameter
#==================================================================
~Ascii
# ...
 1643.5000000 31.354999542 -9999.000000  -999.250000 0.1000000015 0.1000000015 0.0000000000
 1643.6250000 24.595699310 -9999.000000  -999.250000 0.1000000015 0.1000000015 0.0000000000
 1643.7500000 17.836500168 -9999.000000  -999.250000 0.1000000015 0.1000000015 0.0000000000
 1643.8750000 11.077199936 -9999.000000  -999.250000 0.1000000015 0.1000000015 0.0000000000
 1644.0000000 4.3179998398 -9999.000000  -999.250000 0.1000000015 0.1000000015 0.0000000000
 1644.1250000 5.4022002220 -9999.000000  -999.250000 0.1000000015 0.1000000015 0.0000000000
 1644.2500000 6.4864997864 -9999.000000  -999.250000 0.1000000015 0.1000000015 0.0000000000
 1644.3750000 7.5707001686 -9999.000000  -999.250000 0.1000000015 0.1000000015 0.0000000000
 1644.5000000 8.6549997330 -9999.000000  -999.250000 0.1000000015 0.1000000015 0.0000000000
 1644.6250000 9.8330001831 -9999.000000 2.0000000000 15.000000000 92.000000000 1.0000000000
 1644.7500000 11.010999680 -9999.000000 2.0000000000 15.000000000 92.000000000 1.0000000000
 1644.8750000 12.189000130 -9999.000000 2.0000000000 15.000000000 92.000000000 1.0000000000
 1645.0000000 13.366999626 -9999.000000 2.0000000000 15.000000000 92.000000000 1.0000000000
 1645.1250000 13.612999916 -9999.000000 2.0000000000 15.000000000 92.000000000 1.0000000000
 1645.2500000 13.859000206 -9999.000000 2.0000000000 15.000000000 92.000000000 1.0000000000
 1645.3750000 14.104999542 -9999.000000 2.0000000000 15.000000000 92.000000000 1.0000000000
 1645.5000000 14.350999832 -9999.000000 2.0000000000 15.000000000 92.000000000 1.0000000000
 1645.6250000 15.569999695 -9999.000000 2.0000000000 15.000000000 92.000000000 1.0000000000
 1645.7500000 16.788999557 -9999.000000 2.0000000000 15.000000000 92.000000000 1.0000000000
 1645.8750000 18.007999420 -9999.000000 2.0000000000 15.000000000 92.000000000 1.0000000000
 1646.0000000 19.226999283 -9999.000000 2.0000000000 15.000000000 92.000000000 1.0000000000
 1646.1250000 23.102699280 -9999.000000 2.0000000000 15.000000000 92.000000000 1.0000000000
 1646.2500000 26.978500366 -9999.000000 2.0000000000 15.000000000 92.000000000 1.0000000000
 1646.3750000 30.854200363 -9999.000000 2.0000000000 15.000000000 92.000000000 1.0000000000
 1646.5000000 34.729999542 -9999.000000 2.0000000000 15.000000000 92.000000000 1.0000000000
 1646.6250000 33.489498138 -9999.000000 2.0000000000 15.000000000 92.000000000 1.0000000000
 1646.7500000 32.249000549 -9999.000000 2.0000000000 15.000000000 92.000000000 1.0000000000
 1646.8750000 31.008499146 -9999.000000 2.0000000000 15.000000000 92.000000000 1.0000000000
 1647.0000000 29.767999649 -9999.000000 2.0000000000 15.000000000 92.000000000 1.0000000000
 1647.1250000 27.406000137 -9999.000000 2.0000000000 15.000000000 92.000000000 1.0000000000
 1647.2500000 25.044000626 -9999.000000 2.0000000000 15.000000000 92.000000000 1.0000000000
 1647.3750000 22.681999207 -9999.000000 2.0000000000 15.000000000 92.000000000 1.0000000000
 1647.5000000 20.319999695 -9999.000000 2.0000000000 15.000000000 92.000000000 1.0000000000
 1647.6250000 19.777700424 -9999.000000 2.0000000000 15.000000000 92.000000000 1.0000000000
 1647.7500000 19.235500336 -9999.000000 2.0000000000 15.000000000 92.000000000 1.0000000000
 1647.8750000 18.693199158 -9999.000000 2.0000000000 15.000000000 92.000000000 1.0000000000
 1648.0000000 18.150999069 -9999.000000 2.0000000000 15.000000000 92.000000000 1.0000000000
 1648.1250000 19.670000076 -9999.000000 2.0000000000 15.000000000 92.000000000 1.0000000000
 1648.2500000 21.188999176 -9999.000000 2.0000000000 15.000000000 92.000000000 1.0000000000
 1648.3750000 22.708000183 -9999.000000 2.0000000000 15.000000000 92.000000000 1.0000000000
 1648.5000000 24.226999283 -9999.000000 2.0000000000 15.000000000 92.000000000 1.0000000000
 1648.6250000 21.022699356 -9999.000000 2.0000000000 15.000000000 92.000000000 1.0000000000
 1648.7500000 17.818500519 -9999.000000 2.0000000000 15.000000000 92.000000000 1.0000000000
 1648.8750000 14.614199638 -9999.000000 2.0000000000 15.000000000 92.000000000 1.0000000000
 1649.0000000 11.409999847 -9999.000000  -999.250000 0.1000000015 0.1000000015 0.0000000000
 1649.1250000 10.175700188 -9999.000000  -999.250000 0.1000000015 0.1000000015 0.0000000000
 1649.2500000 8.9414997101 -9999.000000  -999.250000 0.1000000015 0.1000000015 0.0000000000
 1649.3750000 7.7072000504 -9999.000000  -999.250000 0.1000000015 0.1000000015 0.0000000000
 1649.5000000 6.4730000496 -9999.000000  -999.250000 0.1000000015 0.1000000015 0.0000000000
 1649.6250000 6.0795001984 -9999.000000  -999.250000 0.1000000015 0.1000000015 0.0000000000
 1649.7500000 5.6859998703 -9999.000000  -999.250000 0.1000000015 0.1000000015 0.0000000000
 1649.8750000 5.2925000191 -9999.000000  -999.250000 0.1000000015 0.1000000015 0.0000000000
 1650.0000000 4.8990001678 -9999.000000  -999.250000 0.1000000015 0.1000000015 0.0000000000
 1650.1250000 4.4635000229 -9999.000000  -999.250000 0.1000000015 0.1000000015 0.0000000000
 1650.2500000 4.0279998779 -9999.000000  -999.250000 0.1000000015 0.1000000015 0.0000000000
 1650.3750000 3.5924999714 -9999.000000  -999.250000 0.1000000015 0.1000000015 0.0000000000
 1650.5000000 3.1570000648 -9999.000000  -999.250000 0.1000000015 0.1000000015 0.0000000000
 1650.6250000 3.1063001156 -9999.000000  -999.250000 0.1000000015 0.1000000015 0.0000000000
 1650.7500000 3.0555000305 -9999.000000  -999.250000 0.1000000015 0.1000000015 0.0000000000
 1650.8750000 3.0048000813 -9999.000000  -999.250000 0.1000000015 0.1000000015 0.0000000000
 1651.0000000 2.9539999962 -9999.000000  -999.250000 0.1000000015 0.1000000015 0.0000000000
 1651.1250000 3.0885000229 -9999.000000  -999.250000 0.1000000015 0.1000000015 0.0000000000
 1651.2500000 3.2230000496 -9999.000000  -999.250000 0.1000000015 0.1000000015 0.0000000000
 1651.3750000 3.3575000763 -9999.000000  -999.250000 0.1000000015 0.1000000015 0.0000000000
 1651.5000000 3.4920001030 -9999.000000  -999.250000 0.1000000015 0.1000000015 0.0000000000
 1651.6250000 3.3815000057 -9999.000000  -999.250000 0.1000000015 0.1000000015 0.0000000000
 1651.7500000 3.2709999084 -9999.000000  -999.250000 0.1000000015 0.1000000015 0.0000000000
 1651.8750000 3.1605000496 -9999.000000  -999.250000 0.1000000015 0.1000000015 0.0000000000
 1652.0000000 3.0499999523 -9999.000000  -999.250000 0.1000000015 0.1000000015 0.0000000000
 1652.1250000 3.0055000782 -9999.000000  -999.250000 0.1000000015 0.1000000015 0.0000000000
 1652.2500000 2.9609999657 -9999.000000  -999.250000 0.1000000015 0.1000000015 0.0000000000
 1652.3750000 2.9165000916 -9999.000000  -999.250000 0.1000000015 0.1000000015 0.0000000000
 1652.5000000 2.8719999790 -9999.000000  -999.250000 0.1000000015 0.1000000015 0.0000000000
 1652.6250000 3.0840001106 -9999.000000  -999.250000 0.1000000015 0.1000000015 0.0000000000
 1652.7500000 3.2960000038 -9999.000000  -999.250000 0.1000000015 0.1000000015 0.0000000000
 1652.8750000 3.5079998970 -9999.000000  -999.250000 0.1000000015 0.1000000015 0.0000000000
 1653.0000000 3.7200000286 -9999.000000  -999.250000 0.1000000015 0.1000000015 0.0000000000
 1653.1250000 3.7284998894 -9999.000000  -999.250000 0.1000000015 0.1000000015 0.0000000000
 1653.2500000 3.7369999886 -9999.000000  -999.250000 0.1000000015 0.1000000015 0.0000000000
 1653.3750000 3.7455000877 -9999.000000  -999.250000 0.1000000015 0.1000000015 0.0000000000
 1653.5000000 3.7539999485 -9999.000000  -999.250000 0.1000000015 0.1000000015 0.0000000000
 1653.6250000 3.7056999207 -9999.000000  -999.250000 0.1000000015 0.1000000015 0.0000000000
 1653.7500000 3.6575000286 -9999.000000  -999.250000 0.1000000015 0.1000000015 0.0000000000
 1653.8750000 3.6092998981 -9999.000000  -999.250000 0.1000000015 0.1000000015 0.0000000000
 1654.0000000 3.5610001087 -9999.000000  -999.250000 0.1000000015 0.1000000015 0.0000000000
 1654.1250000 3.4788000584 -9999.000000  -999.250000 0.1000000015 0.1000000015 0.0000000000
 1654.2500000 3.3965001106 -9999.000000  -999.250000 0.1000000015 0.1000000015 0.0000000000
