# LAS format log file from PETREL
# Project units are specified as depth units
#==================================================================
~Version information
VERS.   2.0:
WRAP.   NO:
#==================================================================
~Well
STRT .m      730.00000000 :
STOP .m      1740.0000000 :
STEP .m     0.12500000 :
NULL .        -999.250000 :
COMP.           : COMPANY
WELL.  51-165   : WELL
FLD.            : FIELD
LOC.            : LOCATION
SRVC.           : SERVICE COMPANY
DATE.  2020-03-08 09:25:10   : Log Export Date {yyyy-MM-dd HH:mm:ss}
PROV.           : PROVINCE
UWI.      : UNIQUE WELL ID
API.            : API NUMBER
#==================================================================
~Curve
DEPT .m                   : DEPTH
RT .ohm.m                 : RT
SP .                      : SP
Fluids .                  : Fluids
POR .m3/m3                : POR
PERM .mD                  : PERM
Lith .                    : Lith
~Parameter
#==================================================================
~Ascii
# ...
 1708.7500000 29.002000809 -9999.000000 2.0000000000 14.000000000 83.000000000 1.0000000000
 1708.8750000 28.444499969 -9999.000000 2.0000000000 14.000000000 83.000000000 1.0000000000
 1709.0000000 27.886999130 -9999.000000 2.0000000000 14.000000000 83.000000000 1.0000000000
 1709.1250000 28.068199158 -9999.000000 2.0000000000 14.000000000 83.000000000 1.0000000000
 1709.2500000 28.249500275 -9999.000000 2.0000000000 14.000000000 83.000000000 1.0000000000
 1709.3750000 28.430700302 -9999.000000 2.0000000000 14.000000000 83.000000000 1.0000000000
 1709.5000000 28.611999512 -9999.000000 2.0000000000 14.000000000 83.000000000 1.0000000000
 1709.6250000 32.886199951 -9999.000000 2.0000000000 14.000000000 83.000000000 1.0000000000
 1709.7500000 37.160499573 -9999.000000 2.0000000000 14.000000000 83.000000000 1.0000000000
 1709.8750000 41.434700012 -9999.000000 2.0000000000 14.000000000 83.000000000 1.0000000000
 1710.0000000 45.708999634 -9999.000000 2.0000000000 14.000000000 83.000000000 1.0000000000
 1710.1250000 42.072700500 -9999.000000 2.0000000000 14.000000000 83.000000000 1.0000000000
 1710.2500000 38.436500549 -9999.000000 2.0000000000 14.000000000 83.000000000 1.0000000000
 1710.3750000 34.800201416 -9999.000000 2.0000000000 14.000000000 83.000000000 1.0000000000
 1710.5000000 31.163999557 -9999.000000 2.0000000000 14.000000000 83.000000000 1.0000000000
 1710.6250000 31.412700653 -9999.000000 2.0000000000 14.000000000 83.000000000 1.0000000000
 1710.7500000 31.661500931 -9999.000000 2.0000000000 14.000000000 83.000000000 1.0000000000
 1710.8750000 31.910299301 -9999.000000 2.0000000000 14.000000000 83.000000000 1.0000000000
 1711.0000000 32.159000397 -9999.000000 2.0000000000 14.000000000 83.000000000 1.0000000000
 1711.1250000 36.557498932 -9999.000000 2.0000000000 14.000000000 83.000000000 1.0000000000
 1711.2500000 40.956001282 -9999.000000 2.0000000000 14.000000000 83.000000000 1.0000000000
 1711.3750000 45.354499817 -9999.000000 2.0000000000 14.000000000 83.000000000 1.0000000000
 1711.5000000 49.752998352 -9999.000000 2.0000000000 14.000000000 83.000000000 1.0000000000
 1711.6250000 48.931999207 -9999.000000 2.0000000000 14.000000000 83.000000000 1.0000000000
 1711.7500000 48.111000061 -9999.000000 2.0000000000 14.000000000 83.000000000 1.0000000000
 1711.8750000 47.290000916 -9999.000000 2.0000000000 14.000000000 83.000000000 1.0000000000
 1712.0000000 46.469001770 -9999.000000 2.0000000000 14.000000000 83.000000000 1.0000000000
 1712.1250000 41.691501617 -9999.000000 2.0000000000 14.000000000 83.000000000 1.0000000000
 1712.2500000 36.914001465 -9999.000000 2.0000000000 14.000000000 83.000000000 1.0000000000
 1712.3750000 32.136501312 -9999.000000 2.0000000000 14.000000000 83.000000000 1.0000000000
 1712.5000000 27.358999252 -9999.000000 2.0000000000 14.000000000 83.000000000 1.0000000000
 1712.6250000 26.227699280 -9999.000000 2.0000000000 14.000000000 83.000000000 1.0000000000
 1712.7500000 25.096500397 -9999.000000 2.0000000000 14.000000000 83.000000000 1.0000000000
 1712.8750000 23.965200424 -9999.000000 2.0000000000 14.000000000 83.000000000 1.0000000000
 1713.0000000 22.833999634 -9999.000000 2.0000000000 14.000000000 83.000000000 1.0000000000
 1713.1250000 23.278699875 -9999.000000 2.0000000000 14.000000000 83.000000000 1.0000000000
 1713.2500000 23.723499298 -9999.000000 2.0000000000 14.000000000 83.000000000 1.0000000000
 1713.3750000 24.168300629 -9999.000000 2.0000000000 14.000000000 83.000000000 1.0000000000
 1713.5000000 24.613000870 -9999.000000 2.0000000000 14.000000000 83.000000000 1.0000000000
 1713.6250000 24.353500366 -9999.000000 2.0000000000 14.000000000 83.000000000 1.0000000000
 1713.7500000 24.093999863 -9999.000000 2.0000000000 14.000000000 83.000000000 1.0000000000
 1713.8750000 23.834499359 -9999.000000 2.0000000000 14.000000000 83.000000000 1.0000000000
 1714.0000000 23.575000763 -9999.000000 2.0000000000 14.000000000 83.000000000 1.0000000000
 1714.1250000 24.996500015 -9999.000000 2.0000000000 14.000000000 83.000000000 1.0000000000
 1714.2500000 26.417999268 -9999.000000 2.0000000000 14.000000000 83.000000000 1.0000000000
 1714.3750000 27.839500427 -9999.000000 2.0000000000 14.000000000 83.000000000 1.0000000000
 1714.5000000 29.260999680 -9999.000000 2.0000000000 14.000000000 83.000000000 1.0000000000
 1714.6250000 41.823299408 -9999.000000 2.0000000000 14.000000000 83.000000000 1.0000000000
 1714.7500000 54.385501862 -9999.000000 2.0000000000 14.000000000 83.000000000 1.0000000000
 1714.8750000 66.947799683 -9999.000000 2.0000000000 14.000000000 83.000000000 1.0000000000
 1715.0000000 79.510002136 -9999.000000 2.0000000000 14.000000000 83.000000000 1.0000000000
 1715.1250000 62.527000427 -9999.000000 2.0000000000 14.000000000 83.000000000 1.0000000000
 1715.2500000 45.543998718 -9999.000000 2.0000000000 14.000000000 83.000000000 1.0000000000
 1715.3750000 28.561000824 -9999.000000 2.0000000000 14.000000000 83.000000000 1.0000000000
 1715.5000000 11.578000069 -9999.000000  -999.250000 0.1000000015 0.1000000015 0.0000000000
 1715.6250000 9.6304998398 -9999.000000  -999.250000 0.1000000015 0.1000000015 0.0000000000
 1715.7500000 7.6830000877 -9999.000000  -999.250000 0.1000000015 0.1000000015 0.0000000000
 1715.8750000 5.7354998589 -9999.000000  -999.250000 0.1000000015 0.1000000015 0.0000000000
 1716.0000000 3.7880001068 -9999.000000  -999.250000 0.1000000015 0.1000000015 0.0000000000
 1716.1250000 3.7909998894 -9999.000000  -999.250000 0.1000000015 0.1000000015 0.0000000000
 1716.2500000 3.7939999104 -9999.000000  -999.250000 0.1000000015 0.1000000015 0.0000000000
 1716.3750000 3.7969999313 -9999.000000  -999.250000 0.1000000015 0.1000000015 0.0000000000
 1716.5000000 3.7999999523 -9999.000000  -999.250000 0.1000000015 0.1000000015 0.0000000000
 1716.6250000 4.0320000648 -9999.000000  -999.250000 0.1000000015 0.1000000015 0.0000000000
 1716.7500000 4.2639999390 -9999.000000  -999.250000 0.1000000015 0.1000000015 0.0000000000
 1716.8750000 4.4959998131 -9999.000000  -999.250000 0.1000000015 0.1000000015 0.0000000000
 1717.0000000 4.7280001640 -9999.000000  -999.250000 0.1000000015 0.1000000015 0.0000000000
 1717.1250000 4.5040001869 -9999.000000  -999.250000 0.1000000015 0.1000000015 0.0000000000
 1717.2500000 4.2800002098 -9999.000000  -999.250000 0.1000000015 0.1000000015 0.0000000000
 1717.3750000 4.0560002327 -9999.000000  -999.250000 0.1000000015 0.1000000015 0.0000000000
 1717.5000000 3.8320000172 -9999.000000  -999.250000 0.1000000015 0.1000000015 0.0000000000
 1717.6250000 3.5852999687 -9999.000000  -999.250000 0.1000000015 0.1000000015 0.0000000000
 1717.7500000 3.3385000229 -9999.000000  -999.250000 0.1000000015 0.1000000015 0.0000000000
 1717.8750000 3.0917999744 -9999.000000  -999.250000 0.1000000015 0.1000000015 0.0000000000
 1718.0000000 2.8450000286 -9999.000000  -999.250000 0.1000000015 0.1000000015 0.0000000000
 1718.1250000 3.0429999828 -9999.000000  -999.250000 0.1000000015 0.1000000015 0.0000000000
 1718.2500000 3.2409999371 -9999.000000  -999.250000 0.1000000015 0.1000000015 0.0000000000
 1718.3750000 3.4389998913 -9999.000000  -999.250000 0.1000000015 0.1000000015 0.0000000000
 1718.5000000 3.6370000839 -9999.000000  -999.250000 0.1000000015 0.1000000015 0.0000000000
 1718.6250000 3.7223000526 -9999.000000  -999.250000 0.1000000015 0.1000000015 0.0000000000
 1718.7500000 3.8074998856 -9999.000000  -999.250000 0.1000000015 0.1000000015 0.0000000000
 1718.8750000 3.8926999569 -9999.000000  -999.250000 0.1000000015 0.1000000015 0.0000000000
 1719.0000000 3.9779999256 -9999.000000  -999.250000 0.1000000015 0.1000000015 0.0000000000
 1719.1250000 3.9014999866 -9999.000000  -999.250000 0.1000000015 0.1000000015 0.0000000000
 1719.2500000 3.8250000477 -9999.000000  -999.250000 0.1000000015 0.1000000015 0.0000000000
 1719.3750000 3.7485001087 -9999.000000  -999.250000 0.1000000015 0.1000000015 0.0000000000
 1719.5000000 3.6719999313 -9999.000000  -999.250000 0.1000000015 0.1000000015 0.0000000000
