# LAS format log file from PETREL
# Project units are specified as depth units
#==================================================================
~Version information
VERS.   2.0:
WRAP.   NO:
#==================================================================
~Well
STRT .m      212.00000000 :
STOP .m      1748.0000000 :
STEP .m     0.12500000 :
NULL .        -999.250000 :
COMP.           : COMPANY
WELL.  51-164   : WELL
FLD.            : FIELD
LOC.            : LOCATION
SRVC.           : SERVICE COMPANY
DATE.  2020-03-08 09:25:10   : Log Export Date {yyyy-MM-dd HH:mm:ss}
PROV.           : PROVINCE
UWI.      : UNIQUE WELL ID
API.            : API NUMBER
#==================================================================
~Curve
DEPT .m                   : DEPTH
RT .ohm.m                 : RT
SP .                      : SP
Fluids .                  : Fluids
POR .m3/m3                : POR
PERM .mD                  : PERM
Lith .                    : Lith
~Parameter
#==================================================================
~Ascii
# ...
 1669.2500000 42.700000763 27.149999619 4.0000000000 21.000000000 1813.0000000 1.0000000000
 1669.3750000 43.259998322 27.489999771 4.0000000000 21.000000000 1813.0000000 1.0000000000
 1669.5000000 40.720001221 27.819999695 4.0000000000 21.000000000 1813.0000000 1.0000000000
 1669.6250000 34.349998474 28.110000610 4.0000000000 21.000000000 1813.0000000 1.0000000000
 1669.7500000 27.110000610 28.379999161 4.0000000000 21.000000000 1813.0000000 1.0000000000
 1669.8750000 22.370000839 28.629999161 4.0000000000 21.000000000 1813.0000000 1.0000000000
 1670.0000000 20.809999466 28.860000610 4.0000000000 21.000000000 1813.0000000 1.0000000000
 1670.1250000 22.680000305 29.069999695 4.0000000000 21.000000000 1813.0000000 1.0000000000
 1670.2500000 28.350000381 29.229999542 4.0000000000 21.000000000 1813.0000000 1.0000000000
 1670.3750000 34.880001068 29.340000153 4.0000000000 21.000000000 1813.0000000 1.0000000000
 1670.5000000 35.590000153 29.399999619 4.0000000000 21.000000000 1813.0000000 1.0000000000
 1670.6250000 29.209999084 29.409999847 4.0000000000 21.000000000 1813.0000000 1.0000000000
 1670.7500000 21.879999161 29.389999390 4.0000000000 21.000000000 1813.0000000 1.0000000000
 1670.8750000 17.870000839 29.319999695 4.0000000000 21.000000000 1813.0000000 1.0000000000
 1671.0000000 17.389999390 29.200000763  -999.250000 0.1000000015 0.1000000015 0.0000000000
 1671.1250000 20.840000153 29.049999237  -999.250000 0.1000000015 0.1000000015 0.0000000000
 1671.2500000 28.440000534 28.870000839  -999.250000 0.1000000015 0.1000000015 0.0000000000
 1671.3750000 37.939998627 28.670000076 4.0000000000 16.000000000 583.00000000 1.0000000000
 1671.5000000 45.540000916 28.440000534 4.0000000000 16.000000000 583.00000000 1.0000000000
 1671.6250000 47.250000000 28.170000076 4.0000000000 16.000000000 583.00000000 1.0000000000
 1671.7500000 42.200000763 27.840000153 4.0000000000 16.000000000 583.00000000 1.0000000000
 1671.8750000 34.659999847 27.479999542 4.0000000000 16.000000000 583.00000000 1.0000000000
 1672.0000000 29.430000305 27.079999924 4.0000000000 16.000000000 583.00000000 1.0000000000
 1672.1250000 27.739999771 26.659999847 4.0000000000 16.000000000 583.00000000 1.0000000000
 1672.2500000 29.729999542 26.200000763 4.0000000000 16.000000000 583.00000000 1.0000000000
 1672.3750000 37.630001068 25.729999542 4.0000000000 16.000000000 583.00000000 1.0000000000
 1672.5000000 51.509998322 25.239999771 4.0000000000 16.000000000 583.00000000 1.0000000000
 1672.6250000 64.680000305 24.770000458 4.0000000000 16.000000000 583.00000000 1.0000000000
 1672.7500000 70.669998169 24.309999466 4.0000000000 16.000000000 583.00000000 1.0000000000
 1672.8750000 69.510002136 23.889999390 4.0000000000 16.000000000 583.00000000 1.0000000000
 1673.0000000 64.610000610 23.500000000 4.0000000000 16.000000000 583.00000000 1.0000000000
 1673.1250000 59.889999390 23.129999161 4.0000000000 16.000000000 583.00000000 1.0000000000
 1673.2500000 57.770000458 22.799999237 4.0000000000 16.000000000 583.00000000 1.0000000000
 1673.3750000 58.759998322 22.520000458 4.0000000000 16.000000000 583.00000000 1.0000000000
 1673.5000000 61.740001678 22.290000916 4.0000000000 16.000000000 583.00000000 1.0000000000
 1673.6250000 64.290000916 22.110000610 4.0000000000 16.000000000 583.00000000 1.0000000000
 1673.7500000 64.349998474 21.969999313 4.0000000000 16.000000000 583.00000000 1.0000000000
 1673.8750000 62.080001831 21.860000610 4.0000000000 16.000000000 583.00000000 1.0000000000
 1674.0000000 59.880001068 21.760000229 4.0000000000 16.000000000 583.00000000 1.0000000000
 1674.1250000 60.330001831 21.680000305 4.0000000000 16.000000000 583.00000000 1.0000000000
 1674.2500000 64.839996338 21.610000610 4.0000000000 16.000000000 583.00000000 1.0000000000
 1674.3750000 74.849998474 21.549999237 4.0000000000 16.000000000 583.00000000 1.0000000000
 1674.5000000 87.910003662 21.479999542 4.0000000000 16.000000000 583.00000000 1.0000000000
 1674.6250000 94.510002136 21.420000076 4.0000000000 16.000000000 583.00000000 1.0000000000
 1674.7500000 87.389999390 21.370000839 4.0000000000 16.000000000 583.00000000 1.0000000000
 1674.8750000 72.589996338 21.319999695 4.0000000000 16.000000000 583.00000000 1.0000000000
 1675.0000000 58.560001373 21.280000687 4.0000000000 16.000000000 583.00000000 1.0000000000
 1675.1250000 50.069999695 21.260000229 4.0000000000 16.000000000 583.00000000 1.0000000000
 1675.2500000 47.810001373 21.250000000 4.0000000000 16.000000000 583.00000000 1.0000000000
 1675.3750000 51.130001068 21.260000229 4.0000000000 16.000000000 583.00000000 1.0000000000
 1675.5000000 58.720001221 21.270000458 4.0000000000 16.000000000 583.00000000 1.0000000000
 1675.6250000 68.879997253 21.280000687 4.0000000000 16.000000000 583.00000000 1.0000000000
 1675.7500000 78.300003052 21.280000687 4.0000000000 16.000000000 583.00000000 1.0000000000
 1675.8750000 84.529998779 21.280000687 4.0000000000 16.000000000 583.00000000 1.0000000000
 1676.0000000 88.050003052 21.299999237 4.0000000000 16.000000000 583.00000000 1.0000000000
 1676.1250000 90.959999084 21.340000153 4.0000000000 16.000000000 583.00000000 1.0000000000
 1676.2500000 93.160003662 21.399999619 4.0000000000 16.000000000 583.00000000 1.0000000000
 1676.3750000 93.919998169 21.489999771 4.0000000000 16.000000000 583.00000000 1.0000000000
 1676.5000000 92.199996948 21.610000610 4.0000000000 16.000000000 583.00000000 1.0000000000
 1676.6250000 89.180000305 21.770000458 4.0000000000 16.000000000 583.00000000 1.0000000000
 1676.7500000 85.519996643 21.979999542 4.0000000000 16.000000000 583.00000000 1.0000000000
 1676.8750000 82.180000305 22.239999771 4.0000000000 16.000000000 583.00000000 1.0000000000
 1677.0000000 80.250000000 22.530000687 4.0000000000 16.000000000 583.00000000 1.0000000000
 1677.1250000 80.379997253 22.860000610 4.0000000000 16.000000000 583.00000000 1.0000000000
 1677.2500000 79.550003052 23.219999313 4.0000000000 16.000000000 583.00000000 1.0000000000
 1677.3750000 73.069999695 23.600000381 4.0000000000 16.000000000 583.00000000 1.0000000000
 1677.5000000 59.750000000 24.020000458 4.0000000000 16.000000000 583.00000000 1.0000000000
 1677.6250000 46.360000610 24.459999084 4.0000000000 16.000000000 583.00000000 1.0000000000
 1677.7500000 37.409999847 24.930000305 4.0000000000 16.000000000 583.00000000 1.0000000000
 1677.8750000 32.389999390 25.399999619 4.0000000000 16.000000000 583.00000000 1.0000000000
 1678.0000000 30.319999695 25.879999161 4.0000000000 16.000000000 583.00000000 1.0000000000
 1678.1250000 30.739999771 26.329999924 4.0000000000 16.000000000 583.00000000 1.0000000000
 1678.2500000 30.950000763 26.750000000 4.0000000000 16.000000000 583.00000000 1.0000000000
 1678.3750000 28.940000534 27.129999161 4.0000000000 16.000000000 583.00000000 1.0000000000
 1678.5000000 25.110000610 27.479999542 4.0000000000 16.000000000 583.00000000 1.0000000000
 1678.6250000 20.620000839 27.770000458 4.0000000000 16.000000000 583.00000000 1.0000000000
 1678.7500000 17.110000610 28.030000687 4.0000000000 16.000000000 583.00000000 1.0000000000
 1678.8750000 15.720000267 28.250000000  -999.250000 0.1000000015 0.1000000015 0.0000000000
 1679.0000000 16.500000000 28.430000305  -999.250000 0.1000000015 0.1000000015 0.0000000000
 1679.1250000 19.680000305 28.569999695  -999.250000 0.1000000015 0.1000000015 0.0000000000
 1679.2500000 25.250000000 28.659999847  -999.250000 0.1000000015 0.1000000015 0.0000000000
 1679.3750000 31.670000076 28.700000763 4.0000000000 22.000000000 2008.0000000 1.0000000000
 1679.5000000 35.669998169 28.690000534 4.0000000000 22.000000000 2008.0000000 1.0000000000
 1679.6250000 36.220001221 28.629999161 4.0000000000 22.000000000 2008.0000000 1.0000000000
 1679.7500000 34.700000763 28.540000916 4.0000000000 22.000000000 2008.0000000 1.0000000000
 1679.8750000 32.259998322 28.430000305 4.0000000000 22.000000000 2008.0000000 1.0000000000
 1680.0000000 29.649999619 28.319999695 4.0000000000 22.000000000 2008.0000000 1.0000000000
