# LAS format log file from PETREL
# Project units are specified as depth units
#==================================================================
~Version information
VERS.   2.0:
WRAP.   NO:
#==================================================================
~Well
STRT .m      730.00000000 :
STOP .m      1740.0000000 :
STEP .m     0.12500000 :
NULL .        -999.250000 :
COMP.           : COMPANY
WELL.  51-165   : WELL
FLD.            : FIELD
LOC.            : LOCATION
SRVC.           : SERVICE COMPANY
DATE.  2020-03-08 09:25:10   : Log Export Date {yyyy-MM-dd HH:mm:ss}
PROV.           : PROVINCE
UWI.      : UNIQUE WELL ID
API.            : API NUMBER
#==================================================================
~Curve
DEPT .m                   : DEPTH
RT .ohm.m                 : RT
SP .                      : SP
Fluids .                  : Fluids
POR .m3/m3                : POR
PERM .mD                  : PERM
Lith .                    : Lith
~Parameter
#==================================================================
~Ascii
# ...
 1687.0000000 23.252000809 -9999.000000 2.0000000000 14.000000000 106.00000000 1.0000000000
 1687.1250000 27.265800476 -9999.000000 2.0000000000 14.000000000 106.00000000 1.0000000000
 1687.2500000 31.279499054 -9999.000000 2.0000000000 14.000000000 106.00000000 1.0000000000
 1687.3750000 35.293201447 -9999.000000 2.0000000000 14.000000000 106.00000000 1.0000000000
 1687.5000000 39.306999207 -9999.000000 2.0000000000 14.000000000 106.00000000 1.0000000000
 1687.6250000 40.653499603 -9999.000000 2.0000000000 14.000000000 106.00000000 1.0000000000
 1687.7500000 42.000000000 -9999.000000 2.0000000000 14.000000000 106.00000000 1.0000000000
 1687.8750000 43.346500397 -9999.000000 2.0000000000 14.000000000 106.00000000 1.0000000000
 1688.0000000 44.693000793 -9999.000000 2.0000000000 14.000000000 106.00000000 1.0000000000
 1688.1250000 44.146999359 -9999.000000 2.0000000000 14.000000000 106.00000000 1.0000000000
 1688.2500000 43.601001740 -9999.000000 2.0000000000 14.000000000 106.00000000 1.0000000000
 1688.3750000 43.055000305 -9999.000000 2.0000000000 14.000000000 106.00000000 1.0000000000
 1688.5000000 42.508998871 -9999.000000 2.0000000000 14.000000000 106.00000000 1.0000000000
 1688.6250000 39.591201782 -9999.000000 2.0000000000 14.000000000 106.00000000 1.0000000000
 1688.7500000 36.673500061 -9999.000000 2.0000000000 14.000000000 106.00000000 1.0000000000
 1688.8750000 33.755699158 -9999.000000 2.0000000000 14.000000000 106.00000000 1.0000000000
 1689.0000000 30.837999344 -9999.000000 2.0000000000 14.000000000 106.00000000 1.0000000000
 1689.1250000 29.512500763 -9999.000000 2.0000000000 14.000000000 106.00000000 1.0000000000
 1689.2500000 28.187000275 -9999.000000 2.0000000000 14.000000000 106.00000000 1.0000000000
 1689.3750000 26.861499786 -9999.000000 2.0000000000 14.000000000 106.00000000 1.0000000000
 1689.5000000 25.535999298 -9999.000000 2.0000000000 14.000000000 106.00000000 1.0000000000
 1689.6250000 24.711700439 -9999.000000 2.0000000000 14.000000000 106.00000000 1.0000000000
 1689.7500000 23.887500763 -9999.000000 2.0000000000 14.000000000 106.00000000 1.0000000000
 1689.8750000 23.063299179 -9999.000000 2.0000000000 14.000000000 106.00000000 1.0000000000
 1690.0000000 22.239000320 -9999.000000 2.0000000000 14.000000000 106.00000000 1.0000000000
 1690.1250000 22.421499252 -9999.000000 2.0000000000 14.000000000 106.00000000 1.0000000000
 1690.2500000 22.604000092 -9999.000000 2.0000000000 14.000000000 106.00000000 1.0000000000
 1690.3750000 22.786500931 -9999.000000 2.0000000000 14.000000000 106.00000000 1.0000000000
 1690.5000000 22.968999863 -9999.000000 2.0000000000 14.000000000 106.00000000 1.0000000000
 1690.6250000 23.470699310 -9999.000000 2.0000000000 14.000000000 106.00000000 1.0000000000
 1690.7500000 23.972499847 -9999.000000 2.0000000000 14.000000000 106.00000000 1.0000000000
 1690.8750000 24.474199295 -9999.000000 2.0000000000 14.000000000 106.00000000 1.0000000000
 1691.0000000 24.975999832 -9999.000000 2.0000000000 14.000000000 106.00000000 1.0000000000
 1691.1250000 24.873699188 -9999.000000 2.0000000000 14.000000000 106.00000000 1.0000000000
 1691.2500000 24.771499634 -9999.000000 2.0000000000 14.000000000 106.00000000 1.0000000000
 1691.3750000 24.669200897 -9999.000000 2.0000000000 14.000000000 106.00000000 1.0000000000
 1691.5000000 24.566999435 -9999.000000 2.0000000000 14.000000000 106.00000000 1.0000000000
 1691.6250000 23.147199631 -9999.000000 2.0000000000 14.000000000 106.00000000 1.0000000000
 1691.7500000 21.727500916 -9999.000000 2.0000000000 14.000000000 106.00000000 1.0000000000
 1691.8750000 20.307800293 -9999.000000 2.0000000000 14.000000000 106.00000000 1.0000000000
 1692.0000000 18.888000488 -9999.000000 2.0000000000 14.000000000 106.00000000 1.0000000000
 1692.1250000 18.920499802 -9999.000000 2.0000000000 14.000000000 106.00000000 1.0000000000
 1692.2500000 18.952999115 -9999.000000 2.0000000000 14.000000000 106.00000000 1.0000000000
 1692.3750000 18.985500336 -9999.000000 2.0000000000 14.000000000 106.00000000 1.0000000000
 1692.5000000 19.017999649 -9999.000000 2.0000000000 14.000000000 106.00000000 1.0000000000
 1692.6250000 20.950199127 -9999.000000 2.0000000000 14.000000000 106.00000000 1.0000000000
 1692.7500000 22.882499695 -9999.000000 2.0000000000 14.000000000 106.00000000 1.0000000000
 1692.8750000 24.814699173 -9999.000000 2.0000000000 14.000000000 106.00000000 1.0000000000
 1693.0000000 26.746999741 -9999.000000 2.0000000000 14.000000000 106.00000000 1.0000000000
 1693.1250000 28.034700394 -9999.000000 2.0000000000 14.000000000 106.00000000 1.0000000000
 1693.2500000 29.322500229 -9999.000000 2.0000000000 14.000000000 106.00000000 1.0000000000
 1693.3750000 30.610300064 -9999.000000 2.0000000000 14.000000000 106.00000000 1.0000000000
 1693.5000000 31.898000717 -9999.000000 2.0000000000 14.000000000 106.00000000 1.0000000000
 1693.6250000 29.591299057 -9999.000000 2.0000000000 14.000000000 106.00000000 1.0000000000
 1693.7500000 27.284500122 -9999.000000 2.0000000000 14.000000000 106.00000000 1.0000000000
 1693.8750000 24.977699280 -9999.000000 2.0000000000 14.000000000 106.00000000 1.0000000000
 1694.0000000 22.670999527 -9999.000000 2.0000000000 14.000000000 106.00000000 1.0000000000
 1694.1250000 23.558000565 -9999.000000 2.0000000000 14.000000000 106.00000000 1.0000000000
 1694.2500000 24.444999695 -9999.000000 2.0000000000 14.000000000 106.00000000 1.0000000000
 1694.3750000 25.332000732 -9999.000000 2.0000000000 14.000000000 106.00000000 1.0000000000
 1694.5000000 26.218999863 -9999.000000 2.0000000000 14.000000000 106.00000000 1.0000000000
 1694.6250000 25.891300201 -9999.000000 2.0000000000 14.000000000 106.00000000 1.0000000000
 1694.7500000 25.563499451 -9999.000000 2.0000000000 14.000000000 106.00000000 1.0000000000
 1694.8750000 25.235799789 -9999.000000 2.0000000000 14.000000000 106.00000000 1.0000000000
 1695.0000000 24.908000946 -9999.000000 2.0000000000 14.000000000 106.00000000 1.0000000000
 1695.1250000 23.013500214 -9999.000000 2.0000000000 14.000000000 106.00000000 1.0000000000
 1695.2500000 21.118999481 -9999.000000 2.0000000000 14.000000000 106.00000000 1.0000000000
 1695.3750000 19.224500656 -9999.000000 2.0000000000 14.000000000 106.00000000 1.0000000000
 1695.5000000 17.329999924 -9999.000000 2.0000000000 14.000000000 106.00000000 1.0000000000
 1695.6250000 18.610000610 -9999.000000 2.0000000000 14.000000000 106.00000000 1.0000000000
 1695.7500000 19.889999390 -9999.000000 2.0000000000 14.000000000 106.00000000 1.0000000000
 1695.8750000 21.170000076 -9999.000000 2.0000000000 14.000000000 106.00000000 1.0000000000
 1696.0000000 22.450000763 -9999.000000 2.0000000000 14.000000000 106.00000000 1.0000000000
 1696.1250000 22.377000809 -9999.000000 2.0000000000 14.000000000 106.00000000 1.0000000000
 1696.2500000 22.304000854 -9999.000000 2.0000000000 14.000000000 106.00000000 1.0000000000
 1696.3750000 22.231000900 -9999.000000 2.0000000000 14.000000000 106.00000000 1.0000000000
 1696.5000000 22.158000946 -9999.000000 2.0000000000 14.000000000 106.00000000 1.0000000000
 1696.6250000 21.320299149 -9999.000000 2.0000000000 14.000000000 106.00000000 1.0000000000
 1696.7500000 20.482500076 -9999.000000 2.0000000000 14.000000000 106.00000000 1.0000000000
 1696.8750000 19.644699097 -9999.000000 2.0000000000 14.000000000 106.00000000 1.0000000000
 1697.0000000 18.806999207 -9999.000000 2.0000000000 14.000000000 106.00000000 1.0000000000
 1697.1250000 18.894199371 -9999.000000 2.0000000000 14.000000000 106.00000000 1.0000000000
 1697.2500000 18.981500626 -9999.000000 2.0000000000 14.000000000 106.00000000 1.0000000000
 1697.3750000 19.068700790 -9999.000000 2.0000000000 14.000000000 106.00000000 1.0000000000
 1697.5000000 19.156000137 -9999.000000 2.0000000000 14.000000000 106.00000000 1.0000000000
 1697.6250000 18.707799911 -9999.000000 2.0000000000 14.000000000 106.00000000 1.0000000000
 1697.7500000 18.259500504 -9999.000000 2.0000000000 14.000000000 106.00000000 1.0000000000
