# LAS format log file from PETREL
# Project units are specified as depth units
#==================================================================
~Version information
VERS.   2.0:
WRAP.   NO:
#==================================================================
~Well
STRT .m      730.00000000 :
STOP .m      1740.0000000 :
STEP .m     0.12500000 :
NULL .        -999.250000 :
COMP.           : COMPANY
WELL.  51-165   : WELL
FLD.            : FIELD
LOC.            : LOCATION
SRVC.           : SERVICE COMPANY
DATE.  2020-03-08 09:25:10   : Log Export Date {yyyy-MM-dd HH:mm:ss}
PROV.           : PROVINCE
UWI.      : UNIQUE WELL ID
API.            : API NUMBER
#==================================================================
~Curve
DEPT .m                   : DEPTH
RT .ohm.m                 : RT
SP .                      : SP
Fluids .                  : Fluids
POR .m3/m3                : POR
PERM .mD                  : PERM
Lith .                    : Lith
~Parameter
#==================================================================
~Ascii
# ...
 1600.0000000 46.766998291 -9999.000000 4.0000000000 17.000000000 255.00000000 1.0000000000
 1600.1250000 41.046001434 -9999.000000 4.0000000000 17.000000000 255.00000000 1.0000000000
 1600.2500000 35.325000763 -9999.000000 4.0000000000 17.000000000 255.00000000 1.0000000000
 1600.3750000 29.604000092 -9999.000000 4.0000000000 17.000000000 255.00000000 1.0000000000
 1600.5000000 23.882999420 -9999.000000 4.0000000000 17.000000000 255.00000000 1.0000000000
 1600.6250000 24.643199921 -9999.000000 4.0000000000 17.000000000 255.00000000 1.0000000000
 1600.7500000 25.403499603 -9999.000000 4.0000000000 17.000000000 255.00000000 1.0000000000
 1600.8750000 26.163700104 -9999.000000 4.0000000000 17.000000000 255.00000000 1.0000000000
 1601.0000000 26.923999786 -9999.000000 4.0000000000 17.000000000 255.00000000 1.0000000000
 1601.1250000 26.494199753 -9999.000000 4.0000000000 17.000000000 255.00000000 1.0000000000
 1601.2500000 26.064500809 -9999.000000 4.0000000000 17.000000000 255.00000000 1.0000000000
 1601.3750000 25.634700775 -9999.000000 4.0000000000 17.000000000 255.00000000 1.0000000000
 1601.5000000 25.204999924 -9999.000000 4.0000000000 17.000000000 255.00000000 1.0000000000
 1601.6250000 22.641500473 -9999.000000 4.0000000000 17.000000000 255.00000000 1.0000000000
 1601.7500000 20.077999115 -9999.000000 4.0000000000 17.000000000 255.00000000 1.0000000000
 1601.8750000 17.514499664 -9999.000000 4.0000000000 17.000000000 255.00000000 1.0000000000
 1602.0000000 14.951000214 -9999.000000 4.0000000000 17.000000000 255.00000000 1.0000000000
 1602.1250000 16.708799362 -9999.000000 4.0000000000 17.000000000 255.00000000 1.0000000000
 1602.2500000 18.466499329 -9999.000000 4.0000000000 17.000000000 255.00000000 1.0000000000
 1602.3750000 20.224300385 -9999.000000 4.0000000000 17.000000000 255.00000000 1.0000000000
 1602.5000000 21.982000351 -9999.000000 4.0000000000 17.000000000 255.00000000 1.0000000000
 1602.6250000 21.990800858 -9999.000000 4.0000000000 17.000000000 255.00000000 1.0000000000
 1602.7500000 21.999500275 -9999.000000 4.0000000000 17.000000000 255.00000000 1.0000000000
 1602.8750000 22.008300781 -9999.000000 4.0000000000 17.000000000 255.00000000 1.0000000000
 1603.0000000 22.017000198 -9999.000000 4.0000000000 17.000000000 255.00000000 1.0000000000
 1603.1250000 20.370800018 -9999.000000 4.0000000000 17.000000000 255.00000000 1.0000000000
 1603.2500000 18.724500656 -9999.000000 4.0000000000 17.000000000 255.00000000 1.0000000000
 1603.3750000 17.078300476 -9999.000000 4.0000000000 17.000000000 255.00000000 1.0000000000
 1603.5000000 15.432000160 -9999.000000 4.0000000000 17.000000000 255.00000000 1.0000000000
 1603.6250000 16.637500763 -9999.000000 4.0000000000 17.000000000 255.00000000 1.0000000000
 1603.7500000 17.843000412 -9999.000000 4.0000000000 17.000000000 255.00000000 1.0000000000
 1603.8750000 19.048500061 -9999.000000 4.0000000000 17.000000000 255.00000000 1.0000000000
 1604.0000000 20.253999710 -9999.000000 4.0000000000 17.000000000 255.00000000 1.0000000000
 1604.1250000 20.802999496 -9999.000000 4.0000000000 17.000000000 255.00000000 1.0000000000
 1604.2500000 21.351999283 -9999.000000 4.0000000000 17.000000000 255.00000000 1.0000000000
 1604.3750000 21.900999069 -9999.000000 4.0000000000 17.000000000 255.00000000 1.0000000000
 1604.5000000 22.450000763 -9999.000000 4.0000000000 17.000000000 255.00000000 1.0000000000
 1604.6250000 22.782300949 -9999.000000 4.0000000000 17.000000000 255.00000000 1.0000000000
 1604.7500000 23.114500046 -9999.000000 4.0000000000 17.000000000 255.00000000 1.0000000000
 1604.8750000 23.446699142 -9999.000000 4.0000000000 17.000000000 255.00000000 1.0000000000
 1605.0000000 23.778999329 -9999.000000 4.0000000000 17.000000000 255.00000000 1.0000000000
 1605.1250000 21.439199448 -9999.000000 4.0000000000 17.000000000 255.00000000 1.0000000000
 1605.2500000 19.099500656 -9999.000000 4.0000000000 17.000000000 255.00000000 1.0000000000
 1605.3750000 16.759700775 -9999.000000 4.0000000000 17.000000000 255.00000000 1.0000000000
 1605.5000000 14.420000076 -9999.000000 4.0000000000 17.000000000 255.00000000 1.0000000000
 1605.6250000 15.303799629 -9999.000000 4.0000000000 17.000000000 255.00000000 1.0000000000
 1605.7500000 16.187500000 -9999.000000 4.0000000000 17.000000000 255.00000000 1.0000000000
 1605.8750000 17.071199417 -9999.000000 4.0000000000 17.000000000 255.00000000 1.0000000000
 1606.0000000 17.954999924 -9999.000000 4.0000000000 17.000000000 255.00000000 1.0000000000
 1606.1250000 18.039499283 -9999.000000 4.0000000000 17.000000000 255.00000000 1.0000000000
 1606.2500000 18.124000549 -9999.000000 4.0000000000 17.000000000 255.00000000 1.0000000000
 1606.3750000 18.208499908 -9999.000000 4.0000000000 17.000000000 255.00000000 1.0000000000
 1606.5000000 18.292999268 -9999.000000 4.0000000000 17.000000000 255.00000000 1.0000000000
 1606.6250000 17.390199661 -9999.000000 4.0000000000 17.000000000 255.00000000 1.0000000000
 1606.7500000 16.487499237 -9999.000000 4.0000000000 17.000000000 255.00000000 1.0000000000
 1606.8750000 15.584699631 -9999.000000 4.0000000000 17.000000000 255.00000000 1.0000000000
 1607.0000000 14.682000160 -9999.000000 4.0000000000 17.000000000 255.00000000 1.0000000000
 1607.1250000 14.538499832 -9999.000000 4.0000000000 17.000000000 255.00000000 1.0000000000
 1607.2500000 14.395000458 -9999.000000 4.0000000000 17.000000000 255.00000000 1.0000000000
 1607.3750000 14.251500130 -9999.000000 4.0000000000 17.000000000 255.00000000 1.0000000000
 1607.5000000 14.107999802 -9999.000000 4.0000000000 17.000000000 255.00000000 1.0000000000
 1607.6250000 14.853699684 -9999.000000 4.0000000000 17.000000000 255.00000000 1.0000000000
 1607.7500000 15.599499702 -9999.000000 4.0000000000 17.000000000 255.00000000 1.0000000000
 1607.8750000 16.345199585 -9999.000000 4.0000000000 17.000000000 255.00000000 1.0000000000
 1608.0000000 17.090999603 -9999.000000 4.0000000000 17.000000000 255.00000000 1.0000000000
 1608.1250000 17.995199203 -9999.000000 4.0000000000 17.000000000 255.00000000 1.0000000000
 1608.2500000 18.899499893 -9999.000000 4.0000000000 17.000000000 255.00000000 1.0000000000
 1608.3750000 19.803800583 -9999.000000 4.0000000000 17.000000000 255.00000000 1.0000000000
 1608.5000000 20.708000183 -9999.000000 4.0000000000 17.000000000 255.00000000 1.0000000000
 1608.6250000 19.163299561 -9999.000000 4.0000000000 17.000000000 255.00000000 1.0000000000
 1608.7500000 17.618499756 -9999.000000 4.0000000000 17.000000000 255.00000000 1.0000000000
 1608.8750000 16.073799133 -9999.000000 4.0000000000 17.000000000 255.00000000 1.0000000000
 1609.0000000 14.529000282 -9999.000000 4.0000000000 17.000000000 255.00000000 1.0000000000
 1609.1250000 14.940799713 -9999.000000 4.0000000000 17.000000000 255.00000000 1.0000000000
 1609.2500000 15.352499962 -9999.000000 4.0000000000 17.000000000 255.00000000 1.0000000000
 1609.3750000 15.764300346 -9999.000000 4.0000000000 17.000000000 255.00000000 1.0000000000
 1609.5000000 16.176000595 -9999.000000 4.0000000000 17.000000000 255.00000000 1.0000000000
 1609.6250000 16.616800308 -9999.000000 4.0000000000 17.000000000 255.00000000 1.0000000000
 1609.7500000 17.057500839 -9999.000000 4.0000000000 17.000000000 255.00000000 1.0000000000
 1609.8750000 17.498199463 -9999.000000 4.0000000000 17.000000000 255.00000000 1.0000000000
 1610.0000000 17.938999176 -9999.000000 4.0000000000 17.000000000 255.00000000 1.0000000000
 1610.1250000 15.729999542 -9999.000000 4.0000000000 17.000000000 255.00000000 1.0000000000
 1610.2500000 13.520999908 -9999.000000 4.0000000000 17.000000000 255.00000000 1.0000000000
 1610.3750000 11.312000275 -9999.000000  -999.250000 0.1000000015 0.1000000015 0.0000000000
 1610.5000000 9.1029996872 -9999.000000  -999.250000 0.1000000015 0.1000000015 0.0000000000
 1610.6250000 9.2139997482 -9999.000000  -999.250000 0.1000000015 0.1000000015 0.0000000000
 1610.7500000 9.3249998093 -9999.000000  -999.250000 0.1000000015 0.1000000015 0.0000000000
