# LAS format log file from PETREL
# Project units are specified as depth units
#==================================================================
~Version information
VERS.   2.0:
WRAP.   NO:
#==================================================================
~Well
STRT .m      1580.8750000 :
STOP .m      1709.7500000 :
STEP .m     0.12500000 :
NULL .        -999.250000 :
COMP.           : COMPANY
WELL.  51-166   : WELL
FLD.            : FIELD
LOC.            : LOCATION
SRVC.           : SERVICE COMPANY
DATE.  2020-03-08 09:25:10   : Log Export Date {yyyy-MM-dd HH:mm:ss}
PROV.           : PROVINCE
UWI.      : UNIQUE WELL ID
API.            : API NUMBER
#==================================================================
~Curve
DEPT .m                   : DEPTH
Fluids .                  : Fluids
POR .m3/m3                : POR
PERM .mD                  : PERM
Lith .                    : Lith
~Parameter
#==================================================================
~Ascii
# ...
 1687.6250000 2.0000000000 16.000000000 145.00000000 1.0000000000
 1687.7500000 2.0000000000 16.000000000 145.00000000 1.0000000000
 1687.8750000 2.0000000000 16.000000000 145.00000000 1.0000000000
 1688.0000000 2.0000000000 16.000000000 145.00000000 1.0000000000
 1688.1250000 2.0000000000 16.000000000 145.00000000 1.0000000000
 1688.2500000 2.0000000000 16.000000000 145.00000000 1.0000000000
 1688.3750000 2.0000000000 16.000000000 145.00000000 1.0000000000
 1688.5000000 2.0000000000 16.000000000 145.00000000 1.0000000000
 1688.6250000 2.0000000000 16.000000000 145.00000000 1.0000000000
 1688.7500000 2.0000000000 16.000000000 145.00000000 1.0000000000
 1688.8750000 2.0000000000 16.000000000 145.00000000 1.0000000000
 1689.0000000 2.0000000000 16.000000000 145.00000000 1.0000000000
 1689.1250000 2.0000000000 16.000000000 145.00000000 1.0000000000
 1689.2500000 2.0000000000 16.000000000 145.00000000 1.0000000000
 1689.3750000 2.0000000000 16.000000000 145.00000000 1.0000000000
 1689.5000000 2.0000000000 16.000000000 145.00000000 1.0000000000
 1689.6250000 2.0000000000 16.000000000 145.00000000 1.0000000000
 1689.7500000 2.0000000000 16.000000000 145.00000000 1.0000000000
 1689.8750000 2.0000000000 16.000000000 145.00000000 1.0000000000
 1690.0000000 2.0000000000 16.000000000 145.00000000 1.0000000000
 1690.1250000 2.0000000000 16.000000000 145.00000000 1.0000000000
 1690.2500000 2.0000000000 16.000000000 145.00000000 1.0000000000
 1690.3750000 2.0000000000 16.000000000 145.00000000 1.0000000000
 1690.5000000 2.0000000000 16.000000000 145.00000000 1.0000000000
 1690.6250000 2.0000000000 16.000000000 145.00000000 1.0000000000
 1690.7500000 2.0000000000 16.000000000 145.00000000 1.0000000000
 1690.8750000 2.0000000000 16.000000000 145.00000000 1.0000000000
 1691.0000000 2.0000000000 16.000000000 145.00000000 1.0000000000
 1691.1250000 2.0000000000 16.000000000 145.00000000 1.0000000000
 1691.2500000 2.0000000000 16.000000000 145.00000000 1.0000000000
 1691.3750000 2.0000000000 16.000000000 145.00000000 1.0000000000
 1691.5000000 2.0000000000 16.000000000 145.00000000 1.0000000000
 1691.6250000 2.0000000000 16.000000000 145.00000000 1.0000000000
 1691.7500000 2.0000000000 16.000000000 145.00000000 1.0000000000
 1691.8750000 2.0000000000 16.000000000 145.00000000 1.0000000000
 1692.0000000 2.0000000000 16.000000000 145.00000000 1.0000000000
 1692.1250000 2.0000000000 16.000000000 145.00000000 1.0000000000
 1692.2500000 2.0000000000 16.000000000 145.00000000 1.0000000000
 1692.3750000 2.0000000000 16.000000000 145.00000000 1.0000000000
 1692.5000000 2.0000000000 16.000000000 145.00000000 1.0000000000
 1692.6250000 2.0000000000 16.000000000 145.00000000 1.0000000000
 1692.7500000 2.0000000000 16.000000000 145.00000000 1.0000000000
 1692.8750000 2.0000000000 16.000000000 145.00000000 1.0000000000
 1693.0000000 2.0000000000 16.000000000 145.00000000 1.0000000000
 1693.1250000 2.0000000000 16.000000000 145.00000000 1.0000000000
 1693.2500000 2.0000000000 16.000000000 145.00000000 1.0000000000
 1693.3750000 2.0000000000 16.000000000 145.00000000 1.0000000000
 1693.5000000 2.0000000000 16.000000000 145.00000000 1.0000000000
 1693.6250000 2.0000000000 16.000000000 145.00000000 1.0000000000
 1693.7500000 2.0000000000 16.000000000 145.00000000 1.0000000000
 1693.8750000 2.0000000000 16.000000000 145.00000000 1.0000000000
 1694.0000000 2.0000000000 16.000000000 145.00000000 1.0000000000
 1694.1250000 2.0000000000 16.000000000 145.00000000 1.0000000000
 1694.2500000 2.0000000000 16.000000000 145.00000000 1.0000000000
 1694.3750000 2.0000000000 16.000000000 145.00000000 1.0000000000
 1694.5000000 2.0000000000 16.000000000 145.00000000 1.0000000000
 1694.6250000 2.0000000000 16.000000000 145.00000000 1.0000000000
 1694.7500000 2.0000000000 16.000000000 145.00000000 1.0000000000
 1694.8750000 2.0000000000 16.000000000 145.00000000 1.0000000000
 1695.0000000 2.0000000000 16.000000000 145.00000000 1.0000000000
 1695.1250000 2.0000000000 16.000000000 145.00000000 1.0000000000
 1695.2500000 2.0000000000 16.000000000 145.00000000 1.0000000000
 1695.3750000 2.0000000000 16.000000000 145.00000000 1.0000000000
 1695.5000000 2.0000000000 16.000000000 145.00000000 1.0000000000
 1695.6250000 2.0000000000 16.000000000 145.00000000 1.0000000000
 1695.7500000 2.0000000000 16.000000000 145.00000000 1.0000000000
 1695.8750000 2.0000000000 16.000000000 145.00000000 1.0000000000
 1696.0000000 2.0000000000 16.000000000 145.00000000 1.0000000000
 1696.1250000 2.0000000000 16.000000000 145.00000000 1.0000000000
 1696.2500000 2.0000000000 16.000000000 145.00000000 1.0000000000
 1696.3750000 2.0000000000 16.000000000 145.00000000 1.0000000000
 1696.5000000 2.0000000000 16.000000000 145.00000000 1.0000000000
 1696.6250000 2.0000000000 16.000000000 145.00000000 1.0000000000
 1696.7500000 2.0000000000 16.000000000 145.00000000 1.0000000000
 1696.8750000 2.0000000000 16.000000000 145.00000000 1.0000000000
 1697.0000000 2.0000000000 16.000000000 145.00000000 1.0000000000
 1697.1250000 2.0000000000 16.000000000 145.00000000 1.0000000000
 1697.2500000 2.0000000000 16.000000000 145.00000000 1.0000000000
 1697.3750000 2.0000000000 16.000000000 145.00000000 1.0000000000
 1697.5000000 2.0000000000 16.000000000 145.00000000 1.0000000000
 1697.6250000 2.0000000000 16.000000000 145.00000000 1.0000000000
 1697.7500000 2.0000000000 16.000000000 145.00000000 1.0000000000
 1697.8750000 2.0000000000 16.000000000 145.00000000 1.0000000000
 1698.0000000 2.0000000000 16.000000000 145.00000000 1.0000000000
 1698.1250000 2.0000000000 16.000000000 145.00000000 1.0000000000
 1698.2500000 2.0000000000 16.000000000 145.00000000 1.0000000000
 1698.3750000 2.0000000000 16.000000000 145.00000000 1.0000000000
 1698.5000000 2.0000000000 16.000000000 145.00000000 1.0000000000
 1698.6250000  -999.250000 0.1000000015 0.1000000015 0.0000000000
 1698.7500000  -999.250000 0.1000000015 0.1000000015 0.0000000000
 1698.8750000  -999.250000 0.1000000015 0.1000000015 0.0000000000
 1699.0000000  -999.250000 0.1000000015 0.1000000015 0.0000000000
 1699.1250000  -999.250000 0.1000000015 0.1000000015 0.0000000000
 1699.2500000 2.0000000000 19.000000000 285.00000000 1.0000000000
 1699.3750000 2.0000000000 19.000000000 285.00000000 1.0000000000
 1699.5000000 2.0000000000 19.000000000 285.00000000 1.0000000000
 1699.6250000 2.0000000000 19.000000000 285.00000000 1.0000000000
 1699.7500000 2.0000000000 19.000000000 285.00000000 1.0000000000
 1699.8750000 2.0000000000 19.000000000 285.00000000 1.0000000000
 1700.0000000 2.0000000000 19.000000000 285.00000000 1.0000000000
 1700.1250000 2.0000000000 19.000000000 285.00000000 1.0000000000
 1700.2500000 2.0000000000 19.000000000 285.00000000 1.0000000000
 1700.3750000 2.0000000000 19.000000000 285.00000000 1.0000000000
 1700.5000000 2.0000000000 19.000000000 285.00000000 1.0000000000
 1700.6250000 2.0000000000 19.000000000 285.00000000 1.0000000000
 1700.7500000 2.0000000000 19.000000000 285.00000000 1.0000000000
 1700.8750000 2.0000000000 19.000000000 285.00000000 1.0000000000
 1701.0000000 2.0000000000 19.000000000 285.00000000 1.0000000000
 1701.1250000 2.0000000000 19.000000000 285.00000000 1.0000000000
 1701.2500000 2.0000000000 19.000000000 285.00000000 1.0000000000
 1701.3750000 2.0000000000 19.000000000 285.00000000 1.0000000000
 1701.5000000 2.0000000000 19.000000000 285.00000000 1.0000000000
 1701.6250000 2.0000000000 19.000000000 285.00000000 1.0000000000
 1701.7500000 2.0000000000 19.000000000 285.00000000 1.0000000000
 1701.8750000 2.0000000000 19.000000000 285.00000000 1.0000000000
 1702.0000000  -999.250000 0.1000000015 0.1000000015 0.0000000000
 1702.1250000  -999.250000 0.1000000015 0.1000000015 0.0000000000
 1702.2500000  -999.250000 0.1000000015 0.1000000015 0.0000000000
 1702.3750000  -999.250000 0.1000000015 0.1000000015 0.0000000000
 1702.5000000  -999.250000 0.1000000015 0.1000000015 0.0000000000
 1702.6250000  -999.250000 0.1000000015 0.1000000015 0.0000000000
 1702.7500000  -999.250000 0.1000000015 0.1000000015 0.0000000000
